[{"user_id": "1", "name": "上海澳门路月星", "tel": "021-32270658", "linkman": "徐旭旭", "province_id": "41", "city_id": "45", "activity": "新手红包，人人有份", "location_longitude": "121.4521620000", "location_latitude": "31.2537810000", "entity_shop_pic": "http://imgcdn.yuexing.com/static/data/files/mall/shop/0/be0e9ad1-f4b4-458e-9e6e-e8451d474ef2.jpg", "address": "澳门路168号", "hours": "10:00-21:00", "presentation": "上海月星家居茂成立于2000年，经过17年的飞速发展始终保持行业领军地位。2015年利用互联网+的思维通过3D全景和交互技术，通过“020智慧商城”完成线上线下同步；2016年通过十大中心泛家居多业态服务的设立，为消费者带来全方位的泛家居体验，月星家居茂将用大智慧、用心甄选访遍全球，萃取最优的国际一线品牌、国内精品、原创设计的家居，打造更具有生活美学的生活体验空间，成为华东地区甚至全球家居艺术多感官体验聚集展示中心。", "businessscope": "家居及泛家居业态，主营现代家具、时尚家具、精品家具、国际进口家具、餐饮、酒吧；", "actexpiration": "1506528000", "entity_shop_smallpic": "http://imgcdn.yuexing.com/static/data/files/mall/shop/0/111.jpg", "province": "上海市", "city": "普陀区", "nodisplay": 1}, {"user_id": "437905", "name": "上海松江月星", "tel": "021-37652561", "linkman": "", "province_id": "41", "city_id": "56", "activity": "", "location_longitude": "121.2484130000", "location_latitude": "31.0620410000", "entity_shop_pic": "http://imgcdn.yuexing.com/static/data/files/mall/shop/8759/72409512716d6da6c506c152a74dfdfb.png", "address": "广富林路799弄", "hours": "9:30-18:30", "presentation": "地理位置好，坏境好，服务好，售后有保障。", "businessscope": "商场有家居，建材等一站式服务，让顾客享受到一次性完成或一步到位的便捷服务，不再需要东奔西走，节省了时间，提高了效率，以适应现代人快节奏，高效率的要求", "actexpiration": "1507046400", "entity_shop_smallpic": "http://imgcdn.yuexing.com/static/data/files/mall/shop/8759/8d148a87a7051533a347ec00d3ac0342.png", "province": "上海市", "city": "松江区", "nodisplay": 1}, {"user_id": "153972", "name": "荣昌月星", "tel": "023-46766767", "linkman": "", "province_id": "61", "city_id": "79", "activity": "", "location_longitude": "105.6174050000", "location_latitude": "29.4055400000", "entity_shop_pic": "http://imgcdn.yuexing.com/static/data/files/mall/shop/3080/168763edd9702e464ff7cecff1bb9bd8.png", "address": "荣昌县昌州街道迎宾大道南段3号一栋4楼D1室", "hours": "8.30-18.30", "presentation": "荣昌月星家居广场是月星集团旗下又一家集家具、建材、家饰一体化的大型家居购物中心，项目地处重庆市一小时经济圈的荣昌县，毗邻成渝高速公路，距2014年即将通车的成渝高铁荣昌东站不到2公里。广场建筑面积8万平方米，共分四个楼层，32部人行自动扶梯、2部观光电梯，其超大共享延伸的9米宽商业内街及平均5.2米以上的层高使整个商场气势恢宏却又不失时尚和灵动。广场所在的五洲国际商贸城是香港五洲集团在西南地区倾力打造的100万平方米物流商贸平台，其五金机电、数码科技、家居建材、商务办公及白领公寓等丰富的业态为月星家居的落", "businessscope": "家具：软体家具，实木家具，红木家具，欧美家具，板式家具。建材：瓷砖，卫浴，地板，门窗，定制衣柜，橱柜，墙面装饰，装饰设计", "actexpiration": "1507132800", "entity_shop_smallpic": "http://imgcdn.yuexing.com/static/data/files/mall/shop/3080/40007a2f471574f006ae54cfb8bf764d.png", "province": "重庆市", "city": "荣昌", "nodisplay": 1}, {"user_id": "153877", "name": "邯郸月星", "tel": "", "linkman": "", "province_id": "104", "city_id": "111", "activity": "", "location_longitude": "114.5261080000", "location_latitude": "36.6485990000", "entity_shop_pic": "http://imgcdn.yuexing.com/static/data/files/mall/shop/0/DSC_1976.JPG", "address": "滏河北大街656号", "hours": "", "presentation": "邯郸月星家居广场与在建的集建材、家具、家装、家饰以及百货超市为一体的15万平方米的二期配套项目形成居家生活的系列销售格局，与规划中的苏曹生态公园、邯郸横店影视城、国家羽毛球馆，鑫港电子商务中心共同打造成一个生态商业，将带动周边的商业物业共同建筑邯郸的新都市核心商圈，成为邯郸东北部***、潮流消费的前沿阵地。", "businessscope": "", "actexpiration": "1511514144", "entity_shop_smallpic": "http://imgcdn.yuexing.com/static/data/files/mall/shop/0/111.jpg", "province": "河北省", "city": "邯郸", "nodisplay": 1}, {"user_id": "153873", "name": "大同月星", "tel": "0352-5683766", "linkman": "", "province_id": "116", "city_id": "118", "activity": "", "location_longitude": "113.3426630000", "location_latitude": "40.0678950000", "entity_shop_pic": "http://imgcdn.yuexing.com/static/data/files/mall/shop/3078/5f73afe4543505002d250f8939af8ce6.png", "address": "御东区南环路（2011-08）号", "hours": "9:00-5:30冬9:00-6:00夏", "presentation": "大同月星国际家居广场是月星集团秉承一贯的“全面提升中国人居家文化品质”的品牌拓展经营宗旨，在山西晋北致力打造的一体化、国际化超大型家居商业广场。", "businessscope": "广场位于大同市衔接老城新区的首要腹带地段，面积20万平米，交通通畅，比邻诸多领袖楼盘。广场充分运用先进的商业管理运营模式及灵活的商业运作机制，以建材家具展厅为主体，为广大商家构筑绝佳的投资环境，为国内外一线品牌提供交流和展示的优质平台。", "actexpiration": "1509525390", "entity_shop_smallpic": "http://imgcdn.yuexing.com/static/data/files/mall/shop/0/4.JPG", "province": "山西省", "city": "大同市", "nodisplay": 1}, {"user_id": "153973", "name": "晋城月星", "tel": "0356-2281177", "linkman": "", "province_id": "116", "city_id": "125", "activity": "", "location_longitude": "112.9099520000", "location_latitude": "35.4997480000", "entity_shop_pic": "http://imgcdn.yuexing.com/static/data/files/mall/shop/3080/44fc6c7feae9bbcd9c52231256f14d49.png", "address": "红星东街月星商业广场C区", "hours": "9:00-18:00 9:00-18：30（周六日）", "presentation": "晋城月星家居位于207国道与红星东街交汇处，交通便捷，总建筑面积达到20万平方米，是晋城市单体规模最大的以家居商业为主体的购物中心，聚拢国内外数百高端品牌，打造一站式置家平台。\r\n晋城月星家居位于月星商业广场C区，月星商业广场涵盖了建材城、月星家居馆、百货批发商城、苏宁易购、儿童主题乐园、主题酒店、美食城、汽车用品城、窗帘布艺城、茶城等众多业态及银行、休闲、商务办公等配套设施，提升了城市生活的功能和品味，较晋城传统相对单一的商业模式具有更强的竞争优势。\r\n晋城月星家居引领了中国家居消费的新概念的同时，也将", "businessscope": "经营面积50000平方米，主营软体家具、板式家具、实木家具、欧美家居、红木家具。其中，红木大观园，集国内外知名红木品牌于一体，经营面积3000平米，是晋城市首家规模最大，品类齐全，档次最高，价格亲民的红木购物中心。", "actexpiration": "1509465600", "entity_shop_smallpic": "http://imgcdn.yuexing.com/static/data/files/mall/shop/3080/3f760f221f2441885f13b96357cb8289.png", "province": "山西省", "city": "晋城市", "nodisplay": 1}, {"user_id": "153961", "name": "大连月星", "tel": "0411-84592120", "linkman": "", "province_id": "128", "city_id": "130", "activity": "微信号：dalianyuexing", "location_longitude": "121.5921680000", "location_latitude": "38.8834050000", "entity_shop_pic": "http://imgcdn.yuexing.com/static/data/files/mall/shop/0/.jpg", "address": "沙河口区星海广场F区10号负一层", "hours": "9:00-17:00", "presentation": "买精品家具就到星海广场月星家居，品质生活从月星开始。世界各地的百余种品牌，万余款家居精品在这里汇聚，风格各异的时尚家具和极赋创意的家饰用品、气宇不凡的精致布局和典雅浓情的氛围格调，提供了文化与品味完美融合的一流购物环境，使消费者了解、接触世界前沿流行家具的文化韵味和发展趋势，从而全面提升大连这个以白领**和中产阶级为主流的商业城市中“上规模、高档次家居”市场的居家文化品质。", "businessscope": "大连月星家居广场，坐拥亚洲最大的公众广场——星海广场，总营业面积50000平方米，集欧美、实木、红木、现代、定制、儿童、睡眠、家饰于一体，以其成熟、独特、高品质的规范化经营管理模式，导入全新的都市生活购物形态和全新的商业模式核心理念，打造了全球家居饕餮盛宴。", "actexpiration": "1509465600", "entity_shop_smallpic": "http://imgcdn.yuexing.com/static/data/files/mall/shop/0/01.png", "province": "辽宁省", "city": "大连", "nodisplay": 1}, {"user_id": "153981", "name": "葫芦岛月星", "tel": "0429-2623666", "linkman": "", "province_id": "128", "city_id": "142", "activity": "", "location_longitude": "120.8807390000", "location_latitude": "40.7426320000", "entity_shop_pic": "http://imgcdn.yuexing.com/static/data/files/mall/shop/0/1.jpg", "address": "龙港区文兴南路26号", "hours": "9:00-17:00", "presentation": "", "businessscope": "", "actexpiration": "1509465600", "entity_shop_smallpic": "http://imgcdn.yuexing.com/static/data/files/mall/shop/0/111.jpg", "province": "辽宁省", "city": "葫芦岛", "nodisplay": 1}, {"user_id": "153875", "name": "哈尔滨爱建月星", "tel": "0451-87639000", "linkman": "", "province_id": "153", "city_id": "154", "activity": "", "location_longitude": "126.6095960000", "location_latitude": "45.7678810000", "entity_shop_pic": "http://imgcdn.yuexing.com/static/data/files/mall/shop/0/2.外观效果图.jpg", "address": "道里区上海街66号", "hours": "周一-周五：09:30-17:30 ； 周六-周日：18:00闭店", "presentation": "哈尔滨月星国际家居广场是月星集团商业连锁的又一成功典范，10万平方米超大规模，A座定位为精品体验馆，专为成功人士打造的经典高端品牌，B座定位为时尚生活馆，专为都市白领和时尚人士打造时尚流行的家居品牌及系列，两座遥遥相对，各显英姿。", "businessscope": "哈尔滨月星国际家居广场汇聚200余个国内外知名中高档家居品牌，其中150余个高档家具品牌均属首次亮相哈市，包括国际知名品牌NATUZZI（纳图兹）、北欧风情、席梦思、玛赫格尼、美克ART、大风范、可至、MPE、丝涟、舒达、萨芬·戴、迪信、梵思豪宅、路易世家、M&D、爱室丽等。哈尔滨月星国际家居广场以高端的品牌定位、舒适的购物环境以及优质的售后服务成为哈市家居业的典范。", "actexpiration": "1509465600", "entity_shop_smallpic": "http://imgcdn.yuexing.com/static/data/files/mall/shop/0/2.外观效果图1哈尔滨--正确的.jpg", "province": "黑龙江", "city": "哈尔滨", "nodisplay": 1}, {"user_id": "153942", "name": "牡丹江月星", "tel": "0453-6348807", "linkman": "", "province_id": "153", "city_id": "156", "activity": "", "location_longitude": "129.6435990000", "location_latitude": "44.6023080000", "entity_shop_pic": "http://imgcdn.yuexing.com/static/data/files/mall/shop/3079/d9c7f69cce8ee3e26c9f3cae734a006b.png", "address": "光华街66号", "hours": "08:40-17:00", "presentation": "", "businessscope": "", "actexpiration": "1509465600", "entity_shop_smallpic": "http://imgcdn.yuexing.com/static/data/files/mall/shop/0/111.jpg", "province": "黑龙江", "city": "牡丹江", "nodisplay": 1}, {"user_id": "153985", "name": "乌海月星", "tel": "0473-8882888", "linkman": "", "province_id": "167", "city_id": "170", "activity": "", "location_longitude": "106.8186310000", "location_latitude": "39.6814160000", "entity_shop_pic": "http://imgcdn.yuexing.com/static/data/files/mall/shop/0/.jpg", "address": "建设北路与凤凰岭西街交叉口", "hours": "9:00-18:00", "presentation": "商场内装饰别具一格，艺术涂鸦、3D画、书画作品、旅游摄影等精彩纷呈，体现乌海人情风俗、贴近百姓生活、彰显家居文化的装饰内容遍布商场的各个角落，让乌海月星家居成为\r\n一个集生活化、娱乐化、体验化为一体的新生活体验馆。", "businessscope": "乌海月星家居广场是一家从事中高档名品建材和精品家具的专业商场，总建筑面积10万\r\n平方米。经营范围涵盖陶瓷、洁具、地板、灯具、门业、橱柜、套房家具、欧式家具等10多个行业，云集了300多个国内外知名牌，6000多个经营品种，为国内外知名品牌构筑了一流\r\n的展销平台，在业态分布上轻松为消费者呈现出“世界家居一站购齐”的家居购物之旅。", "actexpiration": "1509465600", "entity_shop_smallpic": "http://imgcdn.yuexing.com/static/data/files/mall/shop/0/.jpg", "province": "内蒙古", "city": "乌海市", "nodisplay": 1}, {"user_id": "153865", "name": "南京奥体月星", "tel": "025-846460000", "linkman": "", "province_id": "180", "city_id": "181", "activity": "", "location_longitude": "118.8028910000", "location_latitude": "32.0647350000", "entity_shop_pic": "http://imgcdn.yuexing.com/static/data/files/mall/shop/3078/8a360a8001eae490501a97f3d70b1ddb.png", "address": "建邺区江东中路311号", "hours": "09:30-17:30节假日、周末营业时间09:30-18:00", "presentation": "月星家居奥体店是月星集团在南京打造的新的家居航母，商场全面涵盖家具、家饰等业态。奥体店将秉持月星集团“全面提升中国人的居家文化品质”的经营理念，延续“规划高起点、建设高标准、管理高效能”的三高标准，实行“一站式”服务理念，坚持“市场化运作、商场化管理、人性化服务”，从规模、品牌、服务上树立南京中高端家居业的新标杆，即将成为南京家居行业的新旗舰!", "businessscope": "南京月星家居奥体店所在地——河西新城是南京金融、商务、商贸、会展、文体五大功能为主的新城市中心，居住与就业兼顾的中高档居住区和以滨江风貌为特色的城市西部休闲游览地，是现代文明与滨江特色交相辉映的城市新中心和现代化国际化新南京的标志区。", "actexpiration": "1509552000", "entity_shop_smallpic": "http://imgcdn.yuexing.com/static/data/files/mall/shop/3078/a2caf43325b810f12b4808962d702f65.png", "province": "江苏省", "city": "南京", "nodisplay": 1}, {"user_id": "153868", "name": "无锡月星", "tel": "0510-82412130", "linkman": "", "province_id": "180", "city_id": "183", "activity": "", "location_longitude": "120.3412270000", "location_latitude": "31.5951290000", "entity_shop_pic": "http://imgcdn.yuexing.com/static/data/files/mall/shop/3078/d2d862f42cdb462ed7acd619867a49f0.jpg", "address": "无锡市崇安区锡沪东路199号", "hours": "平日9:30-17:30 周末9:30-18:30", "presentation": "核心家居商业圈、成熟的管理团队、交通便捷，家具品类齐全、大牌云集、优质的服务、良好的售后保障，深受广大锡城新老顾客喜爱与认可！", "businessscope": "一楼时尚客厅生活馆（主营客厅沙发、软床）二楼时尚现代生过馆（主营时尚家具、儿童家具、全屋定制）三楼精品实木生活馆（主营实木家具、新中式家具、红木家具、美式家具）四楼卢浮宫轻奢国际馆（主营欧美家具、轻奢时尚家具、红木家具）", "actexpiration": "1508774400", "entity_shop_smallpic": "http://imgcdn.yuexing.com/static/data/files/mall/shop/0/111.jpg", "province": "江苏省", "city": "无锡", "nodisplay": 1}, {"user_id": "153869", "name": "常州月星", "tel": "0519-85128612", "linkman": "", "province_id": "180", "city_id": "184", "activity": "", "location_longitude": "119.9861590000", "location_latitude": "31.8438650000", "entity_shop_pic": "http://imgcdn.yuexing.com/static/data/files/mall/shop/3078/60c2893d4457036541dd9728abfc0b75.jpg", "address": "常州市新北区通江中路588号", "hours": "9:30-21:00 （周一至周五）|9:30-22:00 （节假日）", "presentation": "常州月星国际家居广场与江南环球港互为依托，是月星集团倾力打造的集家居、商业、旅游、文化四位一体大型城市综合体的一期工程。商场外请了加拿大著名建筑大师主持设计，首开了长三角室内园林式商场的先河，室内建有一条长130米、宽50米的天然采光休闲园林，供顾客欣赏，营业场所内各类设施一应俱全，经营环境整洁高雅。", "businessscope": "主营国内外知名客厅、软体、现代、儿童、实木、欧美以及红木等多种风格的中高档品牌家具和家居家饰商品。其中：一楼国际软体馆，二楼现代时尚馆，三楼实木家居馆四楼欧美馆和五楼红木馆", "actexpiration": "1509552000", "entity_shop_smallpic": "http://imgcdn.yuexing.com/static/data/files/mall/shop/0/111.jpg", "province": "江苏省", "city": "常州", "nodisplay": 1}, {"user_id": "153871", "name": "太仓月星", "tel": "0512-82708999", "linkman": "", "province_id": "180", "city_id": "182", "activity": "", "location_longitude": "121.1026400000", "location_latitude": "31.4524960000", "entity_shop_pic": "http://imgcdn.yuexing.com/static/data/files/mall/shop/3078/d6e872c4bb9f9adfa365ee8ca3ce00c8.png", "address": "太仓区204国道与郑和西路286号交汇处（原老车站）", "hours": "周一至周五：9:30-17:00 周末：    9:30-17:30", "presentation": "太仓月星隶属于全国著名家居集团---月星集团，是华东地区的特大型以家具、建材为主题的商场。作为太仓唯一的航母级建材家具商场，太仓月星立足于太仓，辐射周边，为广大顾客打造优质舒适的购物氛围，为各品牌展位提供统一的推广与专业的管理，月星人始终本着诚信待人和提供高品质商品的原则，以“全面提升中国人的居家文化品质”为核心理念，把最好的产品和最优质的服务奉献给所有追求美好生活的人们，倡导个性家居消费观念，引导家居行业全新潮流。", "businessscope": "场地租赁服务，物业管理；经销家具、建筑材料、装饰材料、日用百货、家用电器、灯具、纺针织品、工艺美术品、五金交电。", "actexpiration": "1507132800", "entity_shop_smallpic": "http://imgcdn.yuexing.com/static/data/files/mall/shop/3078/3787a897dd2f408255d56b1f4e9f6661.png", "province": "江苏省", "city": "苏州", "nodisplay": 1}, {"user_id": "153878", "name": "昆山月星", "tel": "0512-57536666", "linkman": "", "province_id": "180", "city_id": "183", "activity": "", "location_longitude": "120.9298050000", "location_latitude": "31.4007720000", "entity_shop_pic": "http://imgcdn.yuexing.com/static/data/files/mall/shop/3078/3ad6bd78a2bcdba6a891b7688a903434.png", "address": "昆山市玉山镇江浦路388号", "hours": "", "presentation": "昆山月星家居是来自大上海的中国家居业领军品牌——月星家居将与昆山好家居建材广场强强联手共同打造昆山家居业的航空母舰，于2011年9月初正式挂牌营业。昆山月星家居秉承月星集团“全面提升中国人的居家文化品质”的经营宗旨，坚持“规划高起点、建设高标准、管理高效能”的三高要求，采用先进灵活的商业运作 机制，恪守“五大统一”运营理念，为消费者提供更优质的服务、优秀的产品，空前强大的品牌阵容、门类齐全的商品设置、精心设计的业态分布、彬彬有礼的商场 导购，将令消费者能在同一时间、同一地点，领略到不同品位和不同风格的家居", "businessscope": "昆山月星家居广场是集装饰、建材、家具于一体的一站式家居购物广场。一号楼主营陶瓷、卫浴、家具，二号楼主营灯具、橱柜、厨电、家饰，三号楼主营地板、木门、楼梯、窗帘、墙纸、画廊饰品等。昆山月星家居广场内外装修豪华高档，拥有****的休闲空间，可供1000多家家居生产厂商设点直销。商场周边环境优美，超大的停车场，宽敞的道路，商场配有公安联防监视系统，内部设施完善，设有多部自动扶梯、观光电梯等，中央空调、自动喷淋、通风系统一应俱全，并设有仓储物流中心。", "actexpiration": "1507046400", "entity_shop_smallpic": "http://imgcdn.yuexing.com/static/data/files/mall/shop/3078/ab9958e26d04ec2a9865b20482377df7.png", "province": "江苏省", "city": "无锡", "nodisplay": 1}, {"user_id": "153879", "name": "南通如皋月星", "tel": "0513-87777999", "linkman": "", "province_id": "180", "city_id": "186", "activity": "", "location_longitude": "120.5737850000", "location_latitude": "32.3472360000", "entity_shop_pic": "http://imgcdn.yuexing.com/static/data/files/mall/shop/0/2.jpg", "address": "如皋市益寿南路118号", "hours": "10:00-22:00", "presentation": "英伦风格的新古典宫殿式外观改造，外部空间扩充延伸，内部设计典雅尊贵；强调每一寸空间的文化品位和历史积淀，注重每一个细节的艺术修养与人文气度。", "businessscope": "主营业态以建材、家具、家饰为主，集结组合相关配套业态。", "actexpiration": "1507132800", "entity_shop_smallpic": "http://imgcdn.yuexing.com/static/data/files/mall/shop/0/111.jpg", "province": "江苏省", "city": "南通", "nodisplay": 1}, {"user_id": "153882", "name": "江阴月星", "tel": "0510-68978111", "linkman": "", "province_id": "180", "city_id": "183", "activity": "", "location_longitude": "118.8982830000", "location_latitude": "32.1214030000", "entity_shop_pic": "http://imgcdn.yuexing.com/static/data/files/mall/shop/0/IMG_9443.JPG", "address": "江阴市澄江街道芙蓉大道与普惠路交界处", "hours": "", "presentation": "项目位于江阴芙蓉大道南侧、团结河北侧，属于江阴永康五金城有限公司。A地块西区为家居馆，地上3层和地下1层，建筑面积约5.2万平方米；A地块东区和B地块为建材馆。面积约2.48万平方米。\r\n于2013年10月试营业。", "businessscope": "A地块西区家居馆共四层，占地5.2万平方米。\r\n2F古典实木、现代实木、韩式家具、欧美实木、藤制家具、红木家具、后现代奢华家具、欧美古典家具、酒店家具、办公家具等。\r\nA地块东区 B地块建材馆，占地2.48万平方米。木门、楼梯、防盗门、地板、整体衣柜、橱柜、厨电、涂料、移门、吊顶、卫浴、卫浴五金、浴柜、瓷砖、沐浴房、马赛克、楼梯等产品应有尽有。", "actexpiration": "1507132800", "entity_shop_smallpic": "http://imgcdn.yuexing.com/static/data/files/mall/shop/0/111.jpg", "province": "江苏省", "city": "无锡", "nodisplay": 1}, {"user_id": "153943", "name": "南京卡子门月星", "tel": "025-58087020", "linkman": "", "province_id": "180", "city_id": "181", "activity": "", "location_longitude": "118.8028910000", "location_latitude": "32.0647350000", "entity_shop_pic": "http://imgcdn.yuexing.com/static/data/files/mall/shop/3079/c035de5aae296de6d0b44032cdf35524.png", "address": "南京市雨花台区卡子门大街38号", "hours": "9:30-17:30周一-周五   9：30-18:00周六、周日及节假日", "presentation": "南京月星家居卡子门广场隶属于全国著名家具集团——月星集团，是华东地区的特大型以家具、家居为主题的商场。月星人始终本着诚信待人和提供高品质产品的原则，以“全面提升中国人的居家文化品质”为核心理念，把最好的产品和最优质的服务奉献给所有追求美好生活的人们，倡导个性家居消费观念，引领家具行业全新潮流。", "businessscope": "商场共分六个楼层，负一楼为美居家饰馆，一楼为软体家具馆，二楼是现代家具馆，三楼为实木家具馆，四楼五楼为卢浮宫，商场主营品牌家具、工艺饰品及多种家居用品。", "actexpiration": "1507132800", "entity_shop_smallpic": "http://imgcdn.yuexing.com/static/data/files/mall/shop/3079/b6bd04c55869542befbe7f8a7ec00ee7.png", "province": "江苏省", "city": "南京", "nodisplay": 1}, {"user_id": "153944", "name": "镇江月星", "tel": "0511-84490000", "linkman": "", "province_id": "180", "city_id": "187", "activity": "", "location_longitude": "119.4314940000", "location_latitude": "32.1956880000", "entity_shop_pic": "http://imgcdn.yuexing.com/static/data/files/mall/shop/0/IMG_7226.jpg", "address": "天桥路8号", "hours": "9：00-17：00", "presentation": "镇江月星国际家居广场是镇江首个集建材、家具、橱卫、陶瓷、装饰于一体的高端家居商场，汇聚近千种国内外知名家居品牌，为广大镇江人民及周边市民提升家居生活品味，引领家居生活时尚提供了众多的选择。", "businessscope": "为本商场内家具、建材、装饰材料、百货、家电、工艺美术品、木材的商品经营者提供市场管理。", "actexpiration": "1507132800", "entity_shop_smallpic": "http://imgcdn.yuexing.com/static/data/files/mall/shop/0/111.jpg", "province": "江苏省", "city": "镇江", "nodisplay": 1}, {"user_id": "153947", "name": "淮安月星", "tel": "0517-89369888", "linkman": "", "province_id": "180", "city_id": "189", "activity": "", "location_longitude": "119.0056290000", "location_latitude": "33.5981150000", "entity_shop_pic": "http://imgcdn.yuexing.com/static/data/files/mall/shop/3079/b51f1f614a14b991075b651e8fcb1b82.png", "address": "江苏省淮安市西安路48号", "hours": "9:00-17:00（周一至周五）|9:00-17:30（周六至周日）", "presentation": "淮安月星国际家居广场总面积8万平方米，是月星集团在苏北地区重点打造的以家具为主题的大型体验式SHOPPING MALL,位于西安路与青年路及漕运路交汇处，紧邻淮安知名建材采购基地淮安锦绣国际装饰城。淮安月星国际家居广场与淮安锦绣国际装饰城强强联手汇集***国内中高端家具、建材、家饰品牌于一体，让消费者轻松实现“家具、建材一站全购齐”的愿望。", "businessscope": "淮安月星国际家居广场内您不仅可以领略到充满灵感的家具展间和种类齐全的家居用品，还能体验到一站式购物的愉悦。上百个承载了淮安人对家居生活梦想的家具展间，为消费者带来了源源不断的家装灵感，为整体家装提供了完备的参考方案。软体、实木、板木、欧美、红木家具应有尽有，古色古香的中式家具、时尚浪漫的现代家居、高贵典雅的欧美家具........款款精品，件件倾心，将为追求高品质生活的人们提供更多的选择空间。", "actexpiration": "1507046400", "entity_shop_smallpic": "http://imgcdn.yuexing.com/static/data/files/mall/shop/3079/50f1069f358ec963e968566580bbd702.png", "province": "江苏省", "city": "淮安", "nodisplay": 1}, {"user_id": "153950", "name": "泰州月星", "tel": "0523-86506666", "linkman": "", "province_id": "180", "city_id": "188", "activity": "", "location_longitude": "118.7695020000", "location_latitude": "32.0665860000", "entity_shop_pic": "http://imgcdn.yuexing.com/static/data/files/mall/shop/0/2011100603295803.jpg", "address": "泰州海陵区南通路118号", "hours": "9:00-17:00 （周一-周五）  9:00-17:30 （周六-周日）", "presentation": "泰州月星家居广场坐落于美丽的祥泰之州，是泰州首家超大规模的家数字化、智能化、超大型家居建材主题商业广场，总营业面积达12万平方米，分家具、建材两馆，主要经营中高端家具以及建材品牌，美居家饰馆，用心灵与艺术点缀家；时尚家具馆用舒适与品位充实家；国际风情馆用高贵与典雅提升家；现代建材馆，用品质与经典构筑家", "businessscope": "泰州月星分家具、建材两馆，轻松实现消费者“一站式”购物的愿望。在月星，实木、板式、古典、欧美等家具各具特色；卫浴洁具、地板瓷砖、窗帘布艺等建材缤纷呈现；鲜花瓷器、经典钟画等居家摆饰琳琅满目……为追求高品位生活的人们提供了更多的选择空间，真正体现旗舰级大型家居商场之风范。", "actexpiration": "1507132800", "entity_shop_smallpic": "http://imgcdn.yuexing.com/static/data/files/mall/shop/0/111.jpg", "province": "江苏省", "city": "泰州", "nodisplay": 1}, {"user_id": "196196", "name": "苏州新区月星", "tel": "0512-68781188", "linkman": "", "province_id": "180", "city_id": "182", "activity": "", "location_longitude": "120.4949220000", "location_latitude": "31.5271710000", "entity_shop_pic": "http://imgcdn.yuexing.com/static/data/files/mall/shop/3924/b9bcf4a79276b9406fb82c0af7b615cd.png", "address": "苏州市高新区滨南路8号", "hours": "09:30-17:00", "presentation": "建筑风格独特、定位高端、环境优雅、交通枢纽、坐落于成熟商圈", "businessscope": "定制家居、成品家居、家具", "actexpiration": "1506960000", "entity_shop_smallpic": "http://imgcdn.yuexing.com/static/data/files/mall/shop/3924/4cd7762a86309150cd107da2497eef8e.png", "province": "江苏省", "city": "苏州", "nodisplay": 1}, {"user_id": "153963", "name": "苏州月星", "tel": "0512-65838888", "linkman": "", "province_id": "180", "city_id": "182", "activity": "", "location_longitude": "120.5969880000", "location_latitude": "31.3171610000", "entity_shop_pic": "http://imgcdn.yuexing.com/static/data/files/mall/shop/0/.jpeg", "address": "金阊区桐泾北路8号", "hours": "09:0--17:30", "presentation": "\"苏州月星家居广场位于石路商圈，营业面积五万平方米，作为一家大型家居用品广场，苏州月星汇聚了200多家中高端家具品牌，我们主营田园家具、格调家具、软体家具、装饰用品、现代板式家具、实木家具、儿童家具等家居用品，努力营造具有苏州地方特色和人文情怀的购物氛围，为消费者提供了“一站式”的购物体验\r\n\"", "businessscope": "销售：家具、建筑材料、装饰材料、百货、家电、灯具、针纺织品、工艺美术品、木材、五金交电；物业管理、柜台租赁。", "actexpiration": "1509552000", "entity_shop_smallpic": "http://imgcdn.yuexing.com/static/data/files/mall/shop/0/111.jpg", "province": "江苏省", "city": "苏州", "nodisplay": 1}, {"user_id": "153967", "name": "溧阳月星", "tel": "0519-67188888", "linkman": "", "province_id": "180", "city_id": "184", "activity": "", "location_longitude": "119.5058650000", "location_latitude": "31.4277880000", "entity_shop_pic": "http://imgcdn.yuexing.com/static/data/files/mall/shop/3080/ee575e7a1295f2cab1e7dae20f67805c.png", "address": "溧阳市平陵东路2号", "hours": "9:00-17:00双休日及法定节假日9:00-17:30", "presentation": "溧阳月星家居生活广场是中国家居业的航母——月星集团与溧阳国贸置业强强联手、共同打造的。位于溧阳市区主干道平陵东路与昆仑南路交汇处，距沿江、扬溧、宁杭高速以及239.240省道仅需10分钟以内车程，交通便捷。溧阳月星总营业面积达12万平方米，是一家数字化、智能化、超大型家具、建材主题商业广场，以家具及建材展厅为主题，以家居设计及美食产业为辅助平台，以“新设计、新商业、新生活”为理念，秉承月星集团“全面提升中国人的居家文化品质”的品牌经营宗旨，坚持“规划高起点、建设高标准、管理高效能”三高要求，充分运用先进的", "businessscope": "溧阳月星店，建材馆主要经营品类有卫浴洁具、地板、瓷砖、窗帘、布艺软装、橱柜、衣柜、全屋定制、木门、楼梯、吊顶、厨电、空调、硅藻泥、门窗、壁纸、灯具等；家具馆主要经营的品类有古典红木、欧式小美、创意田园、法式浪漫、儿童家具、实木、板式、软装布艺、办公家具、装饰画、户外家具等", "actexpiration": "1507046400", "entity_shop_smallpic": "http://imgcdn.yuexing.com/static/data/files/mall/shop/3080/310591bc5aa6c0cdf272f5d14cc243b4.png", "province": "江苏省", "city": "常州", "nodisplay": 1}, {"user_id": "153980", "name": "徐州月星", "tel": "0516-68006866", "linkman": "", "province_id": "180", "city_id": "190", "activity": "", "location_longitude": "117.2143980000", "location_latitude": "34.3065830000", "entity_shop_pic": "http://imgcdn.yuexing.com/static/data/files/mall/shop/3080/6cfe201d2a3b25684e3d674048dc3696.png", "address": "鼓楼区解放北路殷庄段79号", "hours": "9:30-17:00", "presentation": "徐州月星国际家居广场位居徐州市鼓楼区殷庄路，地处城北，坐拥得天独厚、四通八达的复合交通网络，“全国第四大家居建材物流园区”的核心位置。商场北临金驹物流中心，三环102国道，毗邻徐州北客运站，西靠京杭大运河码头港口（霸王港、殷庄港、新庄港等），东临徐州北车辆段，南倚徐州都市商圈，距新老城区均十分钟车程，区位优势显著。总经营面积达10万方，整个家居广场共5层，主营中高端精品家具、建材，在业态分布上轻松为消费者呈现家居一站式购物体验。", "businessscope": "\"建材类：陶瓷、卫浴、地板、木门、定制、橱柜、楼梯、、电器、水槽、吊顶、墙纸、布艺窗帘、灯具、五金、装饰公司\r\n家具类：客厅家具、软床床垫、板式坂木、实木家具、美式家具、北欧现代、藤器家具\"", "actexpiration": "1507046400", "entity_shop_smallpic": "http://imgcdn.yuexing.com/static/data/files/mall/shop/3080/0bc49dc3d85ef5dfb33442ddc4367b65.png", "province": "江苏省", "city": "徐州", "nodisplay": 1}, {"user_id": "153984", "name": "姜堰月星", "tel": "0523- 88818198", "linkman": "", "province_id": "180", "city_id": "188", "activity": "", "location_longitude": "120.0777460000", "location_latitude": "32.5100400000", "entity_shop_pic": "http://imgcdn.yuexing.com/static/data/files/mall/shop/3080/8b40b35229393131a9ede0e26277fdb5.png", "address": "姜堰经济开发区海姜大道18号", "hours": "9:00-18:00", "presentation": "姜堰月星家居广场位于姜堰西客站附近，毗邻盐靖高速入口，距离市中心3公里，总营业面积为6万平方米。是一家数字化、智能化、大型家居建材主题商业广场，以家具建材展厅为主题，以“新设计、新商业、新生活”为理念。商场内部动向从西到东，从南到北完整连贯的商业布局，提升区域整体的功能档次，是姜堰商业板块唯一的一站式家居航母。", "businessscope": "姜堰月星家居广场主要分为建材和家具两大区域共计四层经营板块：一楼主营陶瓷瓷砖、卫浴洁具。二楼主营地板、木门移门、橱柜厨具、厨房电器。三楼主营现代板式、时尚软体、窗帘布艺、壁纸灯具。四楼主营经典红木、中式古典、欧美风格、办公家具。", "actexpiration": "1509552000", "entity_shop_smallpic": "http://imgcdn.yuexing.com/static/data/files/mall/shop/3080/7180ab2e86a9ed6604c1284275884f36.png", "province": "江苏省", "city": "泰州", "nodisplay": 1}, {"user_id": "154018", "name": "扬中月星", "tel": "0511-85100998", "linkman": "", "province_id": "180", "city_id": "184", "activity": "", "location_longitude": "119.8449760000", "location_latitude": "32.2345220000", "entity_shop_pic": "http://imgcdn.yuexing.com/static/data/files/mall/shop/0/120725-家居馆7.25.jpg", "address": "扬中市昌盛路1号", "hours": "9：:00-17：30", "presentation": "扬中月星国际家居广场是中国家居业航母——月星集团与扬中供销合作社强强联手、共同打造的“一站式、体验式”大型专业建材家具Shopping mall，位于昌盛路与扬中大道交汇处。扬中月星总营业面积达7万平方米，是一家数字化、智能化、超大型家具、建材主题商业广场，以家具及建材展厅为主题，以“新设计、新商业、新生活”为理念，秉承月星集团“全面提升中国人的居家文化品质”的品牌经营宗旨，坚持“规划高起点、建设高标准、管理高效能”三高要求，充分运用先进的商业管理运营模式及灵活的商业运作机制，以家居建材为主题，集采购、销", "businessscope": "负一楼经营瓷砖、壁纸、涂料，一楼经营卫浴、橱柜、净水、硅藻泥、艺术墙面，二楼经营橱柜、地板、木门、衣柜、吊顶、五金、门窗、铁艺，三楼经营沙发、软床，四楼经营实木家具、儿童家具，五楼经营简欧、红木家具", "actexpiration": "1507132800", "entity_shop_smallpic": "http://imgcdn.yuexing.com/static/data/files/mall/shop/0/111.jpg", "province": "江苏省", "city": "常州", "nodisplay": 1}, {"user_id": "154020", "name": "沭阳月星", "tel": "0527-80818899", "linkman": "", "province_id": "180", "city_id": "0", "activity": "", "location_longitude": "119.0389910000", "location_latitude": "34.3690640000", "entity_shop_pic": "http://imgcdn.yuexing.com/static/data/files/mall/shop/3081/e2928176833e1efc08cc3aee057b9bd3.png", "address": "沭阳县迎宾大道58号", "hours": "9:00-17:00/17:30", "presentation": "沭阳地处江苏北部，县域面积2298平方公里，辖38个乡镇、省直管县之一，全国最具投资潜力中小城市、全国最大画材生产出口基地、全国最大的花木基地，有“东方花都”之誉，200万的人口大县，是江苏省人口最多的县，也是全国人口最多的县份之一。\r\n    2012年，月星集团“百店计划”的连锁大略在沭阳延展，与联创置业强强联手同书苏北家居商圈财富传奇。伴随月星集团商业连锁发展壮大，即将在沭阳掀起一波强大的财富浪潮。    \r\n    沭阳月星家居广场由月星集团联合联创置业合力打造的一体化、国际化超大型家居商业广场,", "businessscope": "家具、建材、电器、餐饮、超市、儿童游乐园", "actexpiration": "1507132800", "entity_shop_smallpic": "http://imgcdn.yuexing.com/static/data/files/mall/shop/3081/926529e9b46b4889c1b857beaf49695c.png", "province": "江苏省", "city": "", "nodisplay": 1}, {"user_id": "153880", "name": "杭州月星", "tel": "0571-89870888", "linkman": "", "province_id": "194", "city_id": "195", "activity": "", "location_longitude": "120.1172270000", "location_latitude": "30.3224090000", "entity_shop_pic": "http://imgcdn.yuexing.com/static/data/files/mall/shop/3078/e6bb4e3dfb42d56a5860d22a7e5b52ee.png", "address": "莫干山路1165号", "hours": "周一至周五   9：00——17:30   周六、周日：9:00--18:00", "presentation": "杭州月星主打月星家居茂的感念，是继2016年月星集团智造百茂战略升级的基础上，经营重点调整的新布局、新规划、新目标；充分体现了月星家居对居家“文、商旅”的全方位、体验式购物环境的完美追求。月星，心中的家。在商业格局日新月异的今天，月星家居茂仍孜孜不倦地提升居家文化品智，力造属于消费者的居家范儿。杭州商场总营业面积16万平方，涵盖建材、家具、家装、家饰、家电等全家居业态，开创了杭城居家业态新模式。其中三楼2万平方的全屋定制中心，凸显80、90消费新潮流，将轻奢、个性、完美等诸多品智需求极致释放。", "businessscope": "B1、地板、木门、楼梯、红木艺术家居 1F卫浴、厨电、吊顶、进口家居、时尚客厅家居 2F陶瓷、门窗、睡眠中心、儿童家居 3F定制中心、硅藻泥、壁纸、经典家居 4F国际软装、设计中心、灯饰、空调、现代家居 5F卢浮宫轻奢欧美家居", "actexpiration": "1507478400", "entity_shop_smallpic": "http://imgcdn.yuexing.com/static/data/files/mall/shop/3078/1e1b5b1de9c98fced8e32c3bc85be346.png", "province": "浙江省", "city": "杭州", "nodisplay": 1}, {"user_id": "153975", "name": "嘉兴月星", "tel": "0573-82817777", "linkman": "", "province_id": "194", "city_id": "198", "activity": "", "location_longitude": "120.7241730000", "location_latitude": "30.7563550000", "entity_shop_pic": "http://imgcdn.yuexing.com/static/data/files/mall/shop/3080/92591dde3e94fe759bd0fae619f95689.png", "address": "嘉兴市文昌西路1209号", "hours": "9:00-17:00", "presentation": "嘉兴月星家居广场地处嘉兴市中心CBD商务核心区域。北依京杭大运河，与最繁华的中山路仅一河之隔，周边汇聚了万达广场、丽丰新天地、大润发、五四广场等众多高端商业综合体。零距离地为您展现国内外最优质的产品和品牌组合，提供最前沿的家居资讯，全面满足您的精品购物需求。", "businessscope": "市场管理；物业管理；家具建材零售（依法经批准的项目，经相关部门批准后方可开展经营活动）", "actexpiration": "1507132800", "entity_shop_smallpic": "http://imgcdn.yuexing.com/static/data/files/mall/shop/3080/b54145c9a792e810870579bfeb59d52b.png", "province": "浙江省", "city": "嘉兴", "nodisplay": 1}, {"user_id": "153969", "name": "合肥月星", "tel": "0551-68130900", "linkman": "", "province_id": "206", "city_id": "208", "activity": "", "location_longitude": "117.1768210000", "location_latitude": "31.8573330000", "entity_shop_pic": "http://imgcdn.yuexing.com/static/data/files/mall/shop/0/2.jpg", "address": "合肥市蜀山区长江西路与蜀峰路交叉口", "hours": "", "presentation": "合肥月星家居广场是合肥市政府的重点项目，合肥月星家居广场承接于月星集团“百店计划”的重大目标，是月星“哈罗德”的又一延续。2013年12月7日，以高起点、高标准、高品质著称的合肥月星家居尊荣启航。合肥月星家居依托月星集团的强大平台支持，以全面提升中国人的居家文化品质为宗旨，立志打造合肥以及周边地区一线家居品牌消费新时尚的新高地，引领消费者走向国际化、高品位的家居生活。", "businessscope": "商场总营业面积达10万㎡，主要经营中高端建材、家具品牌，为千余国内外知名建材、家具、家饰行业品牌提供超一流的发展平台，轻松实现消费者“一站式”家装购全的愿望。", "actexpiration": "1511513858", "entity_shop_smallpic": "http://imgcdn.yuexing.com/static/data/files/mall/shop/0/.jpg", "province": "安徽省", "city": "合肥市", "nodisplay": 1}, {"user_id": "153867", "name": "山东滨州月星", "tel": "0543-3093800", "linkman": "", "province_id": "246", "city_id": "258", "activity": "", "location_longitude": "117.9465470000", "location_latitude": "37.3714290000", "entity_shop_pic": "http://imgcdn.yuexing.com/static/data/files/mall/shop/0/2.png", "address": "黄河二路渤海二十一路以东", "hours": "9:00-17:00（冬季）9:00-17:30（夏季）", "presentation": "月星滨州家居广场作为进军山东的第一家店，由月星家居集团与山东信达置业两大本行业内的实力集团，强强联合，共同携手，打造滨州乃至山东最具影响力的家居商场。\r\n月星家居滨州广场占地5.5万平方米，分为上下两层，拥有完美、统一的业态分布和一站式购全的经营模式，能够满足不同层次的不同需求。", "businessscope": "儿童家居、软床床垫、家电卫浴、瓷砖、沙发客厅、橱柜、灯饰、板式家具、实木家具、欧美古典家具等。", "actexpiration": "1509465600", "entity_shop_smallpic": "http://imgcdn.yuexing.com/static/data/files/mall/shop/0/2.JPG", "province": "山东省", "city": "滨州", "nodisplay": 1}, {"user_id": "153979", "name": "青岛月星", "tel": "0532-67721555", "linkman": "", "province_id": "246", "city_id": "248", "activity": "", "location_longitude": "120.4073640000", "location_latitude": "36.2506780000", "entity_shop_pic": "http://imgcdn.yuexing.com/static/data/files/mall/shop/0/1.jpg", "address": "城阳区881号", "hours": "9:00-17:00节假日期间；9:00-17:30", "presentation": "", "businessscope": "", "actexpiration": "1509465600", "entity_shop_smallpic": "http://imgcdn.yuexing.com/static/data/files/mall/shop/0/111.jpg", "province": "山东省", "city": "青岛", "nodisplay": 1}, {"user_id": "195439", "name": "郑州月星", "tel": "0371-89996937", "linkman": "", "province_id": "264", "city_id": "265", "activity": "", "location_longitude": "113.7385210000", "location_latitude": "34.7387830000", "entity_shop_pic": "http://imgcdn.yuexing.com/static/data/files/mall/shop/3909/08f78f005597e06f375328136525a4f1.jpg", "address": "七里河南路与永平路交汇处郑州月星家居", "hours": "平日9:30-17:30 周末9:30-18:00", "presentation": "", "businessscope": "", "actexpiration": "1509465600", "entity_shop_smallpic": "", "province": "河南省", "city": "郑州市", "nodisplay": 1}, {"user_id": "153982", "name": "濮阳月星", "tel": "0393-5568888", "linkman": "", "province_id": "264", "city_id": "282", "activity": "", "location_longitude": "114.9920930000", "location_latitude": "35.7893710000", "entity_shop_pic": "http://imgcdn.yuexing.com/static/data/files/mall/shop/0/120725-家居馆7.25.jpg", "address": "华龙区中原路与安凯路交叉口", "hours": "09:00-18:00", "presentation": "", "businessscope": "", "actexpiration": "1509552000", "entity_shop_smallpic": "http://imgcdn.yuexing.com/static/data/files/mall/shop/0/1.jpg", "province": "河南省", "city": "濮阳市", "nodisplay": 1}, {"user_id": "153872", "name": "武汉月家居珞狮路店", "tel": "027-87059999", "linkman": "", "province_id": "283", "city_id": "284", "activity": "", "location_longitude": "114.3582330000", "location_latitude": "30.5198180000", "entity_shop_pic": "http://imgcdn.yuexing.com/static/data/files/mall/shop/3078/e7c77540103c3928e42f869c5821059b.png", "address": "洪山区珞狮南路425号", "hours": "09:30—17:30（周末18:00）", "presentation": "月星家居武汉江南店定位为集家具制品、家居饰品、文化艺术品为一体的中高端大型家居购物中心，规划建筑面积为6万㎡。建筑由国际著名建筑师事务所精心规划设计。卖场拟建6层并配套地下停车场，规划引进国内外200余个高端知名品牌，产品涵盖现代板式家具、实木套房家具、软体家具、儿童家具、欧式家具、古典家具、红木套房家具、家纺、窗帘、布艺、家居饰品等十一大品类，与南国大家装高端建材、灯饰产品相辅相成，将成为武汉市家居消费“一站式”购齐的首选之地。", "businessscope": "", "actexpiration": "1509465600", "entity_shop_smallpic": "http://imgcdn.yuexing.com/static/data/files/mall/shop/3078/80f6b815ee24289024e946febade68e7.png", "province": "湖北省", "city": "武汉", "nodisplay": 1}, {"user_id": "496697", "name": "天门月星家居", "tel": "0728-5256555", "linkman": "", "province_id": "283", "city_id": "296", "activity": "", "location_longitude": "113.1990960000", "location_latitude": "30.6762790000", "entity_shop_pic": "http://imgcdn.yuexing.com/static/data/files/mall/shop/9934/daf65bca7db6cd08cba01a27a3b67b7c.png", "address": "竞东路承天国际车城", "hours": "", "presentation": "", "businessscope": "天门月星家居广场建筑面积5万平方米，坐落于承天国际车城B区，城东商圈中心，辐射420万消费人群,定位中高端建材、家具消费为主导的现代化、高品质商业广场，汇集了数百个中高端家具、建材品牌，拥有专业化、国际化的精英团队、统一的运营理念以及五星级的服务理念，定能够满足广大消费者高品质、个性化的消费需求,力争成为消费者一站式购齐中高端家居建材的首选之地。", "actexpiration": "1524377496", "entity_shop_smallpic": "", "province": "湖北省", "city": "天门", "nodisplay": 1}, {"user_id": "496698", "name": "麻城月星家居", "tel": "0713-5112111", "linkman": "", "province_id": "283", "city_id": "290", "activity": "", "location_longitude": "114.9939940000", "location_latitude": "31.1838190000", "entity_shop_pic": "http://imgcdn.yuexing.com/static/data/files/mall/shop/9934/a8259e027a249654244c47873b04b52f.png", "address": "湖北省黄冈市麻城市金通大道", "hours": "", "presentation": "", "businessscope": "", "actexpiration": "1524377540", "entity_shop_smallpic": "", "province": "湖北省", "city": "黄冈", "nodisplay": 1}, {"user_id": "153949", "name": "鄂州月星家居", "tel": "0714-6509666", "linkman": "", "province_id": "283", "city_id": "295", "activity": "", "location_longitude": "114.8125570000", "location_latitude": "30.3088080000", "entity_shop_pic": "http://imgcdn.yuexing.com/static/data/files/mall/shop/3079/7583905f78937a0e124133d4fde11fce.png", "address": "鄂州花湖经济开发区振兴路", "hours": "9:15-18:00", "presentation": "鄂州月星国际家居广场9月30日盛大开业，空前强大的品牌阵容、品类齐全、精心设计的业态分布、彬彬有礼的商场导购，将使消费者在同一时间、同一地点，就能领略到不同品位和不同风格的家居文化。同时，鄂州月星将以综合家居的概念不断丰富品牌阵营，以一流的规模、一流的环境、一流的品质、一流的服务、实惠的价格为消费者提供更全面的的居家选择。", "businessscope": "家具、建筑材料、其他日用品、家用电器、灯具、针纺织品、工艺美术品、五金交电批发及零售；场地租赁服务", "actexpiration": "1509465600", "entity_shop_smallpic": "http://imgcdn.yuexing.com/static/data/files/mall/shop/3079/f42ef0835aaf95976a8919432a8b03ac.png", "province": "湖北省", "city": "鄂州", "nodisplay": 1}, {"user_id": "153951", "name": "武汉月星家居汉西店", "tel": "027-83988898", "linkman": "", "province_id": "283", "city_id": "284", "activity": "", "location_longitude": "114.2310740000", "location_latitude": "30.5940920000", "entity_shop_pic": "http://imgcdn.yuexing.com/static/data/files/mall/shop/3080/54dbd10ce3713d18a92aa1b08e14d2f0.png", "address": "解放大道387号汉西一路南国大家装H座", "hours": "周一到周五9:30—17:30周末及节假日9:30—18:00", "presentation": "月星家居武汉汉西广场采用欧洲文艺复兴时期的建筑风格，整体定位中高端家居商场。商场打破国内家居业惯常的布局，引入人性化的互动体验新模式，组合多种商业和文化形态，提供国内外一流设计师个性定制服务，引入高端家具家饰、艺术品，满足社会精英对现代品质生活舒适、个性化的追求。  商场共分为五个楼面，分别为软体家具、实木家具、现代家具、欧美家具以及各类高档家饰品。其中商场负一楼规划为睡眠中心、儿童家具、家居用品、饰品，一楼为独立精品馆、客厅、软体沙发，二楼经营板式板木套房，三楼经营实木套房、中式古典（红木）套房家具，四", "businessscope": "", "actexpiration": "1509465600", "entity_shop_smallpic": "http://imgcdn.yuexing.com/static/data/files/mall/shop/3080/fd8caa8a3294b7f2b1a310dee7de4164.png", "province": "湖北省", "city": "武汉", "nodisplay": 1}, {"user_id": "496634", "name": "咸宁月星", "tel": "0715-8912777", "linkman": "", "province_id": "283", "city_id": "293", "activity": "", "location_longitude": "114.2921380000", "location_latitude": "29.8929490000", "entity_shop_pic": "http://imgcdn.yuexing.com/static/data/files/mall/shop/9933/eecb05e17f0978556f9228b51503ef4f.png", "address": "咸安区渔水路与107国道交汇处", "hours": "", "presentation": "", "businessscope": "", "actexpiration": "1510070400", "entity_shop_smallpic": "http://imgcdn.yuexing.com/static/data/files/mall/shop/9933/228ab1d71a72c257ffe1c84dd4b3c617.png", "province": "湖北省", "city": "咸宁", "nodisplay": 1}, {"user_id": "496637", "name": "襄阳月星", "tel": "0710-8193333", "linkman": "", "province_id": "283", "city_id": "0", "activity": "", "location_longitude": "112.1413930000", "location_latitude": "32.0512290000", "entity_shop_pic": "http://imgcdn.yuexing.com/static/data/files/mall/shop/9933/6da019970d6b56cf809daa09d4676431.png", "address": "襄阳市樊城区长虹路28号", "hours": "", "presentation": "", "businessscope": "", "actexpiration": "1510156800", "entity_shop_smallpic": "http://imgcdn.yuexing.com/static/data/files/mall/shop/9933/95671d5257532a2c1d128987f8908bfb.png", "province": "湖北省", "city": "", "nodisplay": 1}, {"user_id": "153945", "name": "自贡月星", "tel": "0813-5118860", "linkman": "", "province_id": "357", "city_id": "359", "activity": "", "location_longitude": "104.8198770000", "location_latitude": "29.4013160000", "entity_shop_pic": "http://imgcdn.yuexing.com/static/data/files/mall/shop/3079/3db212730c8c33b407346d39c7a9f253.png", "address": "大安区大山铺镇北环路88号", "hours": "9：00-17：00", "presentation": "英伦风格的新古典宫殿式外观改造，外部空间扩充延伸，内部设计典雅尊贵；强调每一寸空间的文化品位和历史积淀，注重每一个细节的艺术修养与人文气度。", "businessscope": "", "actexpiration": "1507046400", "entity_shop_smallpic": "http://imgcdn.yuexing.com/static/data/files/mall/shop/3079/80e6bf408bff21edf6877bd4e7395a64.png", "province": "四川省", "city": "自贡", "nodisplay": 1}, {"user_id": "438003", "name": "成都龙泉月星", "tel": "028-65086633", "linkman": "", "province_id": "357", "city_id": "358", "activity": "", "location_longitude": "104.1925460000", "location_latitude": "30.5729600000", "entity_shop_pic": "http://imgcdn.yuexing.com/static/data/files/mall/shop/8761/4fc12efe97e8a3a3ae38f833a47ed3b2.png", "address": "龙泉驿区成龙大道二段总部经济港988号", "hours": "9：30-18：00（周一~周五） 9：30-18：30（周六~周日、节假日）", "presentation": "成都月星家居（龙泉店）位于成龙大道二段，距离绕城高速入口仅300米。经营面积约5万平方米，汇聚国内外知名家居品牌，打造龙泉驿区最具规模的时尚、专业、服务型建材家居商场。为消费者提供七天无理由退换货、绿色环保、先行赔付等八大保障服务。", "businessscope": "客厅家具、橱柜定制、家居定制、门窗、厨电净水、全屋定制、墙纸设计、地板、暖通、石材、装修设计、窗帘布艺", "actexpiration": "1507132800", "entity_shop_smallpic": "http://imgcdn.yuexing.com/static/data/files/mall/shop/8761/34f061e4b98eddd2e4758acd748ea436.png", "province": "四川省", "city": "成都", "nodisplay": 1}, {"user_id": "153876", "name": "西安月星", "tel": "029-81339888", "linkman": "", "province_id": "414", "city_id": "415", "activity": "", "location_longitude": "108.9017350000", "location_latitude": "34.2869820000", "entity_shop_pic": "http://imgcdn.yuexing.com/static/data/files/mall/shop/3078/97aa76f07add2f4360c5f133dc5e4007.png", "address": "莲湖区丰禾路338号", "hours": "9:30-18:00", "presentation": "英伦风格的新古典宫殿式外观改造，外部空间扩充延伸，内部设计典雅尊贵；强调每一寸空间的文化品位和历史积淀，注重每一个细节的艺术修养与人文气度。", "businessscope": "负一层：经营橱柜、定制衣柜、木门、电器、灯饰，一层经营：瓷砖、洁具、木地板。二层经营：沙发（布艺沙发、皮质沙发）、壁纸、软装。三层经营：板式家具、儿童家具、软床系列。四层经营：实木家具、简美家具。五层经营红木家具、新中式实木家具、传统实木家具、装修公司。六层：美式家居、窗帘布艺、装修公司。", "actexpiration": "1509529300", "entity_shop_smallpic": "http://imgcdn.yuexing.com/static/data/files/mall/shop/3078/7dc8d14a762087e6d12eb38dc0c446cf.png", "province": "陕西省", "city": "西安市", "nodisplay": 1}, {"user_id": "153941", "name": "兰州月星", "tel": "0931-2326066  0931-2347799", "linkman": "", "province_id": "425", "city_id": "426", "activity": "", "location_longitude": "103.7758760000", "location_latitude": "36.0888800000", "entity_shop_pic": "http://imgcdn.yuexing.com/static/data/files/mall/shop/0/.jpg", "address": "七里河区南滨河中路651号", "hours": "9:30—17:30冬令时                  9:30—18:00夏令时", "presentation": "兰州月星家居广场总投资两亿元人民币，位于七里河区滨河路中段，总营业面积达10万平方米，定位于高、中档家居消费品商场，自2007年12月15日开业以来，逐步成为提供兰州建材市场所需的大卖场。整个家居广场空间布局精心设计，展位规划合理有序，为消费者创造了良好的购物环境和便利的购物条件，它已成为带动提高大西北居家文化品质的第一站。", "businessscope": "商场由家具馆、建材馆、商业步行街三部分构成，涵盖了家装、家饰、时尚体验馆多种业态，集数百个品牌于一体，以整体家居理念引导消费潮流，为一站式购物提供了多元化选择和价值链服务。", "actexpiration": "1509465600", "entity_shop_smallpic": "http://imgcdn.yuexing.com/static/data/files/mall/shop/0/.jpg", "province": "甘肃省", "city": "兰州市", "nodisplay": 1}, {"user_id": "177864", "name": "兰州西固月星", "tel": "", "linkman": "", "province_id": "425", "city_id": "426", "activity": "", "location_longitude": "103.6583280000", "location_latitude": "36.0898410000", "entity_shop_pic": "http://imgcdn.yuexing.com/static/data/files/mall/shop/0/8.jpg", "address": "西固区福利东路60号", "hours": "", "presentation": "兰州月星西固荔昌店成立于2015年10月21日，占地约5万平方米。千余种国内知名家具、建材、家饰品牌汇集一堂，轻松满足顾客一站式购物需求。", "businessscope": "商场分为家具馆和建材馆。负一至三层为建材馆，主营瓷砖、卫浴、橱柜、厨电、地板、木门；四至五层为家具馆，舒适柔软的软体沙发、软床；工艺独特实木家具、充满独特风情的欧式家具、传统古典的红木家具、时尚大方的板式家具、还有色彩绚丽的儿童家具以及公办家具窗帘布艺。", "actexpiration": "1510156800", "entity_shop_smallpic": "http://imgcdn.yuexing.com/static/data/files/mall/shop/0/1445918860384.jpg", "province": "甘肃省", "city": "兰州市", "nodisplay": 1}, {"user_id": "153883", "name": "银川月星", "tel": "0951-6191291", "linkman": "", "province_id": "449", "city_id": "450", "activity": "", "location_longitude": "106.3082410000", "location_latitude": "38.4639080000", "entity_shop_pic": "http://imgcdn.yuexing.com/static/data/files/mall/shop/0/.jpg", "address": "兴庆区新华东街与丽景街交汇处月星家居建材广场", "hours": "", "presentation": "银川月星国际家居建材广场，项目总投资4亿元，位于新华东街与丽景街交汇处与109国道市内连接线，雄踞新华东街城市核心商圈。便利的交通条件，属商家必争之地。\r\n商场汇聚国际规划设计理念，15万平方米超大规模。定位于中高档家居消费品商场，打造气势逼人的时尚销品茂形象，由石材、铝板、玻璃等材料组合而构成的外立面，大气，典雅、现代、时尚，成为银川乃至西北地区标志性的城市景观。而内部更是典雅大气，尽显国际风范。商场内部由中心部位圆形中庭和四角四个矩形中庭组成，一个侧庭与十字内街构成内部交通；为突出南侧出入口，在其入口", "businessscope": "", "actexpiration": "1509465600", "entity_shop_smallpic": "http://imgcdn.yuexing.com/static/data/files/mall/shop/0/111.jpg", "province": "宁夏", "city": "银川市", "nodisplay": 1}, {"user_id": "177866", "name": "吴忠利通月星", "tel": "0953-2655553", "linkman": "", "province_id": "449", "city_id": "452", "activity": "", "location_longitude": "106.2089110000", "location_latitude": "37.9739490000", "entity_shop_pic": "http://imgcdn.yuexing.com/static/data/files/mall/shop/3558/da7772e574f78a659a1d03b1047c655d.png", "address": "利通区利通南街东侧南一环南侧凯悦国际建材商贸城", "hours": "09:00-18:00", "presentation": "以新设计、新商业、新生活缔造新型商业模式，为国内外知名品牌构筑一流的展销平台，在业态分布上轻松为消费者呈现“世界家居一站购齐”的家居购物之旅，力争成为引领吴忠市家居建材界的风向标。", "businessscope": "吴忠月星家居广场位于吴忠市利通南街与回乐路交汇处东南侧，总面积达3.8万平方米，主体四层，是一家从事中高档名品建材和精品家具经营的专业商场，同时兼顾配套家饰、家装和家电等综合服务产品。", "actexpiration": "1509465600", "entity_shop_smallpic": "http://imgcdn.yuexing.com/static/data/files/mall/shop/0/.jpg", "province": "宁夏", "city": "吴忠市", "nodisplay": 1}, {"user_id": "153976", "name": "月星家得乐居家用品超市", "tel": "", "linkman": "", "province_id": "0", "city_id": "0", "activity": "", "location_longitude": "121.4524010000", "location_latitude": "31.2539050000", "entity_shop_pic": "http://imgcdn.yuexing.com/static/data/files/mall/shop/0/0.jpg", "address": "", "hours": "", "presentation": "", "businessscope": "", "actexpiration": "1510588800", "entity_shop_smallpic": "http://imgcdn.yuexing.com/static/data/files/mall/shop/0/111.jpg", "province": "其他地区", "city": "", "nodisplay": 1}]