[{"city": "小西", "longitude": "114.250809", "latitude": "22.266365", "name": "[香港] {VｉT店", "address": "小西乘{V龈拥叵28m", "time": "IIrg : 11:00am - 9:00pm", "phone_number": "2866 3150"}, {"city": "香港仔", "longitude": "114.155027", "latitude": "22.248832", "name": "[香港] 香港仔ｉT店", "address": "香港仔成都道26添喜大B大x(香港仔)中心11m", "time": "IIrg : 11:00am - 8:00pm", "phone_number": "2580 0716"}, {"city": "北角", "longitude": "114.199233", "latitude": "22.290945", "name": "[香港] 北角新都城百 (床品部)", "address": "北角英皇道416-430新都城百2", "time": "IIrg : 11:00am - 9:30pm", "phone_number": "2561 5738"}, {"city": "上h", "longitude": "114.152774", "latitude": "22.286928", "name": "[香港] 上h永安 (床品部)", "address": "上h德o道中211永安中心2", "time": "IIrg : 10:00am - 7:30pm", "phone_number": "2542 2602"}, {"city": "f~涌", "longitude": "114.216161", "latitude": "22.284655", "name": "[香港] 康山AEON ( 床品部 )", "address": "f~涌康山道2康怡V ( 南座 )", "time": "IIrg : 10:00am - 11:00pm", "phone_number": "2904 8812"}, {"city": "~", "longitude": "114.184302", "latitude": "22.280681", "name": "[香港] ~乘罟獍儇 (床品部)", "address": "~耻尼道555|角中心9撬罟獍儇公司", "time": "IIrg : 10:00am - 10:00pm", "phone_number": "2831 8670"}, {"city": "旺角", "longitude": "114.169121", "latitude": "22.32279", "name": "[九] 始中心店", "address": "旺角敦道750始中心3329-333,358-360m", "time": "IIrg : 11:00am - 9:00pm", "phone_number": "2368 3968"}, {"city": "石山", "longitude": "114.202122", "latitude": "22.340913", "name": "[九] 荷里活VｉT店", "address": "石山蟠街3荷里活V3360m", "time": "IIrg : 11:00am - 9:00pm", "phone_number": "2955 5789"}, {"city": "荔枝角", "longitude": "114.14851", "latitude": "22.332694", "name": "[九] 荔枝角AEON (床品部)", "address": "荔枝角深盛路8碧海{天商2", "time": "IIrg : 10:00am - 10:30pm", "phone_number": "2749 6047"}, {"city": "九", "longitude": "114.20765", "latitude": "22.320191", "name": "[九] 九AEON (床品部)", "address": "九澈暾盏38企IV5期MegaBox 2", "time": "IIrg : 10:00am - 10:00pm", "phone_number": "2359 0480"}, {"city": "t|", "longitude": "114.190317", "latitude": "22.303916", "name": "[九] S埔AEON (床品部)", "address": "t|S埔花@5期地下", "time": "IIrg : 10:00am - 10:30pm", "phone_number": "2356 9273"}, {"city": "九城", "longitude": "114.188189", "latitude": "22.330873", "name": "[九] 九城AEON (床品部)", "address": "九城Z炳Q道128KCP九城V2", "time": "IIrg : 10:00am - 10:30pm", "phone_number": "2383 0772"}, {"city": "深水", "longitude": "114.160039", "latitude": "22.331094", "name": "[九] 西九先施百 (床品部)", "address": "深水J州街37西九中心先施百2", "time": "IIrg : 11:00am - 10:00pm", "phone_number": "2708 7616"}, {"city": "油麻地", "longitude": "114.171102", "latitude": "22.307504", "name": "[九] 油麻地永安(Plus) (床品部)", "address": "油麻地敦道345永安百6", "time": "IIrg : 10:30am - 10:00pm", "phone_number": "2771 1690"}, {"city": "佐敦", "longitude": "114.171517", "latitude": "22.305654", "name": "[九] 佐敦裕A (床品部)", "address": "佐敦敦道301-309三 (梯按2/F)", "time": "IIrg : 10:00am - 10:00pm", "phone_number": "2234 7676"}, {"city": "油塘", "longitude": "114.238687", "latitude": "22.296612", "name": "[九] 油塘大本型SU-PA-DE-PA ( 床品部 )", "address": "油塘大本型商1101及106mSU-PA-DE-PA", "time": "IIrg : 11:00am - 10:00pm", "phone_number": "2873 3175"}, {"city": "L沙", "longitude": "114.149875", "latitude": "22.337316", "name": "[九] 香港名牌C萃 (L沙车)", "address": "九L沙抽L裕街 15 永明工I大B", "time": "IIrg : 10:00am - 7:30pm", "phone_number": "2351 8283"}, {"city": "④澳", "longitude": "114.252453", "latitude": "22.307286", "name": "[新界] 彩明商ｉT店", "address": "④澳{景X彩明街1彩明物商龆 232-233 m", "time": "IIrg : 11:30am - 8:30pm", "phone_number": "2750 0611"}, {"city": "荃", "longitude": "114.114103", "latitude": "22.370272", "name": "[新界] 荃耻跣绿斓ｉT店", "address": "荃钗莸1荃新天地V1102m", "time": "IIrg : 11:00am - 9:00pm", "phone_number": "2941 0565"}, {"city": "荃", "longitude": "114.111713", "latitude": "22.376304", "name": "[新界] 愉景新城ｉT店", "address": "荃城嗌焦路398愉景新城物商22054-2055m", "time": "IIrg : 11:30am - 8:30pm", "phone_number": "2940 1168"}, {"city": "屯T", "longitude": "113.974491", "latitude": "22.388371", "name": "[新界] 安定H.A.N.D.S. ｉT店", "address": "屯Tl事路2A安定H.A.N.D.S. N^2N-227m", "time": "IIrg : 11:00am - 9:00pm", "phone_number": "2420 0255"}, {"city": "天水", "longitude": "113.997721", "latitude": "22.46201", "name": "[新界] 天水富VｉT店", "address": "天水天A路 30 - 33 富V鲆黄诙 L 201 C m", "time": "IIrg : 11:00am - 9:00pm", "phone_number": "2405 0110"}, {"city": "④澳", "longitude": "114.265271", "latitude": "22.316359", "name": "[新界] |港城ｉT店", "address": "④澳坑口重A路8|港城商2269m", "time": "IIrg : 11:00am - 9:00pm", "phone_number": "2628 6743"}, {"city": "|涌", "longitude": "113.940563", "latitude": "22.288576", "name": "[新界] |堤撑ｉT店", "address": "|涌c|街1|堤撑5座地下5m", "time": "IIrg : 11:30am - 8:30pm", "phone_number": "2403 6122"}, {"city": "荃", "longitude": "114.111887", "latitude": "22.369786", "name": "[新界] 荃AEON (床品部)", "address": "荃炒蠛拥88尘V鲑物中心2", "time": "IIrg : 10:00am - 10:30pm", "phone_number": "2813 6635"}, {"city": "屯T", "longitude": "113.976591", "latitude": "22.3931", "name": "[新界] 屯TAEON (床品部)", "address": "屯T市V209地段 第一期UG", "time": "IIrg : 10:00am - 10:30pm", "phone_number": "2618 0027"}, {"city": "④澳", "longitude": "114.262206", "latitude": "22.308815", "name": "[新界] ④澳AEON (床品部)", "address": "④澳唐德街1④澳V22-021至2-066m", "time": "IIrg : 10:00am - 10:30pm", "phone_number": "2207 4784"}, {"city": "荃", "longitude": "114.120584", "latitude": "22.368747", "name": "[新界] 大C口AEON (床品部)", "address": "荃耻跞A街3矸B2及B3", "time": "IIrg : 10:00am - 10:30pm", "phone_number": "2612 2846"}, {"city": "R鞍山", "longitude": "114.231797", "latitude": "22.424148", "name": "[新界] R鞍山千色citistore (床品部)", "address": "R鞍山鞍街18新港城中心千色百3", "time": "IIrg : 10:00am - 10:00pm", "phone_number": "2642 3650"}, {"city": "荃", "longitude": "114.118796", "latitude": "22.371379", "name": "[新界] 荃城色citistore (床品部)", "address": "荃车囟301荃城色R二期千色百3", "time": "IIrg : 10:00am - 10:00pm", "phone_number": "2413 4103"}, {"city": "元朗", "longitude": "114.028406", "latitude": "22.44266", "name": "[新界] 元朗千色citistore (床品部)", "address": "元朗教育路1元朗千色R千色百4", "time": "IIrg : 10:00am - 9:30pm", "phone_number": "2478 4677"}, {"city": "④澳", "longitude": "114.258459", "latitude": "22.322816", "name": "[新界] ④澳千色citistore (床品部)", "address": "④澳琳路北新都城中心二期2", "time": "IIrg : 10:00am - 10:00pm", "phone_number": "3194 4895"}, {"city": "屯T", "longitude": "113.976082", "latitude": "22.392326", "name": "[新界] 屯T千色Citistore( 床品部 )", "address": "屯T屯隆街2r代V霰币砣", "time": "IIrg : 10:00 am - 10:00 pm", "phone_number": "2146 2900"}, {"city": "沙田", "longitude": "114.187585", "latitude": "22.379896", "name": "[新界] 沙田一田百 (床品部)", "address": "沙田新城市V龅谌期一田百", "time": "IIrg : 10:00am - 10:00pm", "phone_number": "2698 4172"}, {"city": "大埔", "longitude": "114.169398", "latitude": "22.451718", "name": "[新界] 大埔一田百 (床品部)", "address": "大埔安邦路8-10大埔超城B^地下一田百", "time": "IIrg : 10:00am - 10:00pm", "phone_number": "2664 5791"}, {"city": "荃", "longitude": "114.110849", "latitude": "22.370917", "name": "[新界] 荃骋惶锇儇(床品部)", "address": "荃A墩大霸街4-30荃V 一田百3", "time": "IIrg : 10:00am - 10:00pm", "phone_number": "2470 8826"}, {"city": "九", "longitude": "114.2122216", "latitude": "22.3220788", "name": "[九] 德福VｉT店", "address": "九德福V龆期六607-608", "time": "IIrg : 11:00am - 21:00pm", "phone_number": "2360 2018"}, {"city": "{田", "longitude": "114.2323496", "latitude": "22.3072319", "name": "[九] {田R景ｉT店", "address": "九{田8R景花@R景V龅谌期2T", "time": "IIrg :", "phone_number": "2997 2338"}]