[{"name": "宁波分公司", "city": "宁波市", "address": "浙江省宁波市海曙区新典路536号新海蓝钻A幢805", "phone_number": "18657492663,0574-87334178", "id": 158502, "preview_image": "brands_images/full/166.jpg", "brand_id": 166, "create_time": "NOW()", "longitude": 121.52559151299897, "latitude": 29.86307099518128, "official_coord": 0, "region_id_1": 330000, "region_id_2": 330200, "region_id_3": 330203}, {"name": "贵阳分公司", "city": "贵阳市", "address": "贵阳市观山湖区金融潮一期6号楼13-14-15号", "phone_number": "13985051398,0851-85824475", "id": 158503, "preview_image": "brands_images/full/166.jpg", "brand_id": 166, "create_time": "NOW()", "longitude": 106.65465333064353, "latitude": 26.6546799750359, "official_coord": 0, "region_id_1": 520000, "region_id_2": 520100, "region_id_3": 520115}, {"name": "十堰办事处", "city": "十堰市", "address": "湖北十堰市六堰公交公司大院5号楼1单元501", "phone_number": "13997814058", "id": 158504, "preview_image": "brands_images/full/166.jpg", "brand_id": 166, "create_time": "NOW()", "longitude": 110.79354531208516, "latitude": 32.66227744800371, "official_coord": 0, "region_id_1": 420000, "region_id_2": 420300, "region_id_3": 420303}, {"name": "天津分公司", "city": "天津市", "address": "天津市南开区红旗路与天拖北道交口赛德广场5-1301室", "phone_number": "13802170960,022-27419194", "id": 158505, "preview_image": "brands_images/full/166.jpg", "brand_id": 166, "create_time": "NOW()", "longitude": 117.15504201244657, "latitude": 39.11865812733572, "official_coord": 0, "region_id_1": 120000, "region_id_2": 120100, "region_id_3": 120104}, {"name": "广州分公司", "city": "广州市", "address": "广州开发区科学城起云路6号安居宝科技园1号楼2楼", "phone_number": "13798063108,020-32361109", "id": 158506, "preview_image": "brands_images/full/166.jpg", "brand_id": 166, "create_time": "NOW()", "longitude": 113.43422333896429, "latitude": 23.172600785977252, "official_coord": 0, "region_id_1": 440000, "region_id_2": 440100, "region_id_3": 440112}, {"name": "长沙分公司", "city": "长沙市", "address": "湖南省长沙市开福区北辰三角洲凤凰公元E1区1栋12030室", "phone_number": "13875910938,0731-85361799", "id": 158507, "preview_image": "brands_images/full/166.jpg", "brand_id": 166, "create_time": "NOW()", "longitude": 112.98965301061911, "latitude": 28.241896960169964, "official_coord": 0, "region_id_1": 430000, "region_id_2": 430100, "region_id_3": 430105}, {"name": "西宁分公司", "city": "西宁市", "address": "青海省西宁市城西区昆仑阳光城3号楼1单元22楼4室", "phone_number": "13519753323,0971-6364087", "id": 158508, "preview_image": "brands_images/full/166.jpg", "brand_id": 166, "create_time": "NOW()", "longitude": 101.7678128869414, "latitude": 36.62662637727767, "official_coord": 0, "region_id_1": 630000, "region_id_2": 630100, "region_id_3": 630104}, {"name": "南昌分公司", "city": "南昌市", "address": "江西省南昌市洪都北大道金域名都10栋2单元1901室", "phone_number": "13803529500,0791-88186498", "id": 158509, "preview_image": "brands_images/full/166.jpg", "brand_id": 166, "create_time": "NOW()", "longitude": 115.93421881637599, "latitude": 28.68511688488725, "official_coord": 0, "region_id_1": 360000, "region_id_2": 360100, "region_id_3": 360111}, {"name": "北京分公司", "city": "北京市", "address": "北京市海淀区花园路甲13号庚坊国际8号楼801室", "phone_number": "15321053958,010-82257415", "id": 158510, "preview_image": "brands_images/full/166.jpg", "brand_id": 166, "create_time": "NOW()", "longitude": 116.37066766986729, "latitude": 39.97816510488256, "official_coord": 0, "region_id_1": 110000, "region_id_2": 110100, "region_id_3": 110108}, {"name": "乌鲁木齐分公司", "city": "乌鲁木齐市", "address": "乌鲁木齐新市区卫星路499号秦郡大厦2-7010室", "phone_number": "15739592206,0991-3710400", "id": 158511, "preview_image": "brands_images/full/166.jpg", "brand_id": 166, "create_time": "NOW()", "longitude": 87.53227074026552, "latitude": 43.86314116081259, "official_coord": 0, "region_id_1": 130000, "region_id_2": 130600, "region_id_3": 130602}, {"name": "常德分公司", "city": "常德市", "address": "常德市武陵区紫苑花园1栋201室", "phone_number": "17727811615", "id": 158512, "preview_image": "brands_images/full/166.jpg", "brand_id": 166, "create_time": "NOW()", "longitude": 111.70449974553557, "latitude": 29.06721807959082, "official_coord": 0, "region_id_1": 430000, "region_id_2": 430700, "region_id_3": 430702}, {"name": "成都分公司", "city": "成都市", "address": "成都市高升桥东路15号三楼", "phone_number": "18980775759,028-85136458", "id": 158513, "preview_image": "brands_images/full/166.jpg", "brand_id": 166, "create_time": "NOW()", "longitude": 104.04894640208649, "latitude": 30.641399866608992, "official_coord": 0, "region_id_1": 510000, "region_id_2": 510100, "region_id_3": 510107}, {"name": "哈尔滨分公司", "city": "哈尔滨市", "address": "哈尔滨市哈西新区哈尔滨大街金爵万象大厦 3栋1单元0822室", "phone_number": "13936415118,0451-82267098", "id": 158514, "preview_image": "brands_images/full/166.jpg", "brand_id": 166, "create_time": "NOW()", "longitude": 126.59341723793172, "latitude": 45.70179314379041, "official_coord": 0, "region_id_1": 230000, "region_id_2": 230100, "region_id_3": 230103}, {"name": "太原分公司", "city": "太原市", "address": "太原市五一路77号铜锣湾国际公寓B座801室", "phone_number": "13934133482,0351-4123232", "id": 158515, "preview_image": "brands_images/full/166.jpg", "brand_id": 166, "create_time": "NOW()", "longitude": 112.57978238198498, "latitude": 37.87543025321222, "official_coord": 0, "region_id_1": 140000, "region_id_2": 140100, "region_id_3": 140106}, {"name": "甘肃兰州办事处", "city": "兰州市", "address": "兰州市城关区定西南路八冶家属院南院9号楼1906", "phone_number": "13519650183,0931-8893105", "id": 158516, "preview_image": "brands_images/full/166.jpg", "brand_id": 166, "create_time": "NOW()", "longitude": 103.87471285194302, "latitude": 36.04359998839974, "official_coord": 0, "region_id_1": 540000, "region_id_2": 540100, "region_id_3": 540102}, {"name": "郑州分公司", "city": "郑州市", "address": "河南省郑州市西大街88号金鼎华府12楼37室", "phone_number": "18638785187,0371-66283838", "id": 158517, "preview_image": "brands_images/full/166.jpg", "brand_id": 166, "create_time": "NOW()", "longitude": 113.67734623488684, "latitude": 34.756978608499175, "official_coord": 0, "region_id_1": 410000, "region_id_2": 410100, "region_id_3": 410104}, {"name": "南京分公司", "city": "南京市", "address": "江苏省南京市鼓楼区中山北路281号虹桥中心02幢605B室", "phone_number": "13914716114,025-83465191", "id": 158518, "preview_image": "brands_images/full/166.jpg", "brand_id": 166, "create_time": "NOW()", "longitude": 118.77285922451524, "latitude": 32.0802928867372, "official_coord": 0, "region_id_1": 320000, "region_id_2": 320100, "region_id_3": 320106}, {"name": "武汉分公司", "city": "武汉市", "address": "湖北省武汉市武昌区彭刘杨路232号天合大厦8013室", "phone_number": "18602726839,027-88326915", "id": 158519, "preview_image": "brands_images/full/166.jpg", "brand_id": 166, "create_time": "NOW()", "longitude": 114.31021642509592, "latitude": 30.545215371743726, "official_coord": 0, "region_id_1": 420000, "region_id_2": 420100, "region_id_3": 420106}, {"name": "合肥分公司", "city": "合肥市", "address": "合肥市铜陵北路与颖河路交口利港国际大厦B座510", "phone_number": "13955143345,0551-4243359", "id": 158520, "preview_image": "brands_images/full/166.jpg", "brand_id": 166, "create_time": "NOW()", "longitude": 117.3366581563497, "latitude": 31.899629128791112, "official_coord": 0, "region_id_1": 340000, "region_id_2": 340100, "region_id_3": 340102}, {"name": "杭州分公司", "city": "杭州市", "address": "杭州市拱墅区莫干山路北部软件园泰嘉园D座301", "phone_number": "13958065923,0571-28028098", "id": 158521, "preview_image": "brands_images/full/166.jpg", "brand_id": 166, "create_time": "NOW()", "longitude": 120.11356461764952, "latitude": 30.33895500415733, "official_coord": 0, "region_id_1": 330000, "region_id_2": 330100, "region_id_3": 330105}, {"name": "福州分公司", "city": "福州市", "address": "福州市东街路123号航空大厦1606室", "phone_number": "18688745549,0591-63391533", "id": 158522, "preview_image": "brands_images/full/166.jpg", "brand_id": 166, "create_time": "NOW()", "longitude": 119.31398549600968, "latitude": 26.092432828493255, "official_coord": 0, "region_id_1": 320000, "region_id_2": 320100, "region_id_3": 320106}, {"name": "昆明分公司", "city": "昆明市", "address": "云南省昆明市春城路64号米兰国际B座705室", "phone_number": "13987100586,0871-64136737", "id": 158523, "preview_image": "brands_images/full/166.jpg", "brand_id": 166, "create_time": "NOW()", "longitude": 102.73121733275526, "latitude": 25.03654607157566, "official_coord": 0, "region_id_1": 530000, "region_id_2": 530100, "region_id_3": 530111}, {"name": "海口分公司", "city": "海口市", "address": "海口市金贸西路8号诚田商务大厦B栋1302房", "phone_number": "13907566516,0898-68532581", "id": 158524, "preview_image": "brands_images/full/166.jpg", "brand_id": 166, "create_time": "NOW()", "longitude": 110.30849887165596, "latitude": 20.026564906386206, "official_coord": 0, "region_id_1": 460000, "region_id_2": 460100, "region_id_3": 460106}, {"name": "南宁分公司", "city": "南宁市", "address": "广西南宁市明秀西路122号城市碧园C栋622号房", "phone_number": "18578980610,0771-3847158", "id": 158525, "preview_image": "brands_images/full/166.jpg", "brand_id": 166, "create_time": "NOW()", "longitude": 108.29610099739806, "latitude": 22.836456922593165, "official_coord": 0, "region_id_1": 450000, "region_id_2": 450100, "region_id_3": 450107}, {"name": "沈阳分公司", "city": "沈阳市", "address": "沈阳市大东区滂江街81号振浩大厦0743室", "phone_number": "13898887078,024-24339677", "id": 158526, "preview_image": "brands_images/full/166.jpg", "brand_id": 166, "create_time": "NOW()", "longitude": 123.49310911501307, "latitude": 41.80541253465938, "official_coord": 0, "region_id_1": 210000, "region_id_2": 210100, "region_id_3": 210104}, {"name": "廊坊办事处", "city": "廊坊市", "address": "河北省廊坊市广阳区裕华路华夏水晶城11栋12楼1201号", "phone_number": "15832620799,0316-2366365", "id": 158527, "preview_image": "brands_images/full/166.jpg", "brand_id": 166, "create_time": "NOW()", "longitude": 116.6938243892533, "latitude": 39.541317820239776, "official_coord": 0, "region_id_1": 130000, "region_id_2": 131000, "region_id_3": 131003}, {"name": "济南分公司", "city": "济南市", "address": "济南市历城区工业南路100号枫润大厦A座12B11室", "phone_number": "18615551538,0531-88909242", "id": 158528, "preview_image": "brands_images/full/166.jpg", "brand_id": 166, "create_time": "NOW()", "longitude": 117.09029415756977, "latitude": 36.67898867210479, "official_coord": 0, "region_id_1": 370000, "region_id_2": 370100, "region_id_3": 370102}, {"name": "上海分公司", "city": "上海市", "address": "上海市宜山路705号科技大厦A座1601室", "phone_number": "18973118335,021-64956135", "id": 158529, "preview_image": "brands_images/full/166.jpg", "brand_id": 166, "create_time": "NOW()", "longitude": 121.42231582323306, "latitude": 31.180258214098608, "official_coord": 0, "region_id_1": 310000, "region_id_2": 310100, "region_id_3": 310104}, {"name": "株洲办事处", "city": "株洲市", "address": "株洲市荷塘区新华西路31号富华商业广场一栋705室", "phone_number": "15802687129,0731-28623868", "id": 158530, "preview_image": "brands_images/full/166.jpg", "brand_id": 166, "create_time": "NOW()", "longitude": 113.16567653246818, "latitude": 27.8473164664941, "official_coord": 0, "region_id_1": 430000, "region_id_2": 430200, "region_id_3": 430202}, {"name": "上饶分公司", "city": "上饶市", "address": "江西省上饶市信州区财富广场1栋3单元2403", "phone_number": "15079302392,0793-8210807", "id": 158531, "preview_image": "brands_images/full/166.jpg", "brand_id": 166, "create_time": "NOW()", "longitude": 117.97628246247255, "latitude": 28.464349757007817, "official_coord": 0, "region_id_1": 360000, "region_id_2": 361100, "region_id_3": 361102}, {"name": "无锡分公司", "city": "无锡市", "address": "江苏省无锡市北塘区兴源北路600号华仁凤凰国际大厦1711室", "phone_number": "13338103012,0510-82748961", "id": 158532, "preview_image": "brands_images/full/166.jpg", "brand_id": 166, "create_time": "NOW()", "longitude": 120.30254995171474, "latitude": 31.596708315923564, "official_coord": 0, "region_id_1": 0, "region_id_2": 0, "region_id_3": 0}, {"name": "深圳分公司", "city": "深圳市", "address": "深圳市南山区南光路华侨新村22栋A座", "phone_number": "13902933760,0755-26567729", "id": 158533, "preview_image": "brands_images/full/166.jpg", "brand_id": 166, "create_time": "NOW()", "longitude": 113.9338466250069, "latitude": 22.534660022576855, "official_coord": 0, "region_id_1": 230000, "region_id_2": 230400, "region_id_3": 230404}, {"name": "大连分公司", "city": "大连市", "address": "辽宁省大连市沙河口区中长街收获巷中长花园7号楼2单元101室", "phone_number": "13514254876,0411-84529855", "id": 158534, "preview_image": "brands_images/full/166.jpg", "brand_id": 166, "create_time": "NOW()", "longitude": 121.5961817660956, "latitude": 38.92903205607649, "official_coord": 0, "region_id_1": 210000, "region_id_2": 210200, "region_id_3": 210204}, {"name": "银川分公司", "city": "银川市", "address": "银川市金凤区正源南街宝湖锦园8号楼2单元1502", "phone_number": "13895632573,0951-5603989", "id": 158535, "preview_image": "brands_images/full/166.jpg", "brand_id": 166, "create_time": "NOW()", "longitude": 106.25142876247311, "latitude": 38.46492873549727, "official_coord": 0, "region_id_1": 640000, "region_id_2": 640100, "region_id_3": 640106}, {"name": "港澳分公司", "city": "香港", "address": "香港匙懈媸看虻128祥S大B15A-B室", "phone_number": "18922754808", "id": 158536, "preview_image": "brands_images/full/166.jpg", "brand_id": 166, "create_time": "NOW()", "longitude": 114.18726885453378, "latitude": 22.28215578684594, "official_coord": 0, "region_id_1": 810000, "region_id_2": 810100, "region_id_3": 810102}, {"name": "温州分公司", "city": "温州市", "address": "温州市江滨西路欧洲城中心大楼11楼1109室", "phone_number": "13666500533,0577-86661370", "id": 158537, "preview_image": "brands_images/full/166.jpg", "brand_id": 166, "create_time": "NOW()", "longitude": 120.67636552619655, "latitude": 28.024432824916804, "official_coord": 0, "region_id_1": 330000, "region_id_2": 330300, "region_id_3": 330302}, {"name": "内蒙古办事处", "city": "呼和浩特市", "address": "呼和浩特市玉泉区锡林郭勒路万锦香颂商业10号楼1216室", "phone_number": "13804715639,0471-3290902", "id": 158538, "preview_image": "brands_images/full/166.jpg", "brand_id": 166, "create_time": "NOW()", "longitude": 111.69107938469433, "latitude": 40.781549338664654, "official_coord": 0, "region_id_1": 150000, "region_id_2": 150100, "region_id_3": 150104}, {"name": "包头分公司", "city": "包头市", "address": "包头市青山区青云小区一段4号纺织楼4单元202室", "phone_number": "13789722062,0472-5352969", "id": 158539, "preview_image": "brands_images/full/166.jpg", "brand_id": 166, "create_time": "NOW()", "longitude": 109.86706265551246, "latitude": 40.66001675210557, "official_coord": 0, "region_id_1": 150000, "region_id_2": 150200, "region_id_3": 150204}, {"name": "内蒙古赤峰办事处", "city": "赤峰市", "address": "赤峰市红山区站前办事处解放街三段宏兴小区一栋1单元131号", "phone_number": "18648106946", "id": 158540, "preview_image": "brands_images/full/166.jpg", "brand_id": 166, "create_time": "NOW()", "longitude": 118.96308001005139, "latitude": 42.26442601252592, "official_coord": 0, "region_id_1": 150000, "region_id_2": 150400, "region_id_3": 150402}, {"name": "惠州分公司", "city": "惠州市", "address": "惠州市麦兴路13号博美堂大厦601-1单元", "phone_number": "13825020330,0752-2262013", "id": 158541, "preview_image": "brands_images/full/166.jpg", "brand_id": 166, "create_time": "NOW()", "longitude": 114.41496831956293, "latitude": 23.07770417531631, "official_coord": 0, "region_id_1": 440000, "region_id_2": 441300, "region_id_3": 441302}, {"name": "佛山分公司", "city": "佛山市", "address": "佛山市桂平路鸿晖产业新城2栋1010室", "phone_number": "13929911237,0757-86259429", "id": 158542, "preview_image": "brands_images/full/166.jpg", "brand_id": 166, "create_time": "NOW()", "longitude": 113.18046564569424, "latitude": 23.039210591171287, "official_coord": 0, "region_id_1": 440000, "region_id_2": 440600, "region_id_3": 440605}, {"name": "青岛分公司", "city": "青岛市", "address": "青岛市市北区辽宁路247~263号中新大厦", "phone_number": "13176516309,0532-82739397", "id": 158543, "preview_image": "brands_images/full/166.jpg", "brand_id": 166, "create_time": "NOW()", "longitude": 120.33740770956636, "latitude": 36.086908467503335, "official_coord": 0, "region_id_1": 370000, "region_id_2": 370200, "region_id_3": 370203}, {"name": "唐山办事处", "city": "唐山市", "address": "唐山市路北区龙泽路大陆阳光小区201楼1门501室", "phone_number": "18931537079,0315-5773185", "id": 158544, "preview_image": "brands_images/full/166.jpg", "brand_id": 166, "create_time": "NOW()", "longitude": 118.19701194746484, "latitude": 39.68557938703928, "official_coord": 0, "region_id_1": 130000, "region_id_2": 130200, "region_id_3": 130203}, {"name": "石家庄分公司", "city": "石家庄市", "address": "河北省石家庄市新华区和平西路红军大街19号4-2-201室", "phone_number": "13011574836,0311-87060591", "id": 158545, "preview_image": "brands_images/full/166.jpg", "brand_id": 166, "create_time": "NOW()", "longitude": 114.35907460139137, "latitude": 38.08388388301121, "official_coord": 0, "region_id_1": 130000, "region_id_2": 130100, "region_id_3": 130110}, {"name": "邯郸办事处", "city": "邯郸市", "address": "河北省邯郸市丛台区曙光路中央公园小区11号楼3单元2601", "phone_number": "18630158292,0310-3210251", "id": 158546, "preview_image": "brands_images/full/166.jpg", "brand_id": 166, "create_time": "NOW()", "longitude": 114.50567270655961, "latitude": 36.61981775425426, "official_coord": 0, "region_id_1": 130000, "region_id_2": 130400, "region_id_3": 130403}, {"name": "沧州办事处", "city": "沧州市", "address": "河北省沧州市运河区颐和文园7号楼三单元401室", "phone_number": "15227879699,0317-5502114", "id": 158547, "preview_image": "brands_images/full/166.jpg", "brand_id": 166, "create_time": "NOW()", "longitude": 116.8385732739519, "latitude": 38.30729267751347, "official_coord": 0, "region_id_1": 130000, "region_id_2": 130900, "region_id_3": 130903}, {"name": "保定办事处", "city": "保定市", "address": "保定市恒祥北大街2176号华冠庄园小区11-2-202房", "phone_number": "13931290020,0312-7505110", "id": 158548, "preview_image": "brands_images/full/166.jpg", "brand_id": 166, "create_time": "NOW()", "longitude": 115.50372985584819, "latitude": 38.91141173326442, "official_coord": 0, "region_id_1": 0, "region_id_2": 0, "region_id_3": 0}, {"name": "秦皇岛办事处", "city": "秦皇岛市", "address": "秦皇岛海港区红旗西里29号楼2单元102室", "phone_number": "13933900053,0335-3200840", "id": 158549, "preview_image": "brands_images/full/166.jpg", "brand_id": 166, "create_time": "NOW()", "longitude": 119.5900315192878, "latitude": 39.94355222325891, "official_coord": 0, "region_id_1": 130000, "region_id_2": 130300, "region_id_3": 130302}, {"name": "大庆办事处", "city": "大庆市", "address": "大庆市东风新村万宝三区3-38栋1单元102室", "phone_number": "18545051565", "id": 158550, "preview_image": "brands_images/full/166.jpg", "brand_id": 166, "create_time": "NOW()", "longitude": 125.10548382333761, "latitude": 46.57807463554493, "official_coord": 0, "region_id_1": 230000, "region_id_2": 230600, "region_id_3": 230602}, {"name": "佳木斯办事处", "city": "佳木斯市", "address": "佳木斯市长安西路劳动大厦对面益海花园小区3号楼2单元902室", "phone_number": "13946161262", "id": 158551, "preview_image": "brands_images/full/166.jpg", "brand_id": 166, "create_time": "NOW()", "longitude": 130.33842837359236, "latitude": 46.80506736283218, "official_coord": 0, "region_id_1": 140000, "region_id_2": 140300, "region_id_3": 140311}, {"name": "盘锦办事处", "city": "盘锦市", "address": "盘锦市一号公馆1#楼3单元502室", "phone_number": "18602466445,0427-2802706", "id": 158552, "preview_image": "brands_images/full/166.jpg", "brand_id": 166, "create_time": "NOW()", "longitude": 122.08513033511406, "latitude": 41.08475399108327, "official_coord": 0, "region_id_1": 0, "region_id_2": 0, "region_id_3": 0}, {"name": "营口办事处", "city": "营口市", "address": "营口市站前区成福里小区A10号楼1单元202室", "phone_number": "13840322719,0417-2617719", "id": 158553, "preview_image": "brands_images/full/166.jpg", "brand_id": 166, "create_time": "NOW()", "longitude": 122.2537421891281, "latitude": 40.686463051743814, "official_coord": 0, "region_id_1": 210000, "region_id_2": 210800, "region_id_3": 210802}, {"name": "普兰办事处", "city": "长春市", "address": "吉林省长春市", "phone_number": "13364312123", "id": 158554, "preview_image": "brands_images/full/166.jpg", "brand_id": 166, "create_time": "NOW()", "longitude": 125.33022871095919, "latitude": 43.82276004583078, "official_coord": 0, "region_id_1": 220000, "region_id_2": 220100, "region_id_3": 220102}, {"name": "吉林办事处", "city": "吉林市", "address": "吉林省吉林市昌邑区解放东路鸿博花园13号8单元3层120号", "phone_number": "15943209212,0432-62257141", "id": 158555, "preview_image": "brands_images/full/166.jpg", "brand_id": 166, "create_time": "NOW()", "longitude": 126.59230163482626, "latitude": 43.87461920403246, "official_coord": 0, "region_id_1": 220000, "region_id_2": 220200, "region_id_3": 220202}, {"name": "松原办事处", "city": "松原市", "address": "松原市宁江区锦江综合办公楼311楼", "phone_number": "13504713456,0438-6289918", "id": 158556, "preview_image": "brands_images/full/166.jpg", "brand_id": 166, "create_time": "NOW()", "longitude": 124.86757114896368, "latitude": 45.29270961688417, "official_coord": 0, "region_id_1": 220000, "region_id_2": 220700, "region_id_3": 220702}, {"name": "潍坊办事处", "city": "潍坊市", "address": "潍坊市奎文区健康东街新华路口新富水岸佳苑3号楼2单元402室", "phone_number": "15966103950", "id": 158557, "preview_image": "brands_images/full/166.jpg", "brand_id": 166, "create_time": "NOW()", "longitude": 119.1535666143295, "latitude": 36.702157177143384, "official_coord": 0, "region_id_1": 370000, "region_id_2": 370700, "region_id_3": 370705}, {"name": "东营办事处", "city": "东营市", "address": "东营市东城区锦华九区359号楼1单元401", "phone_number": "15910101002", "id": 158558, "preview_image": "brands_images/full/166.jpg", "brand_id": 166, "create_time": "NOW()", "longitude": 118.63531257038835, "latitude": 37.45826008878249, "official_coord": 0, "region_id_1": 370000, "region_id_2": 370500, "region_id_3": 370502}, {"name": "淄博办事处", "city": "淄博市", "address": "淄博市张店区十七中北街5号院乾盛铭园2-1-202", "phone_number": "13969182417,0533-2830058", "id": 158559, "preview_image": "brands_images/full/166.jpg", "brand_id": 166, "create_time": "NOW()", "longitude": 118.04028609667122, "latitude": 36.817169492930645, "official_coord": 0, "region_id_1": 370000, "region_id_2": 370300, "region_id_3": 370303}, {"name": "济宁办事处", "city": "济宁市", "address": "济宁市(西闸小区)22号楼4单元1层西户", "phone_number": "13371210515", "id": 158560, "preview_image": "brands_images/full/166.jpg", "brand_id": 166, "create_time": "NOW()", "longitude": 116.62112264753269, "latitude": 35.429958499103186, "official_coord": 0, "region_id_1": 370000, "region_id_2": 370800, "region_id_3": 370811}, {"name": "临沂办事处", "city": "临沂市", "address": "临沂市兰山区琅琊王路142号银雀溪园小区3号-2202", "phone_number": "13153903297,0539-3593463", "id": 158561, "preview_image": "brands_images/full/166.jpg", "brand_id": 166, "create_time": "NOW()", "longitude": 118.3089325955511, "latitude": 35.05855925360275, "official_coord": 0, "region_id_1": 370000, "region_id_2": 371300, "region_id_3": 371302}, {"name": "滨州办事处", "city": "滨州市", "address": "滨州黄河六路518号妇保站宿舍4号楼2单元502", "phone_number": "18553109076", "id": 158562, "preview_image": "brands_images/full/166.jpg", "brand_id": 166, "create_time": "NOW()", "longitude": 117.98330590026295, "latitude": 37.39127085256357, "official_coord": 0, "region_id_1": 370000, "region_id_2": 371600, "region_id_3": 371602}, {"name": "烟台分公司", "city": "烟台市", "address": "烟台市牟平区牟山路海伦国际城7号楼1303室", "phone_number": "13583598591,0535-6611783", "id": 158563, "preview_image": "brands_images/full/166.jpg", "brand_id": 166, "create_time": "NOW()", "longitude": 121.59489531639677, "latitude": 37.3833373109882, "official_coord": 0, "region_id_1": 370000, "region_id_2": 370600, "region_id_3": 370612}, {"name": "日照办事处", "city": "日照市", "address": "日照市东港区昭阳路昭阳小区17＃1单元502", "phone_number": "18613623018", "id": 158564, "preview_image": "brands_images/full/166.jpg", "brand_id": 166, "create_time": "NOW()", "longitude": 119.49135779039113, "latitude": 35.4273419434795, "official_coord": 0, "region_id_1": 370000, "region_id_2": 371100, "region_id_3": 371102}, {"name": "连云港办事处", "city": "连云港市", "address": "江苏连云港市新浦区建设路188号中央华府23栋1002室", "phone_number": "18261386638,0518-85863727", "id": 158565, "preview_image": "brands_images/full/166.jpg", "brand_id": 166, "create_time": "NOW()", "longitude": 119.23310695483478, "latitude": 34.59388432186481, "official_coord": 0, "region_id_1": 210000, "region_id_2": 210900, "region_id_3": 210902}, {"name": "盐城办事处", "city": "盐城市", "address": "盐城市盐都区人民南路南段华厦绿城E3幢806室", "phone_number": "18932267113,0515-88663263", "id": 158566, "preview_image": "brands_images/full/166.jpg", "brand_id": 166, "create_time": "NOW()", "longitude": 120.183763549113, "latitude": 33.346228843067124, "official_coord": 0, "region_id_1": 320000, "region_id_2": 320900, "region_id_3": 320903}, {"name": "淮安分公司", "city": "淮安市", "address": "淮安市淮阴区淮海北路盐河广场法国小城11栋903", "phone_number": "15396969611,0517-84805078", "id": 158567, "preview_image": "brands_images/full/166.jpg", "brand_id": 166, "create_time": "NOW()", "longitude": 119.0300413659305, "latitude": 33.635775583843476, "official_coord": 0, "region_id_1": 320000, "region_id_2": 320800, "region_id_3": 320804}, {"name": "南通办事处", "city": "南通市", "address": "南通市崇川区紫阳新城4幢502室", "phone_number": "13646260572,0513-81508710", "id": 158568, "preview_image": "brands_images/full/166.jpg", "brand_id": 166, "create_time": "NOW()", "longitude": 120.84475646939691, "latitude": 32.02069520666272, "official_coord": 0, "region_id_1": 320000, "region_id_2": 320600, "region_id_3": 320602}, {"name": "扬州办事处", "city": "扬州市", "address": "江苏省扬州市开发区扬子江路金轮星城7栋206", "phone_number": "13365111250,0514-89791121", "id": 158569, "preview_image": "brands_images/full/166.jpg", "brand_id": 166, "create_time": "NOW()", "longitude": 119.42106086796781, "latitude": 32.37449370596824, "official_coord": 0, "region_id_1": 320000, "region_id_2": 321000, "region_id_3": 321003}, {"name": "苏州办事处", "city": "苏州市", "address": "江苏省苏州市姑苏区杨枝塘路158冠南苑4栋401", "phone_number": "13052873102,0512-67509951", "id": 158570, "preview_image": "brands_images/full/166.jpg", "brand_id": 166, "create_time": "NOW()", "longitude": 120.65607408698894, "latitude": 31.291865339355514, "official_coord": 0, "region_id_1": 320000, "region_id_2": 320500, "region_id_3": 320508}, {"name": "常州办事处", "city": "常州市", "address": "江苏省常州市天宁区红梅路聚缘雅居八栋丙单元602", "phone_number": "13771116006,0519-85573997", "id": 158571, "preview_image": "brands_images/full/166.jpg", "brand_id": 166, "create_time": "NOW()", "longitude": 119.99042325767687, "latitude": 31.787736676408063, "official_coord": 0, "region_id_1": 320000, "region_id_2": 320400, "region_id_3": 320402}, {"name": "金华办事处", "city": "金华市", "address": "金华市人民西路和五一路交叉口凤凰城青年汇0632号", "phone_number": "13355811185", "id": 158572, "preview_image": "brands_images/full/166.jpg", "brand_id": 166, "create_time": "NOW()", "longitude": 119.64759683144368, "latitude": 29.11447427488785, "official_coord": 0, "region_id_1": 330000, "region_id_2": 330700, "region_id_3": 330702}, {"name": "嘉兴办事处", "city": "嘉兴市", "address": "嘉兴市东升西路花园小区6幢305室", "phone_number": "13067892321", "id": 158573, "preview_image": "brands_images/full/166.jpg", "brand_id": 166, "create_time": "NOW()", "longitude": 121.03072888532228, "latitude": 30.73469762949566, "official_coord": 0, "region_id_1": 330000, "region_id_2": 330400, "region_id_3": 330482}, {"name": "绍兴办事处", "city": "绍兴市", "address": "绍兴越城区昌安祭坛后5栋201", "phone_number": "13355811185", "id": 158574, "preview_image": "brands_images/full/166.jpg", "brand_id": 166, "create_time": "NOW()", "longitude": 120.59960552526655, "latitude": 30.01653841499813, "official_coord": 0, "region_id_1": 330000, "region_id_2": 330600, "region_id_3": 330602}, {"name": "舟山办事处", "city": "舟山市", "address": "舟山市普陀区东港街道晨晖街2号新立特小区5幢206室", "phone_number": "13626816631,0580-6391090", "id": 158575, "preview_image": "brands_images/full/166.jpg", "brand_id": 166, "create_time": "NOW()", "longitude": 122.31956611338093, "latitude": 29.958958386307284, "official_coord": 0, "region_id_1": 310000, "region_id_2": 310100, "region_id_3": 310107}, {"name": "丽水办事处", "city": "丽水市", "address": "丽水市莲都区开发路687-689号5层", "phone_number": "18268937220,0578-2660418", "id": 158576, "preview_image": "brands_images/full/166.jpg", "brand_id": 166, "create_time": "NOW()", "longitude": 119.94332398543644, "latitude": 28.458187274971372, "official_coord": 0, "region_id_1": 330000, "region_id_2": 331100, "region_id_3": 331102}, {"name": "台州办事处", "city": "台州市", "address": "台州市椒江区枫南路81号枫南小区4幢3单元101室", "phone_number": "13666897521,0576-88551623", "id": 158577, "preview_image": "brands_images/full/166.jpg", "brand_id": 166, "create_time": "NOW()", "longitude": 121.44861664479771, "latitude": 28.66616486888579, "official_coord": 0, "region_id_1": 330000, "region_id_2": 331000, "region_id_3": 331002}, {"name": "泉州办事处", "city": "泉州市", "address": "福建省泉州市丰泽区泉秀路431号西区37幢203室", "phone_number": "18959890090,0595-22707058", "id": 158578, "preview_image": "brands_images/full/166.jpg", "brand_id": 166, "create_time": "NOW()", "longitude": 118.60923399527209, "latitude": 24.893179323782654, "official_coord": 0, "region_id_1": 350000, "region_id_2": 350500, "region_id_3": 350503}, {"name": "厦门办事处", "city": "厦门市", "address": "厦门市思明区岭兜西一里明发园13号1008#", "phone_number": "18965164277,0592-5131573", "id": 158579, "preview_image": "brands_images/full/166.jpg", "brand_id": 166, "create_time": "NOW()", "longitude": 118.18287156733815, "latitude": 24.489741217784214, "official_coord": 0, "region_id_1": 350000, "region_id_2": 350200, "region_id_3": 350203}, {"name": "宁德办事处", "city": "宁德市", "address": "宁德市东侨区东湖豪门7号楼602", "phone_number": "13515002128,0593-2821203", "id": 158580, "preview_image": "brands_images/full/166.jpg", "brand_id": 166, "create_time": "NOW()", "longitude": 119.55319883530166, "latitude": 26.660768708800212, "official_coord": 0, "region_id_1": 350000, "region_id_2": 350900, "region_id_3": 350902}, {"name": "安庆办事处", "city": "安庆市", "address": "安庆市经济开发区拓山路叶祠社区24#301室", "phone_number": "18055688883,0556-5977559", "id": 158581, "preview_image": "brands_images/full/166.jpg", "brand_id": 166, "create_time": "NOW()", "longitude": 117.09077927224133, "latitude": 30.549742933970062, "official_coord": 0, "region_id_1": 340000, "region_id_2": 340800, "region_id_3": 340811}, {"name": "芜湖办事处", "city": "芜湖市", "address": "芜湖市镜湖区圣地雅歌一期16#3单元401室", "phone_number": "15357012347,0553-5208126", "id": 158582, "preview_image": "brands_images/full/166.jpg", "brand_id": 166, "create_time": "NOW()", "longitude": 118.392829181394, "latitude": 31.358835566400558, "official_coord": 0, "region_id_1": 340000, "region_id_2": 340200, "region_id_3": 340202}, {"name": "蚌埠办事处", "city": "蚌埠市", "address": "蚌埠市蚌山区财院路18号二一四所18栋2单元601", "phone_number": "18955237623,0552-3716271", "id": 158583, "preview_image": "brands_images/full/166.jpg", "brand_id": 166, "create_time": "NOW()", "longitude": 117.40490733829698, "latitude": 32.92795522970538, "official_coord": 0, "region_id_1": 340000, "region_id_2": 340300, "region_id_3": 340303}, {"name": "九江办事处", "city": "九江市", "address": "九江市开发区九瑞大道53号大润发广场3栋2单元505室", "phone_number": "13870230658,0792-2180603", "id": 158584, "preview_image": "brands_images/full/166.jpg", "brand_id": 166, "create_time": "NOW()", "longitude": 115.9846413784938, "latitude": 29.709899770344222, "official_coord": 0, "region_id_1": 360000, "region_id_2": 360400, "region_id_3": 360403}, {"name": "赣州办事处", "city": "赣州市", "address": "江西省赣州市章贡区客家大道20号", "phone_number": "13576757113,0797-8222538", "id": 158585, "preview_image": "brands_images/full/166.jpg", "brand_id": 166, "create_time": "NOW()", "longitude": 114.9361051604415, "latitude": 25.844791456493653, "official_coord": 0, "region_id_1": 360000, "region_id_2": 360700, "region_id_3": 360702}, {"name": "襄阳办事处", "city": "襄樊市", "address": "湖北省襄阳市樊城区建设路5号2栋3单元401号", "phone_number": "15671488076,0710-3460371", "id": 158586, "preview_image": "brands_images/full/166.jpg", "brand_id": 166, "create_time": "NOW()", "longitude": 112.14577873859966, "latitude": 32.040352378530194, "official_coord": 0, "region_id_1": 420000, "region_id_2": 420600, "region_id_3": 420606}, {"name": "宜昌办事处", "city": "荆州市", "address": "湖北省荆州市沙市区北京中路毛家坊1栋3单元4楼", "phone_number": "15971507179,0717-8399609", "id": 158587, "preview_image": "brands_images/full/166.jpg", "brand_id": 166, "create_time": "NOW()", "longitude": 112.26153137135661, "latitude": 30.313175939011018, "official_coord": 0, "region_id_1": 420000, "region_id_2": 421000, "region_id_3": 421002}, {"name": "珠海办事处", "city": "珠海市", "address": "珠海香洲区人民西路仁恒星园29栋一单元1502", "phone_number": "13560072811,0756-2232048", "id": 158588, "preview_image": "brands_images/full/166.jpg", "brand_id": 166, "create_time": "NOW()", "longitude": 113.54103818620307, "latitude": 22.272777629505494, "official_coord": 0, "region_id_1": 440000, "region_id_2": 440400, "region_id_3": 440402}, {"name": "韶关办事处", "city": "韶关市", "address": "韶关市惠民南路2栋向阳大厦308室", "phone_number": "13653026580,0751-8638158", "id": 158589, "preview_image": "brands_images/full/166.jpg", "brand_id": 166, "create_time": "NOW()", "longitude": 113.59666552430657, "latitude": 24.80523030185753, "official_coord": 0, "region_id_1": 440000, "region_id_2": 440200, "region_id_3": 440203}, {"name": "清远分公司", "city": "清远市", "address": "清远市新城2号区银苑1栋502", "phone_number": "18933647365,0763-3396867", "id": 158590, "preview_image": "brands_images/full/166.jpg", "brand_id": 166, "create_time": "NOW()", "longitude": 113.05014621973832, "latitude": 23.699388215451695, "official_coord": 0, "region_id_1": 440000, "region_id_2": 441800, "region_id_3": 441802}, {"name": "东莞分公司", "city": "东莞市", "address": "东莞市莞城区东纵大道地王商业中心B508室", "phone_number": "13925597408,0769-22471822", "id": 158591, "preview_image": "brands_images/full/166.jpg", "brand_id": 166, "create_time": "NOW()", "longitude": 113.77250485470795, "latitude": 23.044867891575457, "official_coord": 0, "region_id_1": 100000, "region_id_2": 440000, "region_id_3": 441900}, {"name": "江门办事处", "city": "江门市", "address": "江门市蓬江区东华二路2号之一益盛阁904室", "phone_number": "13302270223,0750-3902913", "id": 158592, "preview_image": "brands_images/full/166.jpg", "brand_id": 166, "create_time": "NOW()", "longitude": 113.10266404852466, "latitude": 22.601568570062042, "official_coord": 0, "region_id_1": 440000, "region_id_2": 440700, "region_id_3": 440703}, {"name": "肇庆办事处", "city": "肇庆市", "address": "肇庆市端州区跃龙路107幢602室", "phone_number": "13302270223,0758-2321622", "id": 158593, "preview_image": "brands_images/full/166.jpg", "brand_id": 166, "create_time": "NOW()", "longitude": 112.489371533775, "latitude": 23.05780852217616, "official_coord": 0, "region_id_1": 440000, "region_id_2": 441200, "region_id_3": 441202}, {"name": "茂名,阳江,中山,湛江", "city": "中山市", "address": "中山市西区富华道383号柏景台二栋22B", "phone_number": "13826431445,0760-88855151", "id": 158594, "preview_image": "brands_images/full/166.jpg", "brand_id": 166, "create_time": "NOW()", "longitude": 113.3517769439724, "latitude": 22.525888232016626, "official_coord": 0, "region_id_1": 100000, "region_id_2": 440000, "region_id_3": 442000}, {"name": "梅州办事处", "city": "梅州市", "address": "广东省梅州市梅江二路67号7楼704", "phone_number": "13690851299,0753-2258230", "id": 158595, "preview_image": "brands_images/full/166.jpg", "brand_id": 166, "create_time": "NOW()", "longitude": 116.1286991585302, "latitude": 24.304788358152873, "official_coord": 0, "region_id_1": 440000, "region_id_2": 441400, "region_id_3": 441402}, {"name": "汕头办事处", "city": "汕头市", "address": "汕头市天山路66号华星大厦13层", "phone_number": "13690851299,0754-86326549", "id": 158596, "preview_image": "brands_images/full/166.jpg", "brand_id": 166, "create_time": "NOW()", "longitude": 116.73017609334896, "latitude": 23.386363701907346, "official_coord": 0, "region_id_1": 440000, "region_id_2": 440500, "region_id_3": 440507}, {"name": "钦州办事处", "city": "钦州市", "address": "钦州市南珠西大街100号泰禾盛世名门2号楼2-2-1002", "phone_number": "18275809908,0777-3684484", "id": 158597, "preview_image": "brands_images/full/166.jpg", "brand_id": 166, "create_time": "NOW()", "longitude": 108.62825422344417, "latitude": 21.96978474526165, "official_coord": 0, "region_id_1": 450000, "region_id_2": 450700, "region_id_3": 450702}, {"name": "桂林办事处", "city": "桂林市", "address": "桂林市中山南路金马大厦3单元617室 ", "phone_number": "18677077386,0773-8987448", "id": 158598, "preview_image": "brands_images/full/166.jpg", "brand_id": 166, "create_time": "NOW()", "longitude": 110.29788282045531, "latitude": 25.278442445325474, "official_coord": 0, "region_id_1": 450000, "region_id_2": 450300, "region_id_3": 450304}, {"name": "三亚", "city": "三亚市", "address": "三亚市河西区春园路汇林水苑7栋一单元904房", "phone_number": "13876374264,0898-88264062", "id": 158599, "preview_image": "brands_images/full/166.jpg", "brand_id": 166, "create_time": "NOW()", "longitude": 109.51257030152041, "latitude": 18.26410727396291, "official_coord": 0, "region_id_1": 460000, "region_id_2": 460200, "region_id_3": 460204}, {"name": "合川办事处", "city": "重庆市", "address": "重庆市合川区瑞山西路1号狮王华府7栋16-5", "phone_number": "13635444564,023-42862737", "id": 158600, "preview_image": "brands_images/full/166.jpg", "brand_id": 166, "create_time": "NOW()", "longitude": 106.26369981810846, "latitude": 29.998427836488894, "official_coord": 0, "region_id_1": 500000, "region_id_2": 500100, "region_id_3": 500117}, {"name": "曲靖办事处", "city": "曲靖市", "address": "云南省曲靖市麒麟区麒麟东路尚都豪庭1栋1305B", "phone_number": "18620501890,0874-3128770", "id": 158601, "preview_image": "brands_images/full/166.jpg", "brand_id": 166, "create_time": "NOW()", "longitude": 103.80976685737699, "latitude": 25.508085204834305, "official_coord": 0, "region_id_1": 530000, "region_id_2": 530300, "region_id_3": 530302}, {"name": "大理办事处", "city": "大理州", "address": "大理市下关泰安桥北艺墅花乡C栋6-1号", "phone_number": "18988413095,0872-8815368", "id": 158602, "preview_image": "brands_images/full/166.jpg", "brand_id": 166, "create_time": "NOW()", "longitude": 100.23048511519359, "latitude": 25.603656614136476, "official_coord": 0, "region_id_1": 530000, "region_id_2": 532900, "region_id_3": 532901}, {"name": "达州办事处", "city": "达州市", "address": "达州市通川区西外朝阳西路705号罗浮道城C1栋16楼1号", "phone_number": "18282203038,0818-2259528", "id": 158603, "preview_image": "brands_images/full/166.jpg", "brand_id": 166, "create_time": "NOW()", "longitude": 107.46385116069497, "latitude": 31.204214512395744, "official_coord": 0, "region_id_1": 510000, "region_id_2": 511700, "region_id_3": 511702}, {"name": "宜宾办事处", "city": "宜宾市", "address": "四川省宜宾市南岸区（鲁能D街区山水绿城3栋304）", "phone_number": "18208229210,0831-3667640", "id": 158604, "preview_image": "brands_images/full/166.jpg", "brand_id": 166, "create_time": "NOW()", "longitude": 106.63828963850546, "latitude": 29.717598423534426, "official_coord": 0, "region_id_1": 500000, "region_id_2": 500100, "region_id_3": 500112}, {"name": "绵阳分公司", "city": "绵阳市", "address": "四川省绵阳市涪城区长虹大道中段43号2幢2-2-2", "phone_number": "15882838653,0816-2333014", "id": 158605, "preview_image": "brands_images/full/166.jpg", "brand_id": 166, "create_time": "NOW()", "longitude": 104.74466378242478, "latitude": 31.478442275629895, "official_coord": 0, "region_id_1": 510000, "region_id_2": 510700, "region_id_3": 510703}, {"name": "西安分公司", "city": "西安市", "address": "陕西省西安市雁塔区科技路8号凯丽大厦西座2503室", "phone_number": "13991133262,029-88444625", "id": 158606, "preview_image": "brands_images/full/166.jpg", "brand_id": 166, "create_time": "NOW()", "longitude": 108.9213571833404, "latitude": 34.23190900503599, "official_coord": 0, "region_id_1": 610000, "region_id_2": 610100, "region_id_3": 610113}, {"name": "咸阳分公司", "city": "咸阳市", "address": "陕西省咸阳市沣东新城启航佳苑A区8号楼1103室", "phone_number": "15991245278,029-89105201", "id": 158607, "preview_image": "brands_images/full/166.jpg", "brand_id": 166, "create_time": "NOW()", "longitude": 108.81889661024525, "latitude": 34.30838640322103, "official_coord": 0, "region_id_1": 610000, "region_id_2": 610100, "region_id_3": 610112}, {"name": "威海二级办", "city": "威海市", "address": "威海市经区青岛中路滨海龙城3号楼803", "phone_number": "13553055813", "id": 158608, "preview_image": "brands_images/full/166.jpg", "brand_id": 166, "create_time": "NOW()", "longitude": 122.1605771920299, "latitude": 37.427984889710835, "official_coord": 0, "region_id_1": 370000, "region_id_2": 371000, "region_id_3": 371002}, {"name": "洛阳", "city": "洛阳市", "address": "洛阳市安徽路万国银座B栋1423A室 ", "phone_number": "13069512265,18538286633", "id": 158609, "preview_image": "brands_images/full/166.jpg", "brand_id": 166, "create_time": "NOW()", "longitude": 112.4068213654658, "latitude": 34.66431150051532, "official_coord": 0, "region_id_1": 410000, "region_id_2": 410300, "region_id_3": 410305}, {"name": "新乡", "city": "新乡市", "address": "新乡市牧野区平原路与新二街交叉口大景城7号楼1单元6楼西户", "phone_number": "18539259599", "id": 158610, "preview_image": "brands_images/full/166.jpg", "brand_id": 166, "create_time": "NOW()", "longitude": 113.92676478836717, "latitude": 35.31309801312369, "official_coord": 0, "region_id_1": 410000, "region_id_2": 410700, "region_id_3": 410702}, {"name": "开封", "city": "开封市", "address": "河南省开封市开发区龙成锦绣C区-3-1-101 ", "phone_number": "15037841522", "id": 158611, "preview_image": "brands_images/full/166.jpg", "brand_id": 166, "create_time": "NOW()", "longitude": 114.29561838315773, "latitude": 34.799336178072124, "official_coord": 0, "region_id_1": 410000, "region_id_2": 410200, "region_id_3": 410202}, {"name": "信阳", "city": "信阳市", "address": "河南省信阳市负忧民权路东关南门", "phone_number": "17737654545", "id": 158612, "preview_image": "brands_images/full/166.jpg", "brand_id": 166, "create_time": "NOW()", "longitude": 114.08653379635857, "latitude": 32.12524730086411, "official_coord": 0, "region_id_1": 410000, "region_id_2": 411500, "region_id_3": 411502}, {"name": "张家口分公司", "city": "张家口市", "address": "河北省张家口市桥东区金垣置地1-1-1301室 ", "phone_number": "13084586868,0313-7098368", "id": 158613, "preview_image": "brands_images/full/166.jpg", "brand_id": 166, "create_time": "NOW()", "longitude": 114.89245483547225, "latitude": 40.81957509841757, "official_coord": 0, "region_id_1": 130000, "region_id_2": 130500, "region_id_3": 130502}]