[{"name": "深圳（专卖店）", "address": "宝安区沙井华美居建材市场009号", "phone_number": "0755-23027869", "id": 111326, "preview_image": "brands_images/full/473.jpg", "brand_id": 473, "create_time": "NOW()", "longitude": 113.83044367771917, "latitude": 22.740874494552926, "official_coord": 0, "region_id_1": "440000", "region_id_2": "440300", "region_id_3": "440306"}, {"name": "深圳（专卖店）", "address": "福田区八卦岭四路国安居建材市场A140号", "phone_number": "0755-22208582", "id": 111327, "preview_image": "brands_images/full/473.jpg", "brand_id": 473, "create_time": "NOW()", "longitude": 114.10157783188878, "latitude": 22.56968090655021, "official_coord": 0, "region_id_1": "440000", "region_id_2": "440300", "region_id_3": "440304"}, {"name": "深圳（专卖店）", "address": "宝安区龙华民旺路与梅龙路交汇处国安居建材市场三楼F129号", "phone_number": "0755-29640516", "id": 111328, "preview_image": "brands_images/full/473.jpg", "brand_id": 473, "create_time": "NOW()", "longitude": 114.03995859308509, "latitude": 22.626511474182742, "official_coord": 0, "region_id_1": "460000", "region_id_2": "460100", "region_id_3": "460106"}, {"name": "深圳（专卖店）", "address": "龙岗区龙翔大道西国安居一楼", "phone_number": "15999595396", "id": 111329, "preview_image": "brands_images/full/473.jpg", "brand_id": 473, "create_time": "NOW()", "longitude": 114.22492761229972, "latitude": 22.699651140931845, "official_coord": 0, "region_id_1": "440000", "region_id_2": "440300", "region_id_3": "440307"}, {"name": "深圳（专卖店）", "address": "坪山新区中山大道与比亚迪路交汇处乐安居建材市场112号", "phone_number": "0755-28339650", "id": 111330, "preview_image": "brands_images/full/473.jpg", "brand_id": 473, "create_time": "NOW()", "longitude": 114.3450432568949, "latitude": 22.688862356729977, "official_coord": 0, "region_id_1": 0, "region_id_2": 0, "region_id_3": 0}, {"name": "深圳（专卖店）", "address": "福田区沙嘴路红旗岭综合楼101号瓷尚空间", "phone_number": "0755-83585343", "id": 111331, "preview_image": "brands_images/full/473.jpg", "brand_id": 473, "create_time": "NOW()", "longitude": 114.04275979544408, "latitude": 22.527930387314434, "official_coord": 0, "region_id_1": "440000", "region_id_2": "440300", "region_id_3": "440304"}, {"name": "深圳（专卖店）", "address": "深圳市龙岗区龙平西路18号乐安居建材市场069号", "phone_number": "0755-89387790", "id": 111332, "preview_image": "brands_images/full/473.jpg", "brand_id": 473, "create_time": "NOW()", "longitude": 114.2521017035509, "latitude": 22.737306582414792, "official_coord": 0, "region_id_1": "440000", "region_id_2": "440300", "region_id_3": "440307"}, {"name": "深圳（专卖店）", "address": "深圳市宝安区流塘路与107国道交汇处国安居建材市场A023号", "phone_number": "0755-82409430", "id": 111333, "preview_image": "brands_images/full/473.jpg", "brand_id": 473, "create_time": "NOW()", "longitude": 113.89022774873987, "latitude": 22.5848311930957, "official_coord": 0, "region_id_1": "440000", "region_id_2": "440300", "region_id_3": "440306"}, {"name": "瓷砖专卖店", "address": "虎门镇东海城堡3-111", "phone_number": "13686099989", "id": 111334, "preview_image": "brands_images/full/473.jpg", "brand_id": 473, "create_time": "NOW()", "longitude": 113.6790748638179, "latitude": 22.82079232671028, "official_coord": 0, "region_id_1": "100000", "region_id_2": "440000", "region_id_3": "441900"}, {"name": "箭牌卫浴瓷砖综合店", "address": "东莞市长安镇明和建材市场", "phone_number": "13686099989", "id": 111335, "preview_image": "brands_images/full/473.jpg", "brand_id": 473, "create_time": "NOW()", "longitude": 113.79482458772739, "latitude": 22.811542018782315, "official_coord": 0, "region_id_1": "100000", "region_id_2": "440000", "region_id_3": "441900"}, {"name": "南雄华美店（综合店）", "address": "南雄市雄州镇金叶大道", "phone_number": "13726592718", "id": 111336, "preview_image": "brands_images/full/473.jpg", "brand_id": 473, "create_time": "NOW()", "longitude": 114.31335906136782, "latitude": 25.12223144174099, "official_coord": 0, "region_id_1": "440000", "region_id_2": "440200", "region_id_3": "440282"}, {"name": "箭牌卫浴瓷砖综合店", "address": "电白人民路", "phone_number": "13929788362", "id": 111337, "preview_image": "brands_images/full/473.jpg", "brand_id": 473, "create_time": "NOW()", "longitude": 111.005692378895, "latitude": 21.54047189247631, "official_coord": 0, "region_id_1": "440000", "region_id_2": "440900", "region_id_3": "440904"}, {"name": "箭牌瓷砖专卖点", "address": "惠州国安居建材市场", "phone_number": "13725030068", "id": 111338, "preview_image": "brands_images/full/473.jpg", "brand_id": 473, "create_time": "NOW()", "longitude": 114.46117610169108, "latitude": 22.80875301852585, "official_coord": 0, "region_id_1": "440000", "region_id_2": "441300", "region_id_3": "441303"}, {"name": "番禺瓷砖专卖店", "address": "广州市番禺区钟村镇雄峰商城A1栋077箭牌瓷砖", "phone_number": "15916078942", "id": 111339, "preview_image": "brands_images/full/473.jpg", "brand_id": 473, "create_time": "NOW()", "longitude": 113.31096472386375, "latitude": 22.975435089511716, "official_coord": 0, "region_id_1": "440000", "region_id_2": "440100", "region_id_3": "440113"}, {"name": "珠海世邦装饰一号厅店（综合店)", "address": "珠海前山世邦装饰广场一号厅1C21号", "phone_number": "13923378971", "id": 111340, "preview_image": "brands_images/full/473.jpg", "brand_id": 473, "create_time": "NOW()", "longitude": 113.53640697862537, "latitude": 22.249899315117002, "official_coord": 0, "region_id_1": "440000", "region_id_2": "440400", "region_id_3": "440402"}, {"name": "箭牌瓷砖专卖店", "address": "揭阳市榕城新开发区", "phone_number": "13924433358", "id": 111341, "preview_image": "brands_images/full/473.jpg", "brand_id": 473, "create_time": "NOW()", "longitude": 116.36919512868124, "latitude": 23.55601289708308, "official_coord": 0, "region_id_1": "440000", "region_id_2": "445200", "region_id_3": "445202"}, {"name": "金砂东路店综合店", "address": "汕头市金砂东路丰泽花园二期3栋S04－05", "phone_number": "13502990018", "id": 111342, "preview_image": "brands_images/full/473.jpg", "brand_id": 473, "create_time": "NOW()", "longitude": 116.74484896354457, "latitude": 23.372212238733415, "official_coord": 0, "region_id_1": "440000", "region_id_2": "440500", "region_id_3": "440507"}, {"name": "商南箭牌瓷砖专卖店", "address": "商南建材市场", "phone_number": "18682916831", "id": 111343, "preview_image": "brands_images/full/473.jpg", "brand_id": 473, "create_time": "NOW()", "longitude": 110.89269577526764, "latitude": 33.538109231442135, "official_coord": 0, "region_id_1": "610000", "region_id_2": "611000", "region_id_3": "611023"}, {"name": "渭南箭牌瓷砖专卖店", "address": "渭南市乐天建材商城", "phone_number": "18992308365", "id": 111344, "preview_image": "brands_images/full/473.jpg", "brand_id": 473, "create_time": "NOW()", "longitude": 109.50067171860785, "latitude": 34.516086041589176, "official_coord": 0, "region_id_1": "610000", "region_id_2": "610500", "region_id_3": "610502"}, {"name": "铜川箭牌瓷砖专卖店", "address": "铜川市正阳国际建材市场", "phone_number": "9198198811", "id": 111345, "preview_image": "brands_images/full/473.jpg", "brand_id": 473, "create_time": "NOW()", "longitude": 108.95986793474772, "latitude": 34.90648976120908, "official_coord": 0, "region_id_1": "610000", "region_id_2": "610200", "region_id_3": "610204"}, {"name": "彬县箭牌瓷砖专卖区", "address": "彬县义乌商贸城", "phone_number": "13379301695", "id": 111346, "preview_image": "brands_images/full/473.jpg", "brand_id": 473, "create_time": "NOW()", "longitude": 108.08596127275813, "latitude": 35.053962659743995, "official_coord": 0, "region_id_1": "610000", "region_id_2": "610400", "region_id_3": "610427"}, {"name": "咸阳亚典箭牌瓷砖专卖店", "address": "咸阳人民路亚典建材市场", "phone_number": "2938134955", "id": 111347, "preview_image": "brands_images/full/473.jpg", "brand_id": 473, "create_time": "NOW()", "longitude": 108.69867585098555, "latitude": 34.34113431785464, "official_coord": 0, "region_id_1": "610000", "region_id_2": "610400", "region_id_3": "610402"}, {"name": "咸阳箭牌瓷砖专卖店", "address": "咸阳东风路中储建材市场", "phone_number": "2938134955", "id": 111348, "preview_image": "brands_images/full/473.jpg", "brand_id": 473, "create_time": "NOW()", "longitude": 108.74838669598324, "latitude": 34.355293109161124, "official_coord": 0, "region_id_1": "610000", "region_id_2": "610400", "region_id_3": "610404"}, {"name": "商州箭牌卫浴・瓷砖二店（综合店）", "address": "商州市天源建材市场", "phone_number": "0914-2339212", "id": 111349, "preview_image": "brands_images/full/473.jpg", "brand_id": 473, "create_time": "NOW()", "longitude": 109.96518825942755, "latitude": 33.86465289349624, "official_coord": 0, "region_id_1": "610000", "region_id_2": "611000", "region_id_3": "611002"}, {"name": "镇安上品生活馆（综合店）", "address": "镇安箭牌瓷砖生活馆", "phone_number": "13992483808", "id": 111350, "preview_image": "brands_images/full/473.jpg", "brand_id": 473, "create_time": "NOW()", "longitude": 109.07737051731415, "latitude": 33.38093876486309, "official_coord": 0, "region_id_1": "610000", "region_id_2": "611000", "region_id_3": "611025"}, {"name": "岐山县箭牌瓷砖专卖店", "address": "岐山县北环路", "phone_number": "18392715129", "id": 111351, "preview_image": "brands_images/full/473.jpg", "brand_id": 473, "create_time": "NOW()", "longitude": 107.63434499971464, "latitude": 34.452758474876525, "official_coord": 0, "region_id_1": "610000", "region_id_2": "610300", "region_id_3": "610323"}, {"name": "安康箭牌瓷砖专卖店", "address": "安康市天贸城", "phone_number": "18009568699", "id": 111352, "preview_image": "brands_images/full/473.jpg", "brand_id": 473, "create_time": "NOW()", "longitude": 108.96847909474248, "latitude": 32.722483622066996, "official_coord": 0, "region_id_1": "610000", "region_id_2": "610900", "region_id_3": "610902"}, {"name": "箭牌瓷砖专卖店", "address": "润雨建材市场", "phone_number": "15148526888", "id": 111353, "preview_image": "brands_images/full/473.jpg", "brand_id": 473, "create_time": "NOW()", "longitude": 111.70311484981434, "latitude": 40.8454372344025, "official_coord": 0, "region_id_1": "150000", "region_id_2": "150100", "region_id_3": "150102"}, {"name": "汉中市箭牌瓷砖专卖店", "address": "汉中市汉台区运达建材市场D103-105号", "phone_number": "9168163997", "id": 111354, "preview_image": "brands_images/full/473.jpg", "brand_id": 473, "create_time": "NOW()", "longitude": 107.02930793184646, "latitude": 33.08984300514853, "official_coord": 0, "region_id_1": "610000", "region_id_2": "610700", "region_id_3": "610702"}, {"name": "镇巴县箭牌瓷砖专卖店", "address": "镇巴县新街12号", "phone_number": "13992636006", "id": 111355, "preview_image": "brands_images/full/473.jpg", "brand_id": 473, "create_time": "NOW()", "longitude": 107.901136472879, "latitude": 32.54443125814856, "official_coord": 0, "region_id_1": "610000", "region_id_2": "610700", "region_id_3": "610728"}, {"name": "西安贝斯特箭牌瓷砖专卖店", "address": "西安贝斯特物流园", "phone_number": "18991238028", "id": 111356, "preview_image": "brands_images/full/473.jpg", "brand_id": 473, "create_time": "NOW()", "longitude": 108.9864116078896, "latitude": 34.284931787539925, "official_coord": 0, "region_id_1": "150000", "region_id_2": "150100", "region_id_3": "150102"}, {"name": "周至箭牌瓷砖专卖店", "address": "周至县摩托城建材市场", "phone_number": "18706897705", "id": 111357, "preview_image": "brands_images/full/473.jpg", "brand_id": 473, "create_time": "NOW()", "longitude": 108.23566763551854, "latitude": 34.16299514673617, "official_coord": 0, "region_id_1": "610000", "region_id_2": "610100", "region_id_3": "610124"}, {"name": "临潼箭牌瓷砖专卖店", "address": "西安市临潼区常堡建材市场", "phone_number": "029-83434522", "id": 111358, "preview_image": "brands_images/full/473.jpg", "brand_id": 473, "create_time": "NOW()", "longitude": 109.21014777694401, "latitude": 34.38236056974556, "official_coord": 0, "region_id_1": "610000", "region_id_2": "610100", "region_id_3": "610115"}, {"name": "凤翔箭牌瓷砖专卖区", "address": "东关冠森3号楼", "phone_number": "9178920168", "id": 111359, "preview_image": "brands_images/full/473.jpg", "brand_id": 473, "create_time": "NOW()", "longitude": 107.42228066146212, "latitude": 34.52624998270282, "official_coord": 0, "region_id_1": "610000", "region_id_2": "610300", "region_id_3": "610322"}, {"name": "杨凌箭牌瓷砖专卖区", "address": "秦科建材市场", "phone_number": "13709229806", "id": 111360, "preview_image": "brands_images/full/473.jpg", "brand_id": 473, "create_time": "NOW()", "longitude": 0, "latitude": 0, "official_coord": 0, "region_id_1": "610000", "region_id_2": "610300", "region_id_3": "610322"}, {"name": "泾阳专卖店", "address": "泾阳建材市场", "phone_number": 0, "id": 111361, "preview_image": "brands_images/full/473.jpg", "brand_id": 473, "create_time": "NOW()", "longitude": 108.83090865274644, "latitude": 34.53711167463548, "official_coord": 0, "region_id_1": "610000", "region_id_2": "610400", "region_id_3": "610423"}, {"name": "西安居然之家装专卖店", "address": "西安北二环居然之家", "phone_number": 0, "id": 111362, "preview_image": "brands_images/full/473.jpg", "brand_id": 473, "create_time": "NOW()", "longitude": 108.93538048480141, "latitude": 34.317122210949606, "official_coord": 0, "region_id_1": "610000", "region_id_2": "610100", "region_id_3": "610112"}, {"name": "西大明宫箭牌瓷砖专卖店", "address": "西安西三环大明宫建材超市", "phone_number": "15029972762", "id": 111363, "preview_image": "brands_images/full/473.jpg", "brand_id": 473, "create_time": "NOW()", "longitude": 108.97801421554705, "latitude": 34.372063656120694, "official_coord": 0, "region_id_1": "610000", "region_id_2": "610100", "region_id_3": "610112"}, {"name": "西安南郊箭牌瓷砖专卖店", "address": "西安市南郊建材市场", "phone_number": "13402942375", "id": 111364, "preview_image": "brands_images/full/473.jpg", "brand_id": 473, "create_time": "NOW()", "longitude": 108.93637105874927, "latitude": 34.217496219023175, "official_coord": 0, "region_id_1": "610000", "region_id_2": "610100", "region_id_3": "610113"}, {"name": "东方家园箭牌瓷砖专卖店", "address": "西安市东方家园超市", "phone_number": "13991879814", "id": 111365, "preview_image": "brands_images/full/473.jpg", "brand_id": 473, "create_time": "NOW()", "longitude": 108.99108797159698, "latitude": 34.27719847653739, "official_coord": 0, "region_id_1": "150000", "region_id_2": "150100", "region_id_3": "150102"}, {"name": "北郊大明宫箭牌瓷砖专卖店", "address": "北郊大明宫建材家具城北门5通道", "phone_number": "14709298520", "id": 111366, "preview_image": "brands_images/full/473.jpg", "brand_id": 473, "create_time": "NOW()", "longitude": 108.97617406589698, "latitude": 34.319992116419826, "official_coord": 0, "region_id_1": "610000", "region_id_2": "610100", "region_id_3": "610112"}, {"name": "太白路箭牌卫浴瓷砖店（综合店）", "address": "西安市南二环红星美凯龙", "phone_number": "14709298511", "id": 111367, "preview_image": "brands_images/full/473.jpg", "brand_id": 473, "create_time": "NOW()", "longitude": 108.93088186881866, "latitude": 34.240014867250665, "official_coord": 0, "region_id_1": "610000", "region_id_2": "610100", "region_id_3": "610103"}, {"name": "廊坊-香河箭牌瓷砖", "address": "", "phone_number": 0, "id": 111368, "preview_image": "brands_images/full/473.jpg", "brand_id": 473, "create_time": "NOW()", "longitude": 0, "latitude": 0, "official_coord": 0, "region_id_1": "610000", "region_id_2": "610100", "region_id_3": "610103"}, {"name": "沧州市箭牌卫浴瓷砖综合店", "address": "沧州市新华区黄河东路82号居然之家建材市场一层DS52-1-1-053", "phone_number": "15033691524", "id": 111369, "preview_image": "brands_images/full/473.jpg", "brand_id": 473, "create_time": "NOW()", "longitude": 116.90083284789495, "latitude": 38.292962652205404, "official_coord": 0, "region_id_1": "130000", "region_id_2": "130100", "region_id_3": "130105"}, {"name": "沧州居然之家箭牌瓷砖专卖店", "address": "沧州市新华区黄河东路82号居然之家建材市场一层DS52-1-1-053", "phone_number": "15033691524", "id": 111370, "preview_image": "brands_images/full/473.jpg", "brand_id": 473, "create_time": "NOW()", "longitude": 116.90083284789495, "latitude": 38.292962652205404, "official_coord": 0, "region_id_1": "130000", "region_id_2": "130100", "region_id_3": "130105"}, {"name": "沧州市箭牌卫浴瓷砖综合店", "address": "沧州市朝阳北路朝阳门底商1号门市", "phone_number": "15033691524", "id": 111371, "preview_image": "brands_images/full/473.jpg", "brand_id": 473, "create_time": "NOW()", "longitude": 116.84426908851695, "latitude": 38.31654949262614, "official_coord": 0, "region_id_1": "130000", "region_id_2": "130900", "region_id_3": "130903"}, {"name": "天津市北辰红星美凯龙专卖店", "address": "天津市北辰红星美凯龙", "phone_number": "18622122565", "id": 111372, "preview_image": "brands_images/full/473.jpg", "brand_id": 473, "create_time": "NOW()", "longitude": 117.14590697496398, "latitude": 39.22047063025427, "official_coord": 0, "region_id_1": "120000", "region_id_2": "120100", "region_id_3": "120113"}, {"name": "宝坻箭牌瓷砖专卖店", "address": "宝坻箭牌瓷砖专卖店", "phone_number": "18622122565", "id": 111373, "preview_image": "brands_images/full/473.jpg", "brand_id": 473, "create_time": "NOW()", "longitude": 117.46183507866427, "latitude": 38.85170894352311, "official_coord": 0, "region_id_1": "120000", "region_id_2": "120100", "region_id_3": "120116"}, {"name": "静海红星美凯龙箭牌瓷砖专卖店", "address": "静海红星美凯龙箭牌瓷砖专卖店", "phone_number": "18622122565", "id": 111374, "preview_image": "brands_images/full/473.jpg", "brand_id": 473, "create_time": "NOW()", "longitude": 117.36707692764574, "latitude": 39.0873522069255, "official_coord": 0, "region_id_1": "120000", "region_id_2": "120100", "region_id_3": "120110"}, {"name": "大港箭牌瓷砖专卖店", "address": "大港箭牌瓷砖专卖店", "phone_number": "18622122565", "id": 111375, "preview_image": "brands_images/full/473.jpg", "brand_id": 473, "create_time": "NOW()", "longitude": 117.46183507866427, "latitude": 38.85170894352311, "official_coord": 0, "region_id_1": "120000", "region_id_2": "120100", "region_id_3": "120116"}, {"name": "东丽红星箭牌瓷砖专卖店", "address": "东丽红星箭牌瓷砖专卖店", "phone_number": "18622122565", "id": 111376, "preview_image": "brands_images/full/473.jpg", "brand_id": 473, "create_time": "NOW()", "longitude": 117.36707692764574, "latitude": 39.0873522069255, "official_coord": 0, "region_id_1": "120000", "region_id_2": "120100", "region_id_3": "120110"}, {"name": "唐官屯箭牌瓷砖专卖店", "address": "唐官屯箭牌瓷砖专卖店", "phone_number": "18622122565", "id": 111377, "preview_image": "brands_images/full/473.jpg", "brand_id": 473, "create_time": "NOW()", "longitude": 117.46183507866427, "latitude": 38.85170894352311, "official_coord": 0, "region_id_1": "120000", "region_id_2": "120100", "region_id_3": "120116"}, {"name": "登发箭牌瓷砖专卖店", "address": "天津登发建材市场", "phone_number": "18622122565", "id": 111378, "preview_image": "brands_images/full/473.jpg", "brand_id": 473, "create_time": "NOW()", "longitude": 117.23831007886378, "latitude": 39.097315490860495, "official_coord": 0, "region_id_1": "120000", "region_id_2": "120100", "region_id_3": "120103"}, {"name": "汉沽箭牌瓷砖专卖店", "address": "汉沽美汇家居装饰城", "phone_number": "18622122565", "id": 111379, "preview_image": "brands_images/full/473.jpg", "brand_id": 473, "create_time": "NOW()", "longitude": 117.83325161344686, "latitude": 39.254007263245974, "official_coord": 0, "region_id_1": "120000", "region_id_2": "120100", "region_id_3": "120116"}, {"name": "宁河箭牌瓷砖专卖店", "address": "宁河县芦苔镇205国道与芦苔路交口时代商城", "phone_number": "18622122565", "id": 111380, "preview_image": "brands_images/full/473.jpg", "brand_id": 473, "create_time": "NOW()", "longitude": 117.84355171951542, "latitude": 39.3403474898768, "official_coord": 0, "region_id_1": 0, "region_id_2": 0, "region_id_3": 0}, {"name": "武清区华北建材市场（专卖店）", "address": "武清区华北建材市场", "phone_number": "18622122565", "id": 111381, "preview_image": "brands_images/full/473.jpg", "brand_id": 473, "create_time": "NOW()", "longitude": 117.60815480879266, "latitude": 39.03158342333241, "official_coord": 0, "region_id_1": "120000", "region_id_2": "120100", "region_id_3": "120116"}, {"name": "塘沽华北建材市场（综合店）", "address": "塘沽华北建材市场", "phone_number": "18622122565", "id": 111382, "preview_image": "brands_images/full/473.jpg", "brand_id": 473, "create_time": "NOW()", "longitude": 117.60815480879266, "latitude": 39.03158342333241, "official_coord": 0, "region_id_1": "120000", "region_id_2": "120100", "region_id_3": "120116"}, {"name": "红桥红星美凯龙（专卖店）", "address": "红桥红星美凯龙", "phone_number": "18622122565", "id": 111383, "preview_image": "brands_images/full/473.jpg", "brand_id": 473, "create_time": "NOW()", "longitude": 117.16012564507085, "latitude": 39.15899867234665, "official_coord": 0, "region_id_1": "120000", "region_id_2": "120100", "region_id_3": "120106"}, {"name": "秦皇岛-秦皇岛旭日箭牌瓷砖专卖店", "address": "秦皇岛旭日箭牌瓷砖专卖店", "phone_number": "18603354400", "id": 111384, "preview_image": "brands_images/full/473.jpg", "brand_id": 473, "create_time": "NOW()", "longitude": 119.61420636107991, "latitude": 39.942181078486726, "official_coord": 0, "region_id_1": "130000", "region_id_2": "130300", "region_id_3": "130302"}, {"name": "秦皇岛-箭牌瓷砖专卖店", "address": "海港区星艺装饰建材市场", "phone_number": "18603354400", "id": 111385, "preview_image": "brands_images/full/473.jpg", "brand_id": 473, "create_time": "NOW()", "longitude": 119.51935589583437, "latitude": 39.94146451978124, "official_coord": 0, "region_id_1": "130000", "region_id_2": "130300", "region_id_3": "130302"}, {"name": "秦皇岛-昌黎箭牌瓷砖专卖店", "address": "昌黎箭牌瓷砖专卖店", "phone_number": "18603354400", "id": 111386, "preview_image": "brands_images/full/473.jpg", "brand_id": 473, "create_time": "NOW()", "longitude": 119.1679003513934, "latitude": 39.705284686528735, "official_coord": 0, "region_id_1": "130000", "region_id_2": "130300", "region_id_3": "130322"}, {"name": "华耐3期箭牌瓷砖专卖店", "address": "华耐3期箭牌瓷砖专卖店", "phone_number": "13603132938", "id": 111387, "preview_image": "brands_images/full/473.jpg", "brand_id": 473, "create_time": "NOW()", "longitude": 127.98186265514859, "latitude": 45.21964613530723, "official_coord": 0, "region_id_1": "230000", "region_id_2": "230100", "region_id_3": "230183"}, {"name": "红星美凯龙瓷砖专卖店", "address": "铁西区北二东路35号红星美凯龙二楼瓷砖店", "phone_number": "024-85637583", "id": 111388, "preview_image": "brands_images/full/473.jpg", "brand_id": 473, "create_time": "NOW()", "longitude": 123.38764827656638, "latitude": 41.81013752917234, "official_coord": 0, "region_id_1": "210000", "region_id_2": "210100", "region_id_3": "210106"}, {"name": "浑南居然之家箭牌瓷砖专卖店", "address": "浑南新区居然之家一楼箭牌瓷砖专卖店", "phone_number": "13609884359", "id": 111389, "preview_image": "brands_images/full/473.jpg", "brand_id": 473, "create_time": "NOW()", "longitude": 123.4702821237053, "latitude": 41.7433051776547, "official_coord": 0, "region_id_1": "210000", "region_id_2": "210100", "region_id_3": "210112"}, {"name": "内丘箭牌瓷砖专卖店", "address": "内丘县", "phone_number": "13730090583", "id": 111390, "preview_image": "brands_images/full/473.jpg", "brand_id": 473, "create_time": "NOW()", "longitude": 114.51862170910486, "latitude": 37.292624703445206, "official_coord": 0, "region_id_1": "130000", "region_id_2": "130500", "region_id_3": "130523"}, {"name": "清河箭牌瓷砖专卖店", "address": "清河箭牌", "phone_number": "13333098158", "id": 111391, "preview_image": "brands_images/full/473.jpg", "brand_id": 473, "create_time": "NOW()", "longitude": 124.2757801644538, "latitude": 42.50855704819151, "official_coord": 0, "region_id_1": "210000", "region_id_2": "211200", "region_id_3": "211204"}, {"name": "邢台市新河县箭牌瓷砖", "address": "新河县南环路中段", "phone_number": "13930953134", "id": 111392, "preview_image": "brands_images/full/473.jpg", "brand_id": 473, "create_time": "NOW()", "longitude": 115.22602139560526, "latitude": 37.527940480599405, "official_coord": 0, "region_id_1": "130000", "region_id_2": "130500", "region_id_3": "130530"}, {"name": "邢台瓷砖专卖店", "address": "邢台市隆尧县太行路与一中小学交叉口西行200米", "phone_number": "18603193358", "id": 111393, "preview_image": "brands_images/full/473.jpg", "brand_id": 473, "create_time": "NOW()", "longitude": 115.6736423140069, "latitude": 37.06128359126588, "official_coord": 0, "region_id_1": "130000", "region_id_2": "130500", "region_id_3": "130534"}, {"name": "邢台瓷砖专卖", "address": "邢台红星美凯龙", "phone_number": "13011459240", "id": 111394, "preview_image": "brands_images/full/473.jpg", "brand_id": 473, "create_time": "NOW()", "longitude": 114.44690227610482, "latitude": 37.07696316669095, "official_coord": 0, "region_id_1": "130000", "region_id_2": "130100", "region_id_3": "130104"}, {"name": "邯郸-邯郸瓷砖专卖店", "address": "邯郸肥乡县建材一条街街头", "phone_number": "13630807698", "id": 111395, "preview_image": "brands_images/full/473.jpg", "brand_id": 473, "create_time": "NOW()", "longitude": 114.93499231092348, "latitude": 36.353889293124745, "official_coord": 0, "region_id_1": "130000", "region_id_2": "130400", "region_id_3": "130434"}, {"name": "邯郸-邯郸瓷砖专卖店", "address": "邯郸东信建材城", "phone_number": "0310-8056185", "id": 111396, "preview_image": "brands_images/full/473.jpg", "brand_id": 473, "create_time": "NOW()", "longitude": 114.51000217976956, "latitude": 36.59249682048304, "official_coord": 0, "region_id_1": "130000", "region_id_2": "130400", "region_id_3": "130402"}, {"name": "顺平箭牌瓷砖专卖店", "address": "保定市顺平县永平路71号", "phone_number": "13731220988", "id": 111397, "preview_image": "brands_images/full/473.jpg", "brand_id": 473, "create_time": "NOW()", "longitude": 115.15036045054035, "latitude": 38.864686558379404, "official_coord": 0, "region_id_1": "130000", "region_id_2": "130600", "region_id_3": "130636"}, {"name": "蠡县箭牌瓷砖专卖店", "address": "蠡县箭牌瓷砖专卖店", "phone_number": "13503127825", "id": 111398, "preview_image": "brands_images/full/473.jpg", "brand_id": 473, "create_time": "NOW()", "longitude": 115.60276725781235, "latitude": 38.49803626715531, "official_coord": 0, "region_id_1": "130000", "region_id_2": "130600", "region_id_3": "130635"}, {"name": "涞源箭牌瓷砖", "address": "涞源箭牌瓷砖", "phone_number": "13503127825", "id": 111399, "preview_image": "brands_images/full/473.jpg", "brand_id": 473, "create_time": "NOW()", "longitude": 114.69444743483973, "latitude": 39.355032536047055, "official_coord": 0, "region_id_1": "130000", "region_id_2": "130600", "region_id_3": "130630"}, {"name": "安国箭牌瓷砖", "address": "安国箭牌瓷砖", "phone_number": "13503127825", "id": 111400, "preview_image": "brands_images/full/473.jpg", "brand_id": 473, "create_time": "NOW()", "longitude": 115.33007593385669, "latitude": 38.408357210057346, "official_coord": 0, "region_id_1": "130000", "region_id_2": "130600", "region_id_3": "130683"}, {"name": "满城箭牌瓷砖", "address": "满城箭牌瓷砖", "phone_number": "13503127825", "id": 111401, "preview_image": "brands_images/full/473.jpg", "brand_id": 473, "create_time": "NOW()", "longitude": 115.34545073730347, "latitude": 38.958959090762825, "official_coord": 0, "region_id_1": 0, "region_id_2": 0, "region_id_3": 0}, {"name": "涿州箭牌瓷砖专卖店", "address": "涿州市华阳路水电四局办公楼东侧", "phone_number": "13503127825", "id": 111402, "preview_image": "brands_images/full/473.jpg", "brand_id": 473, "create_time": "NOW()", "longitude": 116.01564725182453, "latitude": 39.50023650822541, "official_coord": 0, "region_id_1": "130000", "region_id_2": "130600", "region_id_3": "130681"}, {"name": "定州专卖店", "address": "定州县南关大街", "phone_number": 0, "id": 111403, "preview_image": "brands_images/full/473.jpg", "brand_id": 473, "create_time": "NOW()", "longitude": 115.78827184880956, "latitude": 38.68846964166637, "official_coord": 0, "region_id_1": "130000", "region_id_2": "130600", "region_id_3": "130628"}, {"name": "安新箭牌瓷砖专卖店", "address": "安新雁灵大街", "phone_number": 0, "id": 111404, "preview_image": "brands_images/full/473.jpg", "brand_id": 473, "create_time": "NOW()", "longitude": 115.94187307354174, "latitude": 38.9414536665039, "official_coord": 0, "region_id_1": "130000", "region_id_2": "130600", "region_id_3": "130632"}, {"name": "徐水县箭牌瓷砖专卖店", "address": "保定徐水县监理站西行300米建材市场", "phone_number": "13722276887", "id": 111405, "preview_image": "brands_images/full/473.jpg", "brand_id": 473, "create_time": "NOW()", "longitude": 115.64974763835421, "latitude": 39.026646560431494, "official_coord": 0, "region_id_1": 0, "region_id_2": 0, "region_id_3": 0}, {"name": "易县箭牌瓷砖专卖店", "address": "保定市易县建材市场", "phone_number": "0312-8913123", "id": 111406, "preview_image": "brands_images/full/473.jpg", "brand_id": 473, "create_time": "NOW()", "longitude": 115.50078666184103, "latitude": 39.36570352510742, "official_coord": 0, "region_id_1": "130000", "region_id_2": "130600", "region_id_3": "130633"}, {"name": "保定居然之家店", "address": "保定居然之家", "phone_number": "15097774666", "id": 111407, "preview_image": "brands_images/full/473.jpg", "brand_id": 473, "create_time": "NOW()", "longitude": 115.56312316767298, "latitude": 38.88443099522218, "official_coord": 0, "region_id_1": 0, "region_id_2": 0, "region_id_3": 0}, {"name": "保定复兴箭牌专卖店", "address": "保定复兴路箭牌瓷砖", "phone_number": "15097774666", "id": 111408, "preview_image": "brands_images/full/473.jpg", "brand_id": 473, "create_time": "NOW()", "longitude": 115.53071002525535, "latitude": 38.89643209817247, "official_coord": 0, "region_id_1": 0, "region_id_2": 0, "region_id_3": 0}, {"name": "燕郊箭牌瓷砖专卖店", "address": "廊坊燕郊燕福达建材市场", "phone_number": 0, "id": 111409, "preview_image": "brands_images/full/473.jpg", "brand_id": 473, "create_time": "NOW()", "longitude": 116.79588034075074, "latitude": 39.98237344895219, "official_coord": 0, "region_id_1": "130000", "region_id_2": "131000", "region_id_3": "131082"}, {"name": "廊坊-丽都鑫城箭牌瓷砖专卖店", "address": "河北省廊坊市丽都鑫城装饰城3楼箭牌瓷砖", "phone_number": "15003265106", "id": 111410, "preview_image": "brands_images/full/473.jpg", "brand_id": 473, "create_time": "NOW()", "longitude": 116.72446211075014, "latitude": 39.54494285683234, "official_coord": 0, "region_id_1": "130000", "region_id_2": "131000", "region_id_3": "131003"}, {"name": "石家庄平山箭牌瓷砖专卖店", "address": "石家庄平山市建材街", "phone_number": "13673238856", "id": 111411, "preview_image": "brands_images/full/473.jpg", "brand_id": 473, "create_time": "NOW()", "longitude": 114.22721657537863, "latitude": 38.25554821473706, "official_coord": 0, "region_id_1": "130000", "region_id_2": "130100", "region_id_3": "130131"}, {"name": "先天下商场综合店", "address": "先天下商场5层箭牌专卖区", "phone_number": "15832120972", "id": 111412, "preview_image": "brands_images/full/473.jpg", "brand_id": 473, "create_time": "NOW()", "longitude": 114.5334070899444, "latitude": 38.047842765941816, "official_coord": 0, "region_id_1": "130000", "region_id_2": "130100", "region_id_3": "130102"}, {"name": "怀特精品综合店", "address": "怀特精品卫浴城西口", "phone_number": "0311-85827948", "id": 111413, "preview_image": "brands_images/full/473.jpg", "brand_id": 473, "create_time": "NOW()", "longitude": 115.49063718066022, "latitude": 38.85022211126517, "official_coord": 0, "region_id_1": "130000", "region_id_2": "130600", "region_id_3": "130604"}, {"name": "红星美凯龙一店（专卖店）", "address": "红星美凯龙和平商场一楼", "phone_number": "0311-85929555", "id": 111414, "preview_image": "brands_images/full/473.jpg", "brand_id": 473, "create_time": "NOW()", "longitude": 114.55084886706965, "latitude": 38.06223954346477, "official_coord": 0, "region_id_1": "130000", "region_id_2": "130100", "region_id_3": "130102"}, {"name": "红星美凯龙二店（专卖店）", "address": "红星美凯龙方北商场负一层", "phone_number": "13138191395", "id": 111415, "preview_image": "brands_images/full/473.jpg", "brand_id": 473, "create_time": "NOW()", "longitude": 114.54967476062951, "latitude": 38.04274682854725, "official_coord": 0, "region_id_1": "130000", "region_id_2": "130100", "region_id_3": "130102"}, {"name": "衡水箭牌瓷砖专卖店", "address": "衡水市榕花大街和大庆路交叉口西北角", "phone_number": "13673238856", "id": 111416, "preview_image": "brands_images/full/473.jpg", "brand_id": 473, "create_time": "NOW()", "longitude": 115.70632127900886, "latitude": 37.755044546102866, "official_coord": 0, "region_id_1": "130000", "region_id_2": "131100", "region_id_3": "131102"}, {"name": "赵县箭牌瓷砖专卖店", "address": "赵县308国道与赵元路交叉口", "phone_number": "13673238856", "id": 111417, "preview_image": "brands_images/full/473.jpg", "brand_id": 473, "create_time": "NOW()", "longitude": 114.76526754236018, "latitude": 37.768164220125044, "official_coord": 0, "region_id_1": "130000", "region_id_2": "130100", "region_id_3": "130133"}, {"name": "箭牌瓷砖怀特综合店", "address": "石家庄体育南大街怀特陶瓷城206号", "phone_number": "0311-66698818", "id": 111418, "preview_image": "brands_images/full/473.jpg", "brand_id": 473, "create_time": "NOW()", "longitude": 114.54052582932295, "latitude": 38.0254930986272, "official_coord": 0, "region_id_1": "130000", "region_id_2": "130100", "region_id_3": "130108"}, {"name": "句容箭牌瓷砖专卖店", "address": "句容市温州商贸城", "phone_number": "13806125855", "id": 111419, "preview_image": "brands_images/full/473.jpg", "brand_id": 473, "create_time": "NOW()", "longitude": 119.15815248174896, "latitude": 31.94577381591467, "official_coord": 0, "region_id_1": "320000", "region_id_2": "321100", "region_id_3": "321183"}, {"name": "镇江箭牌瓷砖专卖店", "address": "镇江金桥装饰城箭牌瓷砖专卖店", "phone_number": "13806125855", "id": 111420, "preview_image": "brands_images/full/473.jpg", "brand_id": 473, "create_time": "NOW()", "longitude": 119.46028268900854, "latitude": 32.20170607085966, "official_coord": 0, "region_id_1": "320000", "region_id_2": "321100", "region_id_3": "321111"}, {"name": "武进红星美凯龙瓷砖专卖店", "address": "武进红星美凯龙", "phone_number": "13806125855", "id": 111421, "preview_image": "brands_images/full/473.jpg", "brand_id": 473, "create_time": "NOW()", "longitude": 119.9669221205866, "latitude": 31.673413339246725, "official_coord": 0, "region_id_1": "320000", "region_id_2": "320400", "region_id_3": "320412"}, {"name": "米多装饰城箭牌瓷砖专卖店", "address": "米多装饰城", "phone_number": "13806125855", "id": 111422, "preview_image": "brands_images/full/473.jpg", "brand_id": 473, "create_time": "NOW()", "longitude": 119.95459868089084, "latitude": 31.76942661211774, "official_coord": 0, "region_id_1": "320000", "region_id_2": "320400", "region_id_3": "320402"}, {"name": "常州纺织城箭牌瓷砖专卖店", "address": "常州纺织城箭牌瓷砖专卖店", "phone_number": "13806125855", "id": 111423, "preview_image": "brands_images/full/473.jpg", "brand_id": 473, "create_time": "NOW()", "longitude": 119.99179669793355, "latitude": 31.709572908322404, "official_coord": 0, "region_id_1": "320000", "region_id_2": "320400", "region_id_3": "320412"}, {"name": "无锡弘阳建材市场箭牌瓷砖专卖店", "address": "无锡弘阳建材市场箭牌瓷砖专卖店", "phone_number": "13382783227", "id": 111424, "preview_image": "brands_images/full/473.jpg", "brand_id": 473, "create_time": "NOW()", "longitude": 120.32353913611826, "latitude": 31.596142337212076, "official_coord": 0, "region_id_1": 0, "region_id_2": 0, "region_id_3": 0}, {"name": "无锡齐家网箭牌瓷专卖店", "address": "无锡齐家网", "phone_number": "13814203258", "id": 111425, "preview_image": "brands_images/full/473.jpg", "brand_id": 473, "create_time": "NOW()", "longitude": 120.31100947787688, "latitude": 31.55997923795993, "official_coord": 0, "region_id_1": 0, "region_id_2": 0, "region_id_3": 0}, {"name": "金泰箭牌瓷砖专卖店", "address": "无锡金泰装饰城", "phone_number": "13814203258", "id": 111426, "preview_image": "brands_images/full/473.jpg", "brand_id": 473, "create_time": "NOW()", "longitude": 120.3614922337451, "latitude": 31.519537000122774, "official_coord": 0, "region_id_1": "320000", "region_id_2": "320200", "region_id_3": "320211"}, {"name": "无锡箭牌瓷砖专卖店", "address": "无锡新世界箭牌瓷砖专卖店", "phone_number": "13814203258", "id": 111427, "preview_image": "brands_images/full/473.jpg", "brand_id": 473, "create_time": "NOW()", "longitude": 120.30804554884071, "latitude": 31.58122781497303, "official_coord": 0, "region_id_1": 0, "region_id_2": 0, "region_id_3": 0}, {"name": "箭牌瓷砖专卖店", "address": "叉河镇金太阳装饰城", "phone_number": "13951866631", "id": 111428, "preview_image": "brands_images/full/473.jpg", "brand_id": 473, "create_time": "NOW()", "longitude": 118.60415125756796, "latitude": 32.216836425603404, "official_coord": 0, "region_id_1": "340000", "region_id_2": "341100", "region_id_3": "341122"}, {"name": "箭牌瓷砖专卖店", "address": "溧水建材市场", "phone_number": "13951866631", "id": 111429, "preview_image": "brands_images/full/473.jpg", "brand_id": 473, "create_time": "NOW()", "longitude": 119.05140272329108, "latitude": 31.668503784414217, "official_coord": 0, "region_id_1": "320000", "region_id_2": "320100", "region_id_3": "320117"}, {"name": "箭牌瓷砖专卖店", "address": "南京红星美凯龙市场", "phone_number": "13951724259", "id": 111430, "preview_image": "brands_images/full/473.jpg", "brand_id": 473, "create_time": "NOW()", "longitude": 118.80514298652793, "latitude": 31.995893139635, "official_coord": 0, "region_id_1": "320000", "region_id_2": "320100", "region_id_3": "320104"}, {"name": "五洲箭牌瓷砖店", "address": "南京市五洲装饰城陶瓷", "phone_number": "13951866631", "id": 111431, "preview_image": "brands_images/full/473.jpg", "brand_id": 473, "create_time": "NOW()", "longitude": 118.83064621762973, "latitude": 32.027431445154456, "official_coord": 0, "region_id_1": "320000", "region_id_2": "320100", "region_id_3": "320104"}, {"name": "箭牌瓷砖专卖店", "address": "南京市金碧建材市场", "phone_number": "13951866631", "id": 111432, "preview_image": "brands_images/full/473.jpg", "brand_id": 473, "create_time": "NOW()", "longitude": 118.85595857421067, "latitude": 31.953898554986928, "official_coord": 0, "region_id_1": "320000", "region_id_2": "320100", "region_id_3": "320115"}, {"name": "滁州箭牌瓷砖专卖店", "address": "滁州明光建材市场", "phone_number": "13951866631", "id": 111433, "preview_image": "brands_images/full/473.jpg", "brand_id": 473, "create_time": "NOW()", "longitude": 118.12842934570902, "latitude": 32.76190349407984, "official_coord": 0, "region_id_1": "340000", "region_id_2": "341100", "region_id_3": "341182"}, {"name": "箭牌瓷砖专卖店", "address": "南京江北弘阳家居市场", "phone_number": "13951866631", "id": 111434, "preview_image": "brands_images/full/473.jpg", "brand_id": 473, "create_time": "NOW()", "longitude": 118.73372288612777, "latitude": 32.141042233770754, "official_coord": 0, "region_id_1": "320000", "region_id_2": "320100", "region_id_3": "320111"}, {"name": "弘阳箭牌瓷砖专卖店", "address": "南京弘阳家居市场", "phone_number": "13951866631", "id": 111435, "preview_image": "brands_images/full/473.jpg", "brand_id": 473, "create_time": "NOW()", "longitude": 118.73372288612777, "latitude": 32.141042233770754, "official_coord": 0, "region_id_1": "320000", "region_id_2": "320100", "region_id_3": "320111"}, {"name": "箭牌瓷砖专卖店", "address": "南京江北金盛市场", "phone_number": "13913920052", "id": 111436, "preview_image": "brands_images/full/473.jpg", "brand_id": 473, "create_time": "NOW()", "longitude": 118.73918105838301, "latitude": 32.137545930174525, "official_coord": 0, "region_id_1": "320000", "region_id_2": "320100", "region_id_3": "320111"}, {"name": "箭牌卫浴・瓷砖综合店店", "address": "板桥红大阳市场", "phone_number": "13818647158", "id": 111437, "preview_image": "brands_images/full/473.jpg", "brand_id": 473, "create_time": "NOW()", "longitude": 116.26771312547189, "latitude": 39.198450662855876, "official_coord": 0, "region_id_1": "130000", "region_id_2": "131000", "region_id_3": "131022"}, {"name": "园区箭牌瓷砖专卖店", "address": "园区红星美凯龙A", "phone_number": "13812643751", "id": 111438, "preview_image": "brands_images/full/473.jpg", "brand_id": 473, "create_time": "NOW()", "longitude": 120.66152875124564, "latitude": 31.338487863886197, "official_coord": 0, "region_id_1": "320000", "region_id_2": "320500", "region_id_3": "320506"}, {"name": "仪征箭牌专卖店", "address": "仪征建材市场", "phone_number": "13773630808", "id": 111439, "preview_image": "brands_images/full/473.jpg", "brand_id": 473, "create_time": "NOW()", "longitude": 119.1989818290608, "latitude": 32.28629499569095, "official_coord": 0, "region_id_1": "320000", "region_id_2": "321000", "region_id_3": "321081"}, {"name": "箭牌综合店", "address": "江都万德隆装饰城", "phone_number": "13625211880", "id": 111440, "preview_image": "brands_images/full/473.jpg", "brand_id": 473, "create_time": "NOW()", "longitude": 119.60313926303665, "latitude": 32.43617003302781, "official_coord": 0, "region_id_1": "320000", "region_id_2": "321000", "region_id_3": "321012"}, {"name": "上品生活馆（综合店）", "address": "高邮建材市场", "phone_number": "13952563388", "id": 111441, "preview_image": "brands_images/full/473.jpg", "brand_id": 473, "create_time": "NOW()", "longitude": 119.45577646770936, "latitude": 32.7902097647473, "official_coord": 0, "region_id_1": "320000", "region_id_2": "321000", "region_id_3": "321084"}, {"name": "箭牌瓷砖专卖店扬州商场1店", "address": "扬州建材商场", "phone_number": "13905278198", "id": 111442, "preview_image": "brands_images/full/473.jpg", "brand_id": 473, "create_time": "NOW()", "longitude": 119.86161282542332, "latitude": 32.671686361877846, "official_coord": 0, "region_id_1": "320000", "region_id_2": "321000", "region_id_3": "321012"}, {"name": "金盛箭牌卫浴瓷砖综合店", "address": "扬州金盛建材市场", "phone_number": "13905278198", "id": 111443, "preview_image": "brands_images/full/473.jpg", "brand_id": 473, "create_time": "NOW()", "longitude": 119.50582668529682, "latitude": 32.38998927371564, "official_coord": 0, "region_id_1": "320000", "region_id_2": "321000", "region_id_3": "321002"}, {"name": "苏州箭牌瓷砖专卖店（红星2店）", "address": "苏州市横塘红星美凯龙一楼B区3店", "phone_number": "13962162810", "id": 111444, "preview_image": "brands_images/full/473.jpg", "brand_id": 473, "create_time": "NOW()", "longitude": 120.58538384183588, "latitude": 31.273086312635897, "official_coord": 0, "region_id_1": "320000", "region_id_2": "320500", "region_id_3": "320505"}, {"name": "昆山亿丰瓷砖专卖店", "address": "昆山亿丰建材市场", "phone_number": "13905278198", "id": 111445, "preview_image": "brands_images/full/473.jpg", "brand_id": 473, "create_time": "NOW()", "longitude": 121.00696514901958, "latitude": 31.36176876348293, "official_coord": 0, "region_id_1": "320000", "region_id_2": "320500", "region_id_3": "320583"}, {"name": "苏州箭牌瓷砖专卖店（红星1店）", "address": "苏州市横塘红星美凯龙一楼B区1店", "phone_number": "0512-69380866", "id": 111446, "preview_image": "brands_images/full/473.jpg", "brand_id": 473, "create_time": "NOW()", "longitude": 120.58457916245591, "latitude": 31.273345442660823, "official_coord": 0, "region_id_1": "320000", "region_id_2": "320500", "region_id_3": "320505"}, {"name": "常熟瓷砖专卖店", "address": "常熟红星美凯龙", "phone_number": "0512-69380866", "id": 111447, "preview_image": "brands_images/full/473.jpg", "brand_id": 473, "create_time": "NOW()", "longitude": 120.81225704759018, "latitude": 31.651712162033217, "official_coord": 0, "region_id_1": "320000", "region_id_2": "320500", "region_id_3": "320581"}, {"name": "吴江箭牌瓷砖卫浴综合店", "address": "吴江市建材市场", "phone_number": "13812643751", "id": 111448, "preview_image": "brands_images/full/473.jpg", "brand_id": 473, "create_time": "NOW()", "longitude": 120.66336297338881, "latitude": 31.14377368559246, "official_coord": 0, "region_id_1": "320000", "region_id_2": "320500", "region_id_3": "320509"}, {"name": "箭牌上品生活馆（综合店）", "address": "苏州好得家东方店", "phone_number": "0512-69380866", "id": 111449, "preview_image": "brands_images/full/473.jpg", "brand_id": 473, "create_time": "NOW()", "longitude": 120.6679314109453, "latitude": 31.268756092460446, "official_coord": 0, "region_id_1": "320000", "region_id_2": "320500", "region_id_3": "320506"}, {"name": "太仓箭牌瓷砖专卖店", "address": "太仓月兴市场", "phone_number": "13962541450", "id": 111450, "preview_image": "brands_images/full/473.jpg", "brand_id": 473, "create_time": "NOW()", "longitude": 121.15897767248048, "latitude": 31.571904296415433, "official_coord": 0, "region_id_1": "320000", "region_id_2": "320500", "region_id_3": "320585"}, {"name": "箭牌瓷砖专卖店", "address": "江苏省淮安市清河区西安路金河国际花苑(锦绣国际装饰城一期正对面)", "phone_number": "13901406660", "id": 111451, "preview_image": "brands_images/full/473.jpg", "brand_id": 473, "create_time": "NOW()", "longitude": 119.00697578772971, "latitude": 33.59807444150256, "official_coord": 0, "region_id_1": 0, "region_id_2": 0, "region_id_3": 0}, {"name": "箭牌瓷砖专卖店", "address": "南通市通州张芝山装饰城", "phone_number": "0513-55079706", "id": 111452, "preview_image": "brands_images/full/473.jpg", "brand_id": 473, "create_time": "NOW()", "longitude": 121.01768887637625, "latitude": 31.94158954681488, "official_coord": 0, "region_id_1": "110000", "region_id_2": "110100", "region_id_3": "110112"}, {"name": "箭牌瓷砖专卖店", "address": "东台建材城", "phone_number": "13584755999", "id": 111453, "preview_image": "brands_images/full/473.jpg", "brand_id": 473, "create_time": "NOW()", "longitude": 120.32516065925927, "latitude": 32.88701651144926, "official_coord": 0, "region_id_1": "320000", "region_id_2": "320900", "region_id_3": "320981"}, {"name": "箭牌瓷砖专卖店", "address": "大丰明星国际装饰城", "phone_number": "13770231318", "id": 111454, "preview_image": "brands_images/full/473.jpg", "brand_id": 473, "create_time": "NOW()", "longitude": 120.47935704620309, "latitude": 33.22576550807282, "official_coord": 0, "region_id_1": 0, "region_id_2": 0, "region_id_3": 0}, {"name": "箭牌瓷砖综合店", "address": "南通市通州建材市场", "phone_number": "15962992729", "id": 111455, "preview_image": "brands_images/full/473.jpg", "brand_id": 473, "create_time": "NOW()", "longitude": 121.1114263917899, "latitude": 32.12229781065947, "official_coord": 0, "region_id_1": "110000", "region_id_2": "110100", "region_id_3": "110112"}, {"name": "箭牌卫浴瓷砖上品生活馆（综合店）", "address": "南通市工业博览城", "phone_number": "15962992729", "id": 111456, "preview_image": "brands_images/full/473.jpg", "brand_id": 473, "create_time": "NOW()", "longitude": 120.93574031103421, "latitude": 31.97625781346879, "official_coord": 0, "region_id_1": "320000", "region_id_2": "320600", "region_id_3": "320602"}, {"name": "箭牌瓷砖专卖店", "address": "泰州高岗区红星美凯龙一楼A区3店", "phone_number": "15962992729", "id": 111457, "preview_image": "brands_images/full/473.jpg", "brand_id": 473, "create_time": "NOW()", "longitude": 119.89792724519502, "latitude": 32.36300218265403, "official_coord": 0, "region_id_1": "320000", "region_id_2": "321200", "region_id_3": "321203"}, {"name": "箭牌瓷砖专卖店", "address": "南通箭牌专卖", "phone_number": "15962992728", "id": 111458, "preview_image": "brands_images/full/473.jpg", "brand_id": 473, "create_time": "NOW()", "longitude": 120.55587449054067, "latitude": 32.37598027274567, "official_coord": 0, "region_id_1": "320000", "region_id_2": "320600", "region_id_3": "320682"}, {"name": "箭牌瓷砖专卖店", "address": "泗阳县金三角建材市场", "phone_number": "13905676969", "id": 111459, "preview_image": "brands_images/full/473.jpg", "brand_id": 473, "create_time": "NOW()", "longitude": 118.72472788263039, "latitude": 33.71518191256871, "official_coord": 0, "region_id_1": "320000", "region_id_2": "321300", "region_id_3": "321323"}, {"name": "箭牌瓷砖专卖店", "address": "红星美凯龙建材", "phone_number": "0516-87538169", "id": 111460, "preview_image": "brands_images/full/473.jpg", "brand_id": 473, "create_time": "NOW()", "longitude": 112.52113645977992, "latitude": 37.91025538506419, "official_coord": 0, "region_id_1": "140000", "region_id_2": "140100", "region_id_3": "140108"}, {"name": "箭牌瓷砖专卖店", "address": "升辉建材市场", "phone_number": "0516-87538169", "id": 111461, "preview_image": "brands_images/full/473.jpg", "brand_id": 473, "create_time": "NOW()", "longitude": 117.23121827595779, "latitude": 34.25682246074649, "official_coord": 0, "region_id_1": "320000", "region_id_2": "320300", "region_id_3": "320303"}, {"name": "余庆箭牌专卖店", "address": "余庆美天地建材市场", "phone_number": "18685200508", "id": 111462, "preview_image": "brands_images/full/473.jpg", "brand_id": 473, "create_time": "NOW()", "longitude": 107.88621993992123, "latitude": 27.23993701665605, "official_coord": 0, "region_id_1": "520000", "region_id_2": "520300", "region_id_3": "520329"}, {"name": "箭牌瓷砖专卖店", "address": "贵阳西南国际家居装饰博览城", "phone_number": "18650086886", "id": 111463, "preview_image": "brands_images/full/473.jpg", "brand_id": 473, "create_time": "NOW()", "longitude": 106.63188930083442, "latitude": 26.67722816760408, "official_coord": 0, "region_id_1": "440000", "region_id_2": "440100", "region_id_3": "440111"}, {"name": "箭牌瓷砖专卖店", "address": "平霸建材市场", "phone_number": "18650086886", "id": 111464, "preview_image": "brands_images/full/473.jpg", "brand_id": 473, "create_time": "NOW()", "longitude": 106.27038060684002, "latitude": 26.428089897198518, "official_coord": 0, "region_id_1": "520000", "region_id_2": "520400", "region_id_3": "520421"}, {"name": "箭牌瓷砖专卖店", "address": "贵阳红星美凯龙", "phone_number": "13639118493", "id": 111465, "preview_image": "brands_images/full/473.jpg", "brand_id": 473, "create_time": "NOW()", "longitude": 106.65870912796248, "latitude": 26.599496155481003, "official_coord": 0, "region_id_1": "520000", "region_id_2": "520100", "region_id_3": "520103"}, {"name": "聊城箭牌卫浴瓷砖生活馆", "address": "建设西路香江市场", "phone_number": "13806350286", "id": 111466, "preview_image": "brands_images/full/473.jpg", "brand_id": 473, "create_time": "NOW()", "longitude": 115.97935784586257, "latitude": 36.48080526231246, "official_coord": 0, "region_id_1": "370000", "region_id_2": "371500", "region_id_3": "371502"}, {"name": "博山箭牌卫浴瓷砖综合店", "address": "鼓浪屿装饰材料城", "phone_number": "13864422222", "id": 111467, "preview_image": "brands_images/full/473.jpg", "brand_id": 473, "create_time": "NOW()", "longitude": 117.8625413063548, "latitude": 36.510256888906355, "official_coord": 0, "region_id_1": "370000", "region_id_2": "370300", "region_id_3": "370304"}, {"name": "淄博张店红星美凯龙瓷砖专卖店", "address": "淄博红星美凯龙二楼", "phone_number": "13864422222", "id": 111468, "preview_image": "brands_images/full/473.jpg", "brand_id": 473, "create_time": "NOW()", "longitude": 118.04017548347873, "latitude": 36.78881393037864, "official_coord": 0, "region_id_1": "370000", "region_id_2": "370300", "region_id_3": "370303"}, {"name": "淄博临淄瓷砖专卖店", "address": "淄博临淄区大顺装饰材料城", "phone_number": "13864422222", "id": 111469, "preview_image": "brands_images/full/473.jpg", "brand_id": 473, "create_time": "NOW()", "longitude": 118.29882412415061, "latitude": 36.824411266503304, "official_coord": 0, "region_id_1": "370000", "region_id_2": "370300", "region_id_3": "370305"}, {"name": "淄博张店箭牌上品生活馆（综合店）", "address": "中装饰材料城30号楼", "phone_number": "13864422222", "id": 111470, "preview_image": "brands_images/full/473.jpg", "brand_id": 473, "create_time": "NOW()", "longitude": 116.31576142379286, "latitude": 37.433851565542774, "official_coord": 0, "region_id_1": "370000", "region_id_2": "371400", "region_id_3": "371402"}, {"name": "烟台海港箭牌瓷砖专卖店", "address": "烟台市芝罘区海港家饰F区5排13号", "phone_number": "15098689155", "id": 111471, "preview_image": "brands_images/full/473.jpg", "brand_id": 473, "create_time": "NOW()", "longitude": 121.39273035155362, "latitude": 37.55789410909513, "official_coord": 0, "region_id_1": "370000", "region_id_2": "370600", "region_id_3": "370602"}, {"name": "烟台乐天箭牌瓷砖专卖店", "address": "烟台市芝罘区通洋路39号乐天建材市场", "phone_number": "13806389065", "id": 111472, "preview_image": "brands_images/full/473.jpg", "brand_id": 473, "create_time": "NOW()", "longitude": 121.37452457818611, "latitude": 37.46900691697315, "official_coord": 0, "region_id_1": "370000", "region_id_2": "370600", "region_id_3": "370602"}, {"name": "烟台蓬莱箭牌瓷砖专卖店", "address": "蓬莱市县后东路海景宛南大门西30米", "phone_number": "15966447999", "id": 111473, "preview_image": "brands_images/full/473.jpg", "brand_id": 473, "create_time": "NOW()", "longitude": 120.79579831761704, "latitude": 37.81711612131892, "official_coord": 0, "region_id_1": "370000", "region_id_2": "370600", "region_id_3": "370684"}, {"name": "东营箭牌星凯瓷砖专卖店", "address": "东营西城黄河路南星凯全球家居广场", "phone_number": "15006522008", "id": 111474, "preview_image": "brands_images/full/473.jpg", "brand_id": 473, "create_time": "NOW()", "longitude": 118.53776001227928, "latitude": 37.45153919517981, "official_coord": 0, "region_id_1": "370000", "region_id_2": "370500", "region_id_3": "370502"}, {"name": "东营河口箭牌瓷砖专卖店", "address": "河口欧诺建材城北街28号", "phone_number": "15006522008", "id": 111475, "preview_image": "brands_images/full/473.jpg", "brand_id": 473, "create_time": "NOW()", "longitude": 118.62001162992084, "latitude": 37.96949993085367, "official_coord": 0, "region_id_1": "370000", "region_id_2": "370500", "region_id_3": "370503"}, {"name": "滨州箭牌卫浴瓷砖专卖店", "address": "滨州市黄河一路渤海八路高杜建材市场", "phone_number": "13905438770", "id": 111476, "preview_image": "brands_images/full/473.jpg", "brand_id": 473, "create_time": "NOW()", "longitude": 118.02219988264686, "latitude": 37.372951123652236, "official_coord": 0, "region_id_1": "370000", "region_id_2": "371600", "region_id_3": "371602"}, {"name": "诸城箭牌瓷砖专卖店", "address": "诸城益家园一楼", "phone_number": "15169672177", "id": 111477, "preview_image": "brands_images/full/473.jpg", "brand_id": 473, "create_time": "NOW()", "longitude": 119.43006161739567, "latitude": 35.99195374931166, "official_coord": 0, "region_id_1": "370000", "region_id_2": "370700", "region_id_3": "370782"}, {"name": "诸城箭牌卫浴・瓷砖综合店", "address": "诸城市密州路东首欧美尔建材装饰城一楼", "phone_number": "15169672177", "id": 111478, "preview_image": "brands_images/full/473.jpg", "brand_id": 473, "create_time": "NOW()", "longitude": 119.4442801951735, "latitude": 36.01596685149003, "official_coord": 0, "region_id_1": "370000", "region_id_2": "370700", "region_id_3": "370782"}, {"name": "滕州箭牌上品生活馆", "address": "枣庄市滕州市城河阳路18号春兰建材城", "phone_number": "13963225000", "id": 111479, "preview_image": "brands_images/full/473.jpg", "brand_id": 473, "create_time": "NOW()", "longitude": 117.15484246996004, "latitude": 35.08048321827301, "official_coord": 0, "region_id_1": "370000", "region_id_2": "370400", "region_id_3": "370481"}, {"name": "泰安居然之家专卖店", "address": "泰安市龙潭中段居然之家一楼", "phone_number": "13583892877", "id": 111480, "preview_image": "brands_images/full/473.jpg", "brand_id": 473, "create_time": "NOW()", "longitude": 117.11979051336898, "latitude": 36.16980892401689, "official_coord": 0, "region_id_1": "370000", "region_id_2": "370900", "region_id_3": "370902"}, {"name": "泰安红星美凯龙专卖店", "address": "泰安红星美凯龙", "phone_number": "13583892877", "id": 111481, "preview_image": "brands_images/full/473.jpg", "brand_id": 473, "create_time": "NOW()", "longitude": 117.11694509567471, "latitude": 36.1612466530992, "official_coord": 0, "region_id_1": "370000", "region_id_2": "370900", "region_id_3": "370902"}, {"name": "东平箭牌综合店", "address": "泰安市东平县西山路中段转盘南四海装饰城", "phone_number": "13583892877", "id": 111482, "preview_image": "brands_images/full/473.jpg", "brand_id": 473, "create_time": "NOW()", "longitude": 116.47434206338669, "latitude": 35.92473804227744, "official_coord": 0, "region_id_1": "370000", "region_id_2": "370900", "region_id_3": "370923"}, {"name": "肥城箭牌综合店", "address": "泰安市肥城市泰西大街银泰隆广场天和装饰材料精品城", "phone_number": "13583892877", "id": 111483, "preview_image": "brands_images/full/473.jpg", "brand_id": 473, "create_time": "NOW()", "longitude": 116.78893147427968, "latitude": 36.193164280401064, "official_coord": 0, "region_id_1": "370000", "region_id_2": "370900", "region_id_3": "370983"}, {"name": "莱芜专卖店", "address": "泰安市莱芜市花园北路35号红星建材城三楼", "phone_number": "13583892877", "id": 111484, "preview_image": "brands_images/full/473.jpg", "brand_id": 473, "create_time": "NOW()", "longitude": 117.69150567913024, "latitude": 36.229472019439044, "official_coord": 0, "region_id_1": "370000", "region_id_2": "371200", "region_id_3": "371202"}, {"name": "泰安箭牌上品生活馆", "address": "泰安市岱岳区光彩大市场二区七栋三号", "phone_number": "13583892877", "id": 111485, "preview_image": "brands_images/full/473.jpg", "brand_id": 473, "create_time": "NOW()", "longitude": 117.06378445354835, "latitude": 36.190626122785105, "official_coord": 0, "region_id_1": "370000", "region_id_2": "370900", "region_id_3": "370911"}, {"name": "威海家世界箭牌瓷砖专卖店", "address": "威海市家世界建材市场三楼", "phone_number": "18606312328", "id": 111486, "preview_image": "brands_images/full/473.jpg", "brand_id": 473, "create_time": "NOW()", "longitude": 122.16345826354535, "latitude": 37.43239829084314, "official_coord": 0, "region_id_1": "370000", "region_id_2": "371000", "region_id_3": "371002"}, {"name": "临沂沂水华隆箭牌瓷砖专卖店", "address": "临沂市沂水县华隆五金建材城", "phone_number": "15020301176", "id": 111487, "preview_image": "brands_images/full/473.jpg", "brand_id": 473, "create_time": "NOW()", "longitude": 118.64272188857723, "latitude": 35.75258644471671, "official_coord": 0, "region_id_1": "370000", "region_id_2": "371300", "region_id_3": "371323"}, {"name": "临沂平邑业之峰瓷砖专卖区", "address": "临沂平邑县业之峰二楼", "phone_number": "13395391109", "id": 111488, "preview_image": "brands_images/full/473.jpg", "brand_id": 473, "create_time": "NOW()", "longitude": 117.63530917968943, "latitude": 35.520718186463775, "official_coord": 0, "region_id_1": "370000", "region_id_2": "371300", "region_id_3": "371326"}, {"name": "临沂平邑箭牌瓷砖专卖店", "address": "临沂平邑县商贸城27号2-108", "phone_number": "13395391109", "id": 111489, "preview_image": "brands_images/full/473.jpg", "brand_id": 473, "create_time": "NOW()", "longitude": 117.6420109370345, "latitude": 35.48530091315564, "official_coord": 0, "region_id_1": "370000", "region_id_2": "371300", "region_id_3": "371326"}, {"name": "临沂东易日盛箭牌瓷砖专卖区", "address": "临沂市东易日盛装饰二楼", "phone_number": "13395391109", "id": 111490, "preview_image": "brands_images/full/473.jpg", "brand_id": 473, "create_time": "NOW()", "longitude": 117.63052850563408, "latitude": 35.51793943342306, "official_coord": 0, "region_id_1": "370000", "region_id_2": "371300", "region_id_3": "371326"}, {"name": "临沂沂水箭牌瓷砖专卖店", "address": "临沂市沂水县东环路与商城路沂水红鑫商场第一排八号", "phone_number": "13395391109", "id": 111491, "preview_image": "brands_images/full/473.jpg", "brand_id": 473, "create_time": "NOW()", "longitude": 118.32730436361983, "latitude": 35.055009053832336, "official_coord": 0, "region_id_1": "370000", "region_id_2": "371300", "region_id_3": "371302"}, {"name": "临沂怡景箭牌瓷砖专卖店", "address": "临沂兰山区解放路190号怡景丽家建材市场二楼B081-B082", "phone_number": "13395391109", "id": 111492, "preview_image": "brands_images/full/473.jpg", "brand_id": 473, "create_time": "NOW()", "longitude": 118.31679078890298, "latitude": 35.07296530177577, "official_coord": 0, "region_id_1": "370000", "region_id_2": "371300", "region_id_3": "371302"}, {"name": "箭牌瓷砖专卖店", "address": "日照市东港区荟阳路江豪建材市场 A3-2", "phone_number": "13506337975", "id": 111493, "preview_image": "brands_images/full/473.jpg", "brand_id": 473, "create_time": "NOW()", "longitude": 119.48102719938854, "latitude": 35.44886756776154, "official_coord": 0, "region_id_1": "370000", "region_id_2": "371100", "region_id_3": "371102"}, {"name": "高科园箭牌瓷砖专卖店", "address": "高科园箭牌瓷砖专卖店", "phone_number": "13573224788", "id": 111494, "preview_image": "brands_images/full/473.jpg", "brand_id": 473, "create_time": "NOW()", "longitude": 120.44473511607184, "latitude": 36.117852070137495, "official_coord": 0, "region_id_1": "370000", "region_id_2": "370200", "region_id_3": "370212"}, {"name": "昊悦箭牌瓷砖专卖店", "address": "李沧区湘潭路", "phone_number": "13573224788", "id": 111495, "preview_image": "brands_images/full/473.jpg", "brand_id": 473, "create_time": "NOW()", "longitude": 120.40197921740558, "latitude": 36.23103706276349, "official_coord": 0, "region_id_1": "370000", "region_id_2": "370200", "region_id_3": "370213"}, {"name": "平度箭牌瓷砖专卖店", "address": "平度福州路", "phone_number": "13573224788", "id": 111496, "preview_image": "brands_images/full/473.jpg", "brand_id": 473, "create_time": "NOW()", "longitude": 119.98884160733931, "latitude": 36.80433021842053, "official_coord": 0, "region_id_1": "370000", "region_id_2": "370200", "region_id_3": "370283"}, {"name": "青岛胶南箭牌瓷砖专卖店", "address": "西海岸装饰城", "phone_number": "13573224788", "id": 111497, "preview_image": "brands_images/full/473.jpg", "brand_id": 473, "create_time": "NOW()", "longitude": 120.0287143689245, "latitude": 35.888985914534366, "official_coord": 0, "region_id_1": "370000", "region_id_2": "370200", "region_id_3": "370211"}, {"name": "即墨箭牌瓷砖专卖店", "address": "即墨箭牌瓷砖专卖店", "phone_number": "13573224788", "id": 111498, "preview_image": "brands_images/full/473.jpg", "brand_id": 473, "create_time": "NOW()", "longitude": 120.4385347000207, "latitude": 36.37418950117675, "official_coord": 0, "region_id_1": 0, "region_id_2": 0, "region_id_3": 0}, {"name": "禹城箭牌瓷砖专卖店", "address": "禹城箭牌瓷砖专卖店", "phone_number": "15066663885", "id": 111499, "preview_image": "brands_images/full/473.jpg", "brand_id": 473, "create_time": "NOW()", "longitude": 116.58133068116643, "latitude": 36.91914288959323, "official_coord": 0, "region_id_1": "370000", "region_id_2": "371400", "region_id_3": "371482"}, {"name": "齐河箭牌瓷砖专卖店", "address": "齐河齐鲁大街55号-2", "phone_number": "15066663885", "id": 111500, "preview_image": "brands_images/full/473.jpg", "brand_id": 473, "create_time": "NOW()", "longitude": 116.76909620142447, "latitude": 36.797522431216095, "official_coord": 0, "region_id_1": "370000", "region_id_2": "371400", "region_id_3": "371425"}, {"name": "长清箭牌瓷砖专卖店", "address": "长清箭牌瓷砖专卖店", "phone_number": "15066663885", "id": 111501, "preview_image": "brands_images/full/473.jpg", "brand_id": 473, "create_time": "NOW()", "longitude": 117.05280569231108, "latitude": 36.69710212986067, "official_coord": 0, "region_id_1": "370000", "region_id_2": "370100", "region_id_3": "370105"}, {"name": "平阴箭牌瓷砖专卖店", "address": "平阴县建材市场", "phone_number": "15066663885", "id": 111502, "preview_image": "brands_images/full/473.jpg", "brand_id": 473, "create_time": "NOW()", "longitude": 116.45702013040453, "latitude": 36.28889035867371, "official_coord": 0, "region_id_1": "370000", "region_id_2": "370100", "region_id_3": "370124"}, {"name": "红星美凯龙店（专卖店）", "address": "红星美凯龙店", "phone_number": "15066663885", "id": 111503, "preview_image": "brands_images/full/473.jpg", "brand_id": 473, "create_time": "NOW()", "longitude": 116.44566304799645, "latitude": 40.031080880467705, "official_coord": 0, "region_id_1": "110000", "region_id_2": "110100", "region_id_3": "110105"}, {"name": "山东潍坊-箭牌瓷砖专卖店", "address": "潍坊市益家园市场", "phone_number": "13869651259", "id": 111504, "preview_image": "brands_images/full/473.jpg", "brand_id": 473, "create_time": "NOW()", "longitude": 119.19278271264669, "latitude": 36.71414412191067, "official_coord": 0, "region_id_1": "370000", "region_id_2": "370700", "region_id_3": "370705"}, {"name": "济宁兖州箭牌瓷砖专卖店", "address": "济宁市兖州富阳路永丰国际商贸城19号楼东首", "phone_number": "15166721099", "id": 111505, "preview_image": "brands_images/full/473.jpg", "brand_id": 473, "create_time": "NOW()", "longitude": 116.81276010751728, "latitude": 35.53210236611131, "official_coord": 0, "region_id_1": "370000", "region_id_2": "370800", "region_id_3": "370812"}, {"name": "济宁泗水箭牌瓷砖专卖店", "address": "济宁泗水泉源大道圣融庭院南门沿街", "phone_number": "15166721099", "id": 111506, "preview_image": "brands_images/full/473.jpg", "brand_id": 473, "create_time": "NOW()", "longitude": 117.28030606299738, "latitude": 35.66327758812259, "official_coord": 0, "region_id_1": "370000", "region_id_2": "370800", "region_id_3": "370831"}, {"name": "济宁金宇建材箭牌瓷砖专卖店", "address": "济宁市金宇建材市场A馆", "phone_number": "15166721099", "id": 111507, "preview_image": "brands_images/full/473.jpg", "brand_id": 473, "create_time": "NOW()", "longitude": 116.60541177430946, "latitude": 35.43679875155005, "official_coord": 0, "region_id_1": "370000", "region_id_2": "370800", "region_id_3": "370811"}, {"name": "济宁居然之家箭牌瓷砖专卖店", "address": "济宁市火炬路与红星东路交汇处居然之家", "phone_number": "15166721099", "id": 111508, "preview_image": "brands_images/full/473.jpg", "brand_id": 473, "create_time": "NOW()", "longitude": 116.62916184408964, "latitude": 35.42112217099201, "official_coord": 0, "region_id_1": "370000", "region_id_2": "370800", "region_id_3": "370811"}, {"name": "济宁汶上箭牌卫浴.瓷砖综合店", "address": "济宁市汶上县京安金宇商贸城4-8", "phone_number": "15166721099", "id": 111509, "preview_image": "brands_images/full/473.jpg", "brand_id": 473, "create_time": "NOW()", "longitude": 116.4889379373552, "latitude": 35.74368643935216, "official_coord": 0, "region_id_1": "370000", "region_id_2": "370800", "region_id_3": "370830"}, {"name": "济宁嘉祥箭牌上品生活馆", "address": "嘉祥昌盛商业街一楼", "phone_number": "15166721099", "id": 111510, "preview_image": "brands_images/full/473.jpg", "brand_id": 473, "create_time": "NOW()", "longitude": 113.11238760835101, "latitude": 36.19074455229068, "official_coord": 0, "region_id_1": "140000", "region_id_2": "140200", "region_id_3": "140202"}, {"name": "济宁曲阜天马箭牌上品生活馆", "address": "济宁市曲阜市孔子商贸城对面(曲阜西外环与104国道交汇处）", "phone_number": "15166721099", "id": 111511, "preview_image": "brands_images/full/473.jpg", "brand_id": 473, "create_time": "NOW()", "longitude": 116.94324293887006, "latitude": 35.594093095000495, "official_coord": 0, "region_id_1": "370000", "region_id_2": "370800", "region_id_3": "370881"}, {"name": "嘉峪关箭牌瓷砖专卖店", "address": "嘉峪关市居然之家1楼", "phone_number": "18693771216", "id": 111512, "preview_image": "brands_images/full/473.jpg", "brand_id": 473, "create_time": "NOW()", "longitude": 98.35698825563601, "latitude": 39.784581961208055, "official_coord": 0, "region_id_1": "100000", "region_id_2": "620000", "region_id_3": "620200"}, {"name": "酒泉箭牌瓷砖综合店", "address": "肃州路富康家世界1#馆一楼B区", "phone_number": "18909373618", "id": 111513, "preview_image": "brands_images/full/473.jpg", "brand_id": 473, "create_time": "NOW()", "longitude": 98.50755143102141, "latitude": 39.73816871378298, "official_coord": 0, "region_id_1": "620000", "region_id_2": "620900", "region_id_3": "620902"}, {"name": "临洮县箭牌瓷砖", "address": "临洮县文峰路银百盛广场", "phone_number": "15213941605", "id": 111514, "preview_image": "brands_images/full/473.jpg", "brand_id": 473, "create_time": "NOW()", "longitude": 103.86804401814383, "latitude": 35.398608970464835, "official_coord": 0, "region_id_1": "620000", "region_id_2": "621100", "region_id_3": "621124"}, {"name": "庆阳箭牌上品生活馆（综合店）", "address": "庆阳市西峰区陇东建材市场", "phone_number": "13830456788", "id": 111515, "preview_image": "brands_images/full/473.jpg", "brand_id": 473, "create_time": "NOW()", "longitude": 107.64537949091837, "latitude": 35.72868667426937, "official_coord": 0, "region_id_1": "620000", "region_id_2": "621000", "region_id_3": "621002"}, {"name": "箭牌瓷砖专卖店", "address": "临夏回族自治州建材市场", "phone_number": "1899317100", "id": 111516, "preview_image": "brands_images/full/473.jpg", "brand_id": 473, "create_time": "NOW()", "longitude": 103.19667142576505, "latitude": 35.59283006879037, "official_coord": 0, "region_id_1": "620000", "region_id_2": "622900", "region_id_3": "622901"}, {"name": "箭牌瓷砖专卖店", "address": "静宁县中邦家居建材市场", "phone_number": "1899317100", "id": 111517, "preview_image": "brands_images/full/473.jpg", "brand_id": 473, "create_time": "NOW()", "longitude": 105.72692229390218, "latitude": 35.547295721825115, "official_coord": 0, "region_id_1": "620000", "region_id_2": "620800", "region_id_3": "620826"}, {"name": "箭牌瓷砖专卖店", "address": "月星市场", "phone_number": "1899317100", "id": 111518, "preview_image": "brands_images/full/473.jpg", "brand_id": 473, "create_time": "NOW()", "longitude": 119.00671950181273, "latitude": 25.434448288579222, "official_coord": 0, "region_id_1": "350000", "region_id_2": "350300", "region_id_3": "350302"}, {"name": "箭牌瓷砖专卖店", "address": "兰州海石湾", "phone_number": "1899317100", "id": 111519, "preview_image": "brands_images/full/473.jpg", "brand_id": 473, "create_time": "NOW()", "longitude": 102.86860649237828, "latitude": 36.34670839454879, "official_coord": 0, "region_id_1": "620000", "region_id_2": "620100", "region_id_3": "620111"}, {"name": "箭牌瓷砖专卖店", "address": "三森建材市场", "phone_number": "13679474263", "id": 111520, "preview_image": "brands_images/full/473.jpg", "brand_id": 473, "create_time": "NOW()", "longitude": 108.94976874741252, "latitude": 34.19007381017032, "official_coord": 0, "region_id_1": "610000", "region_id_2": "610100", "region_id_3": "610113"}, {"name": "会昌箭牌瓷砖专卖店", "address": "江西赣州会昌建材市场", "phone_number": "13879770903", "id": 111521, "preview_image": "brands_images/full/473.jpg", "brand_id": 473, "create_time": "NOW()", "longitude": 115.81552755212768, "latitude": 25.588192843044663, "official_coord": 0, "region_id_1": "360000", "region_id_2": "360700", "region_id_3": "360733"}, {"name": "石城箭牌瓷砖专卖店", "address": "江西赣州石城建材市场", "phone_number": "13879770903", "id": 111522, "preview_image": "brands_images/full/473.jpg", "brand_id": 473, "create_time": "NOW()", "longitude": 116.3546347180595, "latitude": 26.326131244146662, "official_coord": 0, "region_id_1": "360000", "region_id_2": "360700", "region_id_3": "360735"}, {"name": "箭牌卫浴・瓷砖综合店", "address": "宜春市青龙装饰广场B栋203-205房", "phone_number": "13307958111/13755885599", "id": 111523, "preview_image": "brands_images/full/473.jpg", "brand_id": 473, "create_time": "NOW()", "longitude": 114.41236705296309, "latitude": 27.815887330790105, "official_coord": 0, "region_id_1": "360000", "region_id_2": "360900", "region_id_3": "360902"}, {"name": "箭牌瓷砖专卖店", "address": "萍乡市华美立家", "phone_number": "13907993390", "id": 111524, "preview_image": "brands_images/full/473.jpg", "brand_id": 473, "create_time": "NOW()", "longitude": 113.89621539796887, "latitude": 27.64443922505219, "official_coord": 0, "region_id_1": "360000", "region_id_2": "360300", "region_id_3": "360302"}, {"name": "箭牌瓷砖专卖店", "address": "南昌市聚汇建材市场", "phone_number": "13907085720", "id": 111525, "preview_image": "brands_images/full/473.jpg", "brand_id": 473, "create_time": "NOW()", "longitude": 115.9176013062257, "latitude": 28.576662677951465, "official_coord": 0, "region_id_1": "360000", "region_id_2": "360100", "region_id_3": "360121"}, {"name": "箭牌瓷砖专卖店", "address": "南昌市解放东路香江建材市场", "phone_number": "13907085720", "id": 111526, "preview_image": "brands_images/full/473.jpg", "brand_id": 473, "create_time": "NOW()", "longitude": 115.95540380377135, "latitude": 28.65726872697273, "official_coord": 0, "region_id_1": "360000", "region_id_2": "360100", "region_id_3": "360111"}, {"name": "箭牌瓷砖专卖店", "address": "景德镇豪德一期132号", "phone_number": "13907986483", "id": 111527, "preview_image": "brands_images/full/473.jpg", "brand_id": 473, "create_time": "NOW()", "longitude": 117.18815293700705, "latitude": 29.274644011109466, "official_coord": 0, "region_id_1": "360000", "region_id_2": "360200", "region_id_3": "360202"}, {"name": "箭牌瓷砖专卖店", "address": "上饶市鄱阳县新装饰大市场", "phone_number": "15070302828", "id": 111528, "preview_image": "brands_images/full/473.jpg", "brand_id": 473, "create_time": "NOW()", "longitude": 116.71027099078965, "latitude": 29.015942631886684, "official_coord": 0, "region_id_1": "360000", "region_id_2": "361100", "region_id_3": "361128"}, {"name": "箭牌瓷砖专卖店", "address": "江西省上饶市商贸城", "phone_number": "15970333136", "id": 111529, "preview_image": "brands_images/full/473.jpg", "brand_id": 473, "create_time": "NOW()", "longitude": 117.98378720388517, "latitude": 28.468348365211988, "official_coord": 0, "region_id_1": "360000", "region_id_2": "361100", "region_id_3": "361102"}, {"name": "丰城箭牌瓷砖专卖店", "address": "丰城市浩瀚建材市场", "phone_number": "18770857700", "id": 111530, "preview_image": "brands_images/full/473.jpg", "brand_id": 473, "create_time": "NOW()", "longitude": 115.82340351550111, "latitude": 28.11151587847006, "official_coord": 0, "region_id_1": "360000", "region_id_2": "360900", "region_id_3": "360981"}, {"name": "临川箭牌瓷砖专卖店", "address": "抚州临川建材一条街", "phone_number": "13767691117", "id": 111531, "preview_image": "brands_images/full/473.jpg", "brand_id": 473, "create_time": "NOW()", "longitude": 116.36973981898691, "latitude": 27.982023746021728, "official_coord": 0, "region_id_1": "360000", "region_id_2": "361000", "region_id_3": "361002"}, {"name": "箭牌瓷砖专卖店", "address": "抚州市南城建昌大道中段354号", "phone_number": "13979427877", "id": 111532, "preview_image": "brands_images/full/473.jpg", "brand_id": 473, "create_time": "NOW()", "longitude": 116.64278593634539, "latitude": 27.5614993672132, "official_coord": 0, "region_id_1": "360000", "region_id_2": "361000", "region_id_3": "361021"}, {"name": "箭牌瓷砖专卖店", "address": "抚州市", "phone_number": 0, "id": 111533, "preview_image": "brands_images/full/473.jpg", "brand_id": 473, "create_time": "NOW()", "longitude": 116.36491753489844, "latitude": 27.9896544794628, "official_coord": 0, "region_id_1": "360000", "region_id_2": "361000", "region_id_3": "361002"}, {"name": "箭牌瓷砖专卖店", "address": "九江市瑞昌市立信酒店旁", "phone_number": "15979953561", "id": 111534, "preview_image": "brands_images/full/473.jpg", "brand_id": 473, "create_time": "NOW()", "longitude": 115.69830635716774, "latitude": 29.681098090210288, "official_coord": 0, "region_id_1": "360000", "region_id_2": "360400", "region_id_3": "360481"}, {"name": "箭牌瓷砖专卖店", "address": "九江市九江县庐山西路88号", "phone_number": "13755207499", "id": 111535, "preview_image": "brands_images/full/473.jpg", "brand_id": 473, "create_time": "NOW()", "longitude": 115.90214882724541, "latitude": 29.609096491326298, "official_coord": 0, "region_id_1": 0, "region_id_2": 0, "region_id_3": 0}, {"name": "箭牌瓷砖专卖店", "address": "江西瑞金市金都大道福星建材", "phone_number": "13879770903", "id": 111536, "preview_image": "brands_images/full/473.jpg", "brand_id": 473, "create_time": "NOW()", "longitude": 116.03650554916, "latitude": 25.891928048421782, "official_coord": 0, "region_id_1": "360000", "region_id_2": "360700", "region_id_3": "360781"}, {"name": "箭牌瓷砖专卖店", "address": "21世纪家居中心", "phone_number": "13870228067", "id": 111537, "preview_image": "brands_images/full/473.jpg", "brand_id": 473, "create_time": "NOW()", "longitude": 115.98657440602052, "latitude": 29.688175989007167, "official_coord": 0, "region_id_1": "360000", "region_id_2": "360400", "region_id_3": "360402"}, {"name": "箭牌卫浴・瓷砖综合店店", "address": "九江市都昌县建材大道", "phone_number": "17770227723", "id": 111538, "preview_image": "brands_images/full/473.jpg", "brand_id": 473, "create_time": "NOW()", "longitude": 116.2364301678525, "latitude": 29.27736070961887, "official_coord": 0, "region_id_1": "360000", "region_id_2": "360400", "region_id_3": "360428"}, {"name": "箭牌卫浴・瓷砖综合店", "address": "吉安县赣江大道", "phone_number": "13970600118", "id": 111539, "preview_image": "brands_images/full/473.jpg", "brand_id": 473, "create_time": "NOW()", "longitude": 114.92550582301463, "latitude": 27.036636929768914, "official_coord": 0, "region_id_1": "360000", "region_id_2": "360800", "region_id_3": "360821"}, {"name": "箭牌瓷砖专卖店", "address": "吉安市四方圆建材市场", "phone_number": "13707061455/13701068996", "id": 111540, "preview_image": "brands_images/full/473.jpg", "brand_id": 473, "create_time": "NOW()", "longitude": 114.97708957196444, "latitude": 27.119847998362935, "official_coord": 0, "region_id_1": "360000", "region_id_2": "360800", "region_id_3": "360802"}, {"name": "箭牌瓷砖专卖店", "address": "吉安金鑫建材市场", "phone_number": "15307068777", "id": 111541, "preview_image": "brands_images/full/473.jpg", "brand_id": 473, "create_time": "NOW()", "longitude": 119.92102348002349, "latitude": 30.052569330659672, "official_coord": 0, "region_id_1": "330000", "region_id_2": "330100", "region_id_3": "330183"}, {"name": "箭牌瓷砖专卖店", "address": "吉安市华美立家", "phone_number": "13707061455/13701068996", "id": 111542, "preview_image": "brands_images/full/473.jpg", "brand_id": 473, "create_time": "NOW()", "longitude": 114.90778482676662, "latitude": 27.11930748929143, "official_coord": 0, "region_id_1": "360000", "region_id_2": "360800", "region_id_3": "360802"}, {"name": "箭牌专卖店", "address": "龙岩市龙腾路陈陂陶瓷广场三号店", "phone_number": "13906978655", "id": 111543, "preview_image": "brands_images/full/473.jpg", "brand_id": 473, "create_time": "NOW()", "longitude": 117.02091876890418, "latitude": 25.079664473616827, "official_coord": 0, "region_id_1": "350000", "region_id_2": "350800", "region_id_3": "350802"}, {"name": "南平箭牌综合店", "address": "南平市海峡建材市场", "phone_number": "13950632155", "id": 111544, "preview_image": "brands_images/full/473.jpg", "brand_id": 473, "create_time": "NOW()", "longitude": 118.19136820617086, "latitude": 26.616137578739448, "official_coord": 0, "region_id_1": "350000", "region_id_2": "350700", "region_id_3": "350702"}, {"name": "建阳箭牌综合店", "address": "建阳市京桥花园2号楼店", "phone_number": "13328619999", "id": 111545, "preview_image": "brands_images/full/473.jpg", "brand_id": 473, "create_time": "NOW()", "longitude": 118.13005301361954, "latitude": 27.333066123905226, "official_coord": 0, "region_id_1": "350000", "region_id_2": "350700", "region_id_3": "350703"}, {"name": "武夷山箭牌瓷砖综合店", "address": "武夷山二中对面", "phone_number": "13706901298", "id": 111546, "preview_image": "brands_images/full/473.jpg", "brand_id": 473, "create_time": "NOW()", "longitude": 118.04427152824185, "latitude": 27.76436056779342, "official_coord": 0, "region_id_1": "350000", "region_id_2": "350700", "region_id_3": "350782"}, {"name": "吉家瓷砖专卖店", "address": "吉家家世界建材市场", "phone_number": "13600968289", "id": 111547, "preview_image": "brands_images/full/473.jpg", "brand_id": 473, "create_time": "NOW()", "longitude": 118.15981912660385, "latitude": 24.515285454508163, "official_coord": 0, "region_id_1": "350000", "region_id_2": "350200", "region_id_3": "350206"}, {"name": "福州南方建材市场综合店", "address": "福州市晋安区连江北路309号南方建材市场5座7-11#箭牌卫浴瓷砖专卖店", "phone_number": "0591-83639539", "id": 111548, "preview_image": "brands_images/full/473.jpg", "brand_id": 473, "create_time": "NOW()", "longitude": 119.34168276496071, "latitude": 26.090287823935167, "official_coord": 0, "region_id_1": "350000", "region_id_2": "350100", "region_id_3": "350111"}, {"name": "福州金山专卖店", "address": "福州仓山红星美凯龙商场二层B8007箭牌瓷砖专卖店", "phone_number": "0591-38179872", "id": 111549, "preview_image": "brands_images/full/473.jpg", "brand_id": 473, "create_time": "NOW()", "longitude": 119.30077734664017, "latitude": 26.067623786672435, "official_coord": 0, "region_id_1": "350000", "region_id_2": "350100", "region_id_3": "350103"}, {"name": "福州闽候永丰枢纽箭牌瓷砖专卖店", "address": "福州闽侯县荆溪镇三环永丰互通海峡国际家居建材城箭牌店", "phone_number": "0591-63188066", "id": 111550, "preview_image": "brands_images/full/473.jpg", "brand_id": 473, "create_time": "NOW()", "longitude": 119.3434892577498, "latitude": 26.090345768593295, "official_coord": 0, "region_id_1": "350000", "region_id_2": "350100", "region_id_3": "350111"}, {"name": "福州市永泰县箭牌瓷砖专卖店", "address": "福州市永泰县马洋下林安置房6-3（第二排）世纪阳光幼儿园后面", "phone_number": "18750121333", "id": 111551, "preview_image": "brands_images/full/473.jpg", "brand_id": 473, "create_time": "NOW()", "longitude": 119.34187307173941, "latitude": 26.042028971543544, "official_coord": 0, "region_id_1": "350000", "region_id_2": "350100", "region_id_3": "350104"}, {"name": "福州仓山区箭牌瓷砖专卖店", "address": "福州市仓山区城门镇永南路一号春伦茶叶厂斜对面兴德派建材中心二层", "phone_number": "13635253167", "id": 111552, "preview_image": "brands_images/full/473.jpg", "brand_id": 473, "create_time": "NOW()", "longitude": 119.39335879954378, "latitude": 25.996295372229273, "official_coord": 0, "region_id_1": "350000", "region_id_2": "350100", "region_id_3": "350104"}, {"name": "福州闽候县南屿镇箭牌瓷砖专卖店", "address": "福州市闽侯县乌龙江南大道66号龙旺理想天街A8010-A8011", "phone_number": "18559123986", "id": 111553, "preview_image": "brands_images/full/473.jpg", "brand_id": 473, "create_time": "NOW()", "longitude": 119.2317404177918, "latitude": 26.00350997619333, "official_coord": 0, "region_id_1": "350000", "region_id_2": "350100", "region_id_3": "350121"}, {"name": "泉州华州箭牌综合店", "address": "泉州大桥华州市场", "phone_number": "13860793528", "id": 111554, "preview_image": "brands_images/full/473.jpg", "brand_id": 473, "create_time": "NOW()", "longitude": 118.58523631555923, "latitude": 24.892657079104083, "official_coord": 0, "region_id_1": "350000", "region_id_2": "350500", "region_id_3": "350582"}, {"name": "箭牌上品生活馆综合店", "address": "泉州晋江市保龙城市广场对面", "phone_number": "15259805111", "id": 111555, "preview_image": "brands_images/full/473.jpg", "brand_id": 473, "create_time": "NOW()", "longitude": 118.57304404706447, "latitude": 24.80858170613846, "official_coord": 0, "region_id_1": "350000", "region_id_2": "350500", "region_id_3": "350582"}, {"name": "箭牌瓷砖专卖店", "address": "望江建材市场", "phone_number": "13966953888", "id": 111556, "preview_image": "brands_images/full/473.jpg", "brand_id": 473, "create_time": "NOW()", "longitude": 116.48595403474408, "latitude": 30.30565899611141, "official_coord": 0, "region_id_1": "340000", "region_id_2": "340800", "region_id_3": "340827"}, {"name": "箭牌瓷砖专卖店", "address": "临泉市好迪建材市场", "phone_number": 0, "id": 111557, "preview_image": "brands_images/full/473.jpg", "brand_id": 473, "create_time": "NOW()", "longitude": 115.28884190106906, "latitude": 33.0554570524067, "official_coord": 0, "region_id_1": "340000", "region_id_2": "341200", "region_id_3": "341221"}, {"name": "箭牌卫浴・瓷砖综合店", "address": "太和晶宫世纪城建材市场", "phone_number": 0, "id": 111558, "preview_image": "brands_images/full/473.jpg", "brand_id": 473, "create_time": "NOW()", "longitude": 115.62013969609775, "latitude": 33.19305265328237, "official_coord": 0, "region_id_1": "340000", "region_id_2": "341200", "region_id_3": "341222"}, {"name": "箭牌瓷砖专卖店", "address": "桐城市兴旺明人家居生活广场", "phone_number": "13805561286", "id": 111559, "preview_image": "brands_images/full/473.jpg", "brand_id": 473, "create_time": "NOW()", "longitude": 116.9753047057631, "latitude": 31.070386464690813, "official_coord": 0, "region_id_1": "340000", "region_id_2": "340800", "region_id_3": "340881"}, {"name": "箭牌卫浴・瓷砖综合店", "address": "黄山黟县地税对面", "phone_number": "13955960117", "id": 111560, "preview_image": "brands_images/full/473.jpg", "brand_id": 473, "create_time": "NOW()", "longitude": 117.95111308414047, "latitude": 29.931629139564194, "official_coord": 0, "region_id_1": "340000", "region_id_2": "341000", "region_id_3": "341023"}, {"name": "箭牌卫浴・瓷砖综合店", "address": "休宁县齐云东大道3号", "phone_number": "13956260217", "id": 111561, "preview_image": "brands_images/full/473.jpg", "brand_id": 473, "create_time": "NOW()", "longitude": 118.20396473987131, "latitude": 29.79731052268006, "official_coord": 0, "region_id_1": "340000", "region_id_2": "341000", "region_id_3": "341022"}, {"name": "箭牌卫浴・瓷砖综合店", "address": "黄山市黄山区北海南路龙源佳苑4号", "phone_number": "13805590466", "id": 111562, "preview_image": "brands_images/full/473.jpg", "brand_id": 473, "create_time": "NOW()", "longitude": 118.14427969194884, "latitude": 30.296989372492458, "official_coord": 0, "region_id_1": "340000", "region_id_2": "341000", "region_id_3": "341003"}, {"name": "箭牌瓷砖专卖店", "address": "歙县富资路161号", "phone_number": "13095590994", "id": 111563, "preview_image": "brands_images/full/473.jpg", "brand_id": 473, "create_time": "NOW()", "longitude": 118.43685025848103, "latitude": 29.87805062507443, "official_coord": 0, "region_id_1": "340000", "region_id_2": "341000", "region_id_3": "341021"}, {"name": "箭牌卫浴・瓷砖综合店", "address": "徽州建材一条街108-10号", "phone_number": "13956260946", "id": 111564, "preview_image": "brands_images/full/473.jpg", "brand_id": 473, "create_time": "NOW()", "longitude": 118.2785912859337, "latitude": 29.90214039857758, "official_coord": 0, "region_id_1": "340000", "region_id_2": "341000", "region_id_3": "341004"}, {"name": "宿松箭牌瓷砖专卖店", "address": "宿松建材市场", "phone_number": "18130525788", "id": 111565, "preview_image": "brands_images/full/473.jpg", "brand_id": 473, "create_time": "NOW()", "longitude": 116.15337924538979, "latitude": 30.157276002158053, "official_coord": 0, "region_id_1": "340000", "region_id_2": "340800", "region_id_3": "340826"}, {"name": "箭牌瓷砖专卖店", "address": "池州东至县尧舜大市场", "phone_number": "13856612289", "id": 111566, "preview_image": "brands_images/full/473.jpg", "brand_id": 473, "create_time": "NOW()", "longitude": 117.02551985868939, "latitude": 30.107091695324463, "official_coord": 0, "region_id_1": "340000", "region_id_2": "341700", "region_id_3": "341721"}, {"name": "箭牌卫浴・瓷砖综合店", "address": "芜湖繁昌县渡江大道箭牌专卖店", "phone_number": "18605536588", "id": 111567, "preview_image": "brands_images/full/473.jpg", "brand_id": 473, "create_time": "NOW()", "longitude": 118.37005694741613, "latitude": 31.341185338268417, "official_coord": 0, "region_id_1": "340000", "region_id_2": "340200", "region_id_3": "340202"}, {"name": "箭牌瓷砖专卖店", "address": "芜湖市镜湖区弋江北路欧亚达市场", "phone_number": "13909635077", "id": 111568, "preview_image": "brands_images/full/473.jpg", "brand_id": 473, "create_time": "NOW()", "longitude": 118.40454855603814, "latitude": 31.358304906657203, "official_coord": 0, "region_id_1": "340000", "region_id_2": "340200", "region_id_3": "340202"}, {"name": "箭牌瓷砖专卖店", "address": "蚌埠市光彩大市场1区6栋102-108", "phone_number": "13909629608", "id": 111569, "preview_image": "brands_images/full/473.jpg", "brand_id": 473, "create_time": "NOW()", "longitude": 117.36736044869942, "latitude": 32.92306972630653, "official_coord": 0, "region_id_1": "340000", "region_id_2": "340300", "region_id_3": "340303"}, {"name": "箭牌瓷砖专卖店", "address": "淮南香港街东段", "phone_number": "18697559999", "id": 111570, "preview_image": "brands_images/full/473.jpg", "brand_id": 473, "create_time": "NOW()", "longitude": 117.03861583407655, "latitude": 32.66169157982947, "official_coord": 0, "region_id_1": "340000", "region_id_2": "340400", "region_id_3": "340403"}, {"name": "箭牌瓷砖专卖店", "address": "阜阳市天英宝鼎建材家居城", "phone_number": "13635587828", "id": 111571, "preview_image": "brands_images/full/473.jpg", "brand_id": 473, "create_time": "NOW()", "longitude": 115.78882782492782, "latitude": 32.879548052236785, "official_coord": 0, "region_id_1": "340000", "region_id_2": "341200", "region_id_3": "341202"}, {"name": "箭牌瓷砖专卖店", "address": "界首人民政府对面", "phone_number": "15855585988", "id": 111572, "preview_image": "brands_images/full/473.jpg", "brand_id": 473, "create_time": "NOW()", "longitude": 115.3814328185725, "latitude": 33.263915046492684, "official_coord": 0, "region_id_1": "340000", "region_id_2": "341200", "region_id_3": "341282"}, {"name": "箭牌卫浴・瓷砖综合店", "address": "蒙城县城关镇体育路金色家园北门西侧", "phone_number": "15256165585", "id": 111573, "preview_image": "brands_images/full/473.jpg", "brand_id": 473, "create_time": "NOW()", "longitude": 116.5729611192926, "latitude": 33.25699662867874, "official_coord": 0, "region_id_1": "340000", "region_id_2": "341600", "region_id_3": "341622"}, {"name": "箭牌瓷砖专卖店", "address": "亳州市利辛县金汇国际装饰城1号楼A区120号", "phone_number": "18226092620", "id": 111574, "preview_image": "brands_images/full/473.jpg", "brand_id": 473, "create_time": "NOW()", "longitude": 116.20163988471585, "latitude": 33.132626783560696, "official_coord": 0, "region_id_1": "340000", "region_id_2": "341600", "region_id_3": "341623"}, {"name": "箭牌瓷砖专卖店", "address": "庐江县汤池路箭牌专卖店", "phone_number": "13905657321", "id": 111575, "preview_image": "brands_images/full/473.jpg", "brand_id": 473, "create_time": "NOW()", "longitude": 117.28593916845375, "latitude": 31.26895293327134, "official_coord": 0, "region_id_1": "340000", "region_id_2": "340100", "region_id_3": "340124"}, {"name": "箭牌卫浴・瓷砖综合店", "address": "芜湖繁昌县渡江大道箭牌专卖店", "phone_number": "18605536588", "id": 111576, "preview_image": "brands_images/full/473.jpg", "brand_id": 473, "create_time": "NOW()", "longitude": 118.37005694741613, "latitude": 31.341185338268417, "official_coord": 0, "region_id_1": "340000", "region_id_2": "340200", "region_id_3": "340202"}, {"name": "箭牌瓷砖专卖店", "address": "芜湖市镜湖区弋江北路欧亚达市场", "phone_number": "13909635077", "id": 111577, "preview_image": "brands_images/full/473.jpg", "brand_id": 473, "create_time": "NOW()", "longitude": 118.40454855603814, "latitude": 31.358304906657203, "official_coord": 0, "region_id_1": "340000", "region_id_2": "340200", "region_id_3": "340202"}, {"name": "箭牌卫浴・瓷砖综合店", "address": "马鞍山市花山美居好百年一楼箭牌专卖店", "phone_number": "13965541656", "id": 111578, "preview_image": "brands_images/full/473.jpg", "brand_id": 473, "create_time": "NOW()", "longitude": 118.51400971418751, "latitude": 31.684450664546848, "official_coord": 0, "region_id_1": "340000", "region_id_2": "340500", "region_id_3": "340503"}, {"name": "箭牌卫浴・瓷砖综合店", "address": "安徽省安庆市光彩四期D区10栋1号", "phone_number": "15395566670", "id": 111579, "preview_image": "brands_images/full/473.jpg", "brand_id": 473, "create_time": "NOW()", "longitude": 117.08778232091178, "latitude": 30.545093698795622, "official_coord": 0, "region_id_1": "340000", "region_id_2": "340800", "region_id_3": "340811"}, {"name": "箭牌卫浴・瓷砖综合店", "address": "池州市建设中路55号箭牌专卖店", "phone_number": "15249901871", "id": 111580, "preview_image": "brands_images/full/473.jpg", "brand_id": 473, "create_time": "NOW()", "longitude": 117.49478700552412, "latitude": 30.66800469429614, "official_coord": 0, "region_id_1": "340000", "region_id_2": "341700", "region_id_3": "341702"}, {"name": "箭牌卫浴・瓷砖综合店", "address": "泾县谢园东路宣纸城", "phone_number": "18605637689", "id": 111581, "preview_image": "brands_images/full/473.jpg", "brand_id": 473, "create_time": "NOW()", "longitude": 118.42976144227723, "latitude": 30.695676442795087, "official_coord": 0, "region_id_1": "340000", "region_id_2": "341800", "region_id_3": "341823"}, {"name": "箭牌卫浴・瓷砖综合店", "address": "广德县横山南路建材市场383号-385号", "phone_number": "13956306677", "id": 111582, "preview_image": "brands_images/full/473.jpg", "brand_id": 473, "create_time": "NOW()", "longitude": 119.4155213462215, "latitude": 30.888263490441815, "official_coord": 0, "region_id_1": "340000", "region_id_2": "341800", "region_id_3": "341822"}, {"name": "箭牌卫浴・瓷砖综合店", "address": "宣城建材市场", "phone_number": 0, "id": 111583, "preview_image": "brands_images/full/473.jpg", "brand_id": 473, "create_time": "NOW()", "longitude": 118.79158449912173, "latitude": 30.9566816609246, "official_coord": 0, "region_id_1": "340000", "region_id_2": "341800", "region_id_3": "341802"}, {"name": "箭牌卫浴・瓷砖综合店", "address": "安徽安庆市怀宁县白蓝公寓", "phone_number": "13956506333", "id": 111584, "preview_image": "brands_images/full/473.jpg", "brand_id": 473, "create_time": "NOW()", "longitude": 116.8035269019588, "latitude": 30.579024527459012, "official_coord": 0, "region_id_1": "340000", "region_id_2": "340800", "region_id_3": "340822"}, {"name": "箭牌卫浴・瓷砖综合店", "address": "安徽安庆市怀宁县高河大道407", "phone_number": "13956506333", "id": 111585, "preview_image": "brands_images/full/473.jpg", "brand_id": 473, "create_time": "NOW()", "longitude": 116.84332258769156, "latitude": 30.730446228093562, "official_coord": 0, "region_id_1": "340000", "region_id_2": "340800", "region_id_3": "340822"}, {"name": "箭牌瓷砖专卖店", "address": "合肥市金三角箭牌专卖店", "phone_number": "13905518019", "id": 111586, "preview_image": "brands_images/full/473.jpg", "brand_id": 473, "create_time": "NOW()", "longitude": 117.31953005875056, "latitude": 31.889731201185597, "official_coord": 0, "region_id_1": "340000", "region_id_2": "340100", "region_id_3": "340102"}, {"name": "箭牌瓷砖专卖店", "address": "合肥市凤凰城家具建材市场", "phone_number": "13905518019", "id": 111587, "preview_image": "brands_images/full/473.jpg", "brand_id": 473, "create_time": "NOW()", "longitude": 117.23658206849723, "latitude": 31.86308793315765, "official_coord": 0, "region_id_1": "340000", "region_id_2": "340100", "region_id_3": "340104"}, {"name": "箭牌瓷砖专卖店", "address": "合肥市望湖美家居建材市场", "phone_number": "13905518019", "id": 111588, "preview_image": "brands_images/full/473.jpg", "brand_id": 473, "create_time": "NOW()", "longitude": 117.27389265264442, "latitude": 31.822511884445316, "official_coord": 0, "region_id_1": "340000", "region_id_2": "340100", "region_id_3": "340111"}, {"name": "箭牌瓷砖专卖店", "address": "合肥市红星美凯龙箭牌专卖", "phone_number": "13905518019", "id": 111589, "preview_image": "brands_images/full/473.jpg", "brand_id": 473, "create_time": "NOW()", "longitude": 117.24638771658776, "latitude": 31.822091563123653, "official_coord": 0, "region_id_1": "340000", "region_id_2": "340100", "region_id_3": "340104"}, {"name": "箭牌瓷砖专卖店", "address": "太原东城现代店", "phone_number": "13834640961", "id": 111590, "preview_image": "brands_images/full/473.jpg", "brand_id": 473, "create_time": "NOW()", "longitude": 112.60592982781466, "latitude": 37.857148674405515, "official_coord": 0, "region_id_1": "140000", "region_id_2": "140100", "region_id_3": "140106"}, {"name": "左权箭牌瓷砖专卖店", "address": "左权建材市场箭牌专卖二楼", "phone_number": "13835167666", "id": 111591, "preview_image": "brands_images/full/473.jpg", "brand_id": 473, "create_time": "NOW()", "longitude": 111.91163112289631, "latitude": 37.041718217255706, "official_coord": 0, "region_id_1": "140000", "region_id_2": "140700", "region_id_3": "140781"}, {"name": "繁峙专卖店", "address": "繁峙县建材卖场", "phone_number": "13835167666", "id": 111592, "preview_image": "brands_images/full/473.jpg", "brand_id": 473, "create_time": "NOW()", "longitude": 112.75308679196726, "latitude": 38.42712674545042, "official_coord": 0, "region_id_1": "140000", "region_id_2": "140900", "region_id_3": "140902"}, {"name": "太原居然二店（专卖店）", "address": "太原市长治路居然之家河西店", "phone_number": "13835167666", "id": 111593, "preview_image": "brands_images/full/473.jpg", "brand_id": 473, "create_time": "NOW()", "longitude": 112.48885455139144, "latitude": 37.864356083308834, "official_coord": 0, "region_id_1": "140000", "region_id_2": "140100", "region_id_3": "140109"}, {"name": "离石霖泽国际家居店（专卖店）", "address": "离石霖泽国际家居店", "phone_number": "13835167666", "id": 111594, "preview_image": "brands_images/full/473.jpg", "brand_id": 473, "create_time": "NOW()", "longitude": 111.1321894228455, "latitude": 37.52408292925933, "official_coord": 0, "region_id_1": "140000", "region_id_2": "141100", "region_id_3": "141102"}, {"name": "孝义分销（专卖）", "address": "孝义市三环路佰得家具城", "phone_number": "13835167666", "id": 111595, "preview_image": "brands_images/full/473.jpg", "brand_id": 473, "create_time": "NOW()", "longitude": 111.77173602751128, "latitude": 37.15946367243862, "official_coord": 0, "region_id_1": "140000", "region_id_2": "141100", "region_id_3": "141181"}, {"name": "孝义振兴街居然之家店（专卖店）", "address": "和顺县建材一条街", "phone_number": "13835167666", "id": 111596, "preview_image": "brands_images/full/473.jpg", "brand_id": 473, "create_time": "NOW()", "longitude": 113.57809159258703, "latitude": 37.33136841932033, "official_coord": 0, "region_id_1": "140000", "region_id_2": "140700", "region_id_3": "140723"}, {"name": "大同红星美凯龙（专卖）", "address": "大同红星美凯龙1店", "phone_number": "13603520518", "id": 111597, "preview_image": "brands_images/full/473.jpg", "brand_id": 473, "create_time": "NOW()", "longitude": 113.29612196913503, "latitude": 40.07548507162216, "official_coord": 0, "region_id_1": "140000", "region_id_2": "140200", "region_id_3": "140202"}, {"name": "日N店（专卖店）", "address": "原平市日升建材市场", "phone_number": "18035010118", "id": 111598, "preview_image": "brands_images/full/473.jpg", "brand_id": 473, "create_time": "NOW()", "longitude": 112.71807518261998, "latitude": 38.74940510114608, "official_coord": 0, "region_id_1": "140000", "region_id_2": "140900", "region_id_3": "140981"}, {"name": "襄汾店专", "address": "临汾襄汾建材一条街", "phone_number": "18903409797", "id": 111599, "preview_image": "brands_images/full/473.jpg", "brand_id": 473, "create_time": "NOW()", "longitude": 111.37025805590028, "latitude": 35.621711365963876, "official_coord": 0, "region_id_1": "140000", "region_id_2": "141000", "region_id_3": "141081"}, {"name": "居家之家店（专卖店）", "address": "阳泉市居然之家", "phone_number": "13935394179", "id": 111600, "preview_image": "brands_images/full/473.jpg", "brand_id": 473, "create_time": "NOW()", "longitude": 113.605186369834, "latitude": 37.8681820292645, "official_coord": 0, "region_id_1": "140000", "region_id_2": "140200", "region_id_3": "140202"}, {"name": "箭牌瓷砖专卖店", "address": "介休弘盛昌建材市场", "phone_number": "13303440566", "id": 111601, "preview_image": "brands_images/full/473.jpg", "brand_id": 473, "create_time": "NOW()", "longitude": 111.91101115599449, "latitude": 37.043057265642354, "official_coord": 0, "region_id_1": "140000", "region_id_2": "140700", "region_id_3": "140781"}, {"name": "弘盛昌店（专卖店）", "address": "介休市盛世昌建材城", "phone_number": "13303440566", "id": 111602, "preview_image": "brands_images/full/473.jpg", "brand_id": 473, "create_time": "NOW()", "longitude": 111.99518801956977, "latitude": 37.025476275939795, "official_coord": 0, "region_id_1": "140000", "region_id_2": "140700", "region_id_3": "140781"}, {"name": "新巨龙店（专卖店）", "address": "榆次区新巨龙建材市场一楼", "phone_number": "15303544999", "id": 111603, "preview_image": "brands_images/full/473.jpg", "brand_id": 473, "create_time": "NOW()", "longitude": 112.7299180660653, "latitude": 37.70570916776342, "official_coord": 0, "region_id_1": "140000", "region_id_2": "140700", "region_id_3": "140702"}, {"name": "河津店（专卖店）", "address": "河津建材市场", "phone_number": "18235946999", "id": 111604, "preview_image": "brands_images/full/473.jpg", "brand_id": 473, "create_time": "NOW()", "longitude": 110.71476721837706, "latitude": 35.58358946336011, "official_coord": 0, "region_id_1": "140000", "region_id_2": "140800", "region_id_3": "140882"}, {"name": "禹都店（专卖店）", "address": "禹都运兴建材城", "phone_number": "13935963591", "id": 111605, "preview_image": "brands_images/full/473.jpg", "brand_id": 473, "create_time": "NOW()", "longitude": 111.0485871796242, "latitude": 35.07041987881101, "official_coord": 0, "region_id_1": "140000", "region_id_2": "140800", "region_id_3": "140802"}, {"name": "中天店（专卖店）", "address": "侯马中天建材市场", "phone_number": "15935353562", "id": 111606, "preview_image": "brands_images/full/473.jpg", "brand_id": 473, "create_time": "NOW()", "longitude": 111.39839294599687, "latitude": 35.62562749936044, "official_coord": 0, "region_id_1": "140000", "region_id_2": "141000", "region_id_3": "141081"}, {"name": "鹭城建材市场（综合店）", "address": "鹭城建材市场", "phone_number": "15503552006", "id": 111607, "preview_image": "brands_images/full/473.jpg", "brand_id": 473, "create_time": "NOW()", "longitude": 0, "latitude": 0, "official_coord": 0, "region_id_1": "140000", "region_id_2": "141000", "region_id_3": "141081"}, {"name": "居然之家店（专卖店）", "address": "长治居然之家市场", "phone_number": "15503552006", "id": 111608, "preview_image": "brands_images/full/473.jpg", "brand_id": 473, "create_time": "NOW()", "longitude": 113.1332652860511, "latitude": 36.22221001684097, "official_coord": 0, "region_id_1": "140000", "region_id_2": "140200", "region_id_3": "140202"}, {"name": "黎城瓷砖专卖店", "address": "黎城瓷砖专卖店", "phone_number": "13503555038", "id": 111609, "preview_image": "brands_images/full/473.jpg", "brand_id": 473, "create_time": "NOW()", "longitude": 113.39230018288775, "latitude": 36.50364402286642, "official_coord": 0, "region_id_1": "140000", "region_id_2": "140400", "region_id_3": "140426"}, {"name": "万博店（专卖店）", "address": "长治市万博建材城", "phone_number": "13503555038", "id": 111610, "preview_image": "brands_images/full/473.jpg", "brand_id": 473, "create_time": "NOW()", "longitude": 113.13442036124292, "latitude": 36.18646275738574, "official_coord": 0, "region_id_1": "140000", "region_id_2": "140200", "region_id_3": "140202"}, {"name": "浑南红星美凯龙瓷砖专卖店", "address": "浑南新区临波路10号红星美凯龙二楼瓷砖专卖店", "phone_number": "024-31395086", "id": 111611, "preview_image": "brands_images/full/473.jpg", "brand_id": 473, "create_time": "NOW()", "longitude": 123.38764827656638, "latitude": 41.81013752917234, "official_coord": 0, "region_id_1": "210000", "region_id_2": "210100", "region_id_3": "210106"}, {"name": "抚顺红星美凯龙箭牌瓷砖专卖店", "address": "抚顺红星美凯龙二楼C8061", "phone_number": "024-52723158", "id": 111612, "preview_image": "brands_images/full/473.jpg", "brand_id": 473, "create_time": "NOW()", "longitude": 123.90008922100401, "latitude": 41.86797961683169, "official_coord": 0, "region_id_1": "210000", "region_id_2": "210400", "region_id_3": "210402"}, {"name": "丹东名洋箭牌瓷砖专卖店", "address": "丹东市振兴区锦山大街199-1", "phone_number": "0415-3170078", "id": 111613, "preview_image": "brands_images/full/473.jpg", "brand_id": 473, "create_time": "NOW()", "longitude": 124.37664502873928, "latitude": 40.119032707397416, "official_coord": 0, "region_id_1": "210000", "region_id_2": "210600", "region_id_3": "210603"}, {"name": "鞍山十里河箭牌瓷砖专卖店", "address": "鞍山十里河建材市场二楼", "phone_number": "13842222855", "id": 111614, "preview_image": "brands_images/full/473.jpg", "brand_id": 473, "create_time": "NOW()", "longitude": 116.48458634386554, "latitude": 39.863388777930254, "official_coord": 0, "region_id_1": "110000", "region_id_2": "110100", "region_id_3": "110105"}, {"name": "箭牌卫浴・瓷砖综合店", "address": "马鞍山市花山美居好百年一楼箭牌专卖店", "phone_number": "13965541656", "id": 111615, "preview_image": "brands_images/full/473.jpg", "brand_id": 473, "create_time": "NOW()", "longitude": 118.51400971418751, "latitude": 31.684450664546848, "official_coord": 0, "region_id_1": "340000", "region_id_2": "340500", "region_id_3": "340503"}, {"name": "通辽安华建材城箭牌瓷砖专卖店", "address": "通辽市河西开发区创业大道安华建材城5号楼", "phone_number": "0475-8817888", "id": 111616, "preview_image": "brands_images/full/473.jpg", "brand_id": 473, "create_time": "NOW()", "longitude": 122.2289811835482, "latitude": 43.65728745077844, "official_coord": 0, "region_id_1": "150000", "region_id_2": "150500", "region_id_3": "150502"}, {"name": "通辽居然之家箭牌瓷砖专卖店", "address": "通辽市河西开发区创业大道居然之家一楼1-1-011", "phone_number": "0475-6199288", "id": 111617, "preview_image": "brands_images/full/473.jpg", "brand_id": 473, "create_time": "NOW()", "longitude": 122.22890837634955, "latitude": 43.658410325884816, "official_coord": 0, "region_id_1": "150000", "region_id_2": "150500", "region_id_3": "150502"}, {"name": "赤峰市平庄镇箭牌瓷砖专卖店", "address": "赤峰市平庄镇平煤中学对面", "phone_number": "15504762297", "id": 111618, "preview_image": "brands_images/full/473.jpg", "brand_id": 473, "create_time": "NOW()", "longitude": 119.29171963898648, "latitude": 42.05052992420479, "official_coord": 0, "region_id_1": "150000", "region_id_2": "150400", "region_id_3": "150403"}, {"name": "赤峰红星美凯龙箭牌瓷砖专卖店", "address": "赤峰红星美凯龙二楼西厅C8307", "phone_number": "18847615566", "id": 111619, "preview_image": "brands_images/full/473.jpg", "brand_id": 473, "create_time": "NOW()", "longitude": 118.91941442313899, "latitude": 42.276125836384196, "official_coord": 0, "region_id_1": "150000", "region_id_2": "150400", "region_id_3": "150404"}, {"name": "大连九创家装体验馆箭牌瓷砖店", "address": "大连甘井子区", "phone_number": "13998518929", "id": 111620, "preview_image": "brands_images/full/473.jpg", "brand_id": 473, "create_time": "NOW()", "longitude": 121.5319762566985, "latitude": 38.95926123912947, "official_coord": 0, "region_id_1": "210000", "region_id_2": "210200", "region_id_3": "210211"}, {"name": "大连美立方圆箭牌瓷砖店", "address": "甘井子区逸林街雅林园公建82号1-1", "phone_number": "13998518929", "id": 111621, "preview_image": "brands_images/full/473.jpg", "brand_id": 473, "create_time": "NOW()", "longitude": 121.5343905666629, "latitude": 38.95811615449763, "official_coord": 0, "region_id_1": "210000", "region_id_2": "210200", "region_id_3": "210211"}, {"name": "营口箭牌瓷砖专卖店", "address": "营口北方陶瓷城二期806档口", "phone_number": "13904175976", "id": 111622, "preview_image": "brands_images/full/473.jpg", "brand_id": 473, "create_time": "NOW()", "longitude": 122.28473018413915, "latitude": 40.70970037534696, "official_coord": 0, "region_id_1": "210000", "region_id_2": "210800", "region_id_3": "210802"}, {"name": "大连开发区箭牌卫浴瓷砖综合店", "address": "大连市开发区黄海西路302#光华建材市场1F-9", "phone_number": "0411-88018488", "id": 111623, "preview_image": "brands_images/full/473.jpg", "brand_id": 473, "create_time": "NOW()", "longitude": 121.81032108588114, "latitude": 39.0494344675707, "official_coord": 0, "region_id_1": "210000", "region_id_2": "210200", "region_id_3": "210213"}, {"name": "华南红星美凯龙箭牌瓷砖专卖店", "address": "大连市甘井子区华南广场华南红星美凯龙二楼", "phone_number": "13998518929", "id": 111624, "preview_image": "brands_images/full/473.jpg", "brand_id": 473, "create_time": "NOW()", "longitude": 121.59697965067882, "latitude": 38.99503638677693, "official_coord": 0, "region_id_1": "210000", "region_id_2": "210200", "region_id_3": "210211"}, {"name": "大连金三角居然之家箭牌瓷砖专卖店", "address": "大连市甘井子区金三角居然之家二楼", "phone_number": "13998518929", "id": 111625, "preview_image": "brands_images/full/473.jpg", "brand_id": 473, "create_time": "NOW()", "longitude": 121.5998260706916, "latitude": 38.97012000936366, "official_coord": 0, "region_id_1": "210000", "region_id_2": "210200", "region_id_3": "210211"}, {"name": "幸福家居世界箭牌瓷砖专卖店", "address": "沙河口区五一路幸福家居世界一楼西区六号", "phone_number": "0411-84588539", "id": 111626, "preview_image": "brands_images/full/473.jpg", "brand_id": 473, "create_time": "NOW()", "longitude": 121.58488026944505, "latitude": 38.91136796576424, "official_coord": 0, "region_id_1": "210000", "region_id_2": "210200", "region_id_3": "210204"}, {"name": "普兰店箭牌瓷砖专卖店", "address": "大连市普湾新区文化路167号", "phone_number": "13204056688", "id": 111627, "preview_image": "brands_images/full/473.jpg", "brand_id": 473, "create_time": "NOW()", "longitude": 121.97666530593052, "latitude": 39.40502610004684, "official_coord": 0, "region_id_1": 0, "region_id_2": 0, "region_id_3": 0}, {"name": "箭牌瓷砖专卖店", "address": "西工区九都路欧亚达建材家居广场A0-1-2", "phone_number": "0379-63153222", "id": 111628, "preview_image": "brands_images/full/473.jpg", "brand_id": 473, "create_time": "NOW()", "longitude": 112.437245296402, "latitude": 34.664385987768895, "official_coord": 0, "region_id_1": "410000", "region_id_2": "410300", "region_id_3": "410303"}, {"name": "箭牌卫浴・瓷砖上品生活馆（综合店）", "address": "中牟县商都大街与官渡大街交叉口商都路北侧（消防队西邻）", "phone_number": "0371-62119333", "id": 111629, "preview_image": "brands_images/full/473.jpg", "brand_id": 473, "create_time": "NOW()", "longitude": 114.01004630751325, "latitude": 34.729763284588834, "official_coord": 0, "region_id_1": "410000", "region_id_2": "410100", "region_id_3": "410122"}, {"name": "箭牌卫浴・瓷砖上品生活馆（综合店）", "address": "郑州市巩义市建设路西紫荆花园对面", "phone_number": "0371-64369699", "id": 111630, "preview_image": "brands_images/full/473.jpg", "brand_id": 473, "create_time": "NOW()", "longitude": 112.99440490722063, "latitude": 34.75830245493796, "official_coord": 0, "region_id_1": "410000", "region_id_2": "410100", "region_id_3": "410181"}, {"name": "箭牌卫浴・瓷砖上品生活馆（综合店）", "address": "郑州市新郑华南城", "phone_number": "0371-63208516", "id": 111631, "preview_image": "brands_images/full/473.jpg", "brand_id": 473, "create_time": "NOW()", "longitude": 113.73509109066988, "latitude": 34.61507367773022, "official_coord": 0, "region_id_1": "410000", "region_id_2": "410100", "region_id_3": "410184"}, {"name": "箭牌卫浴・瓷砖上品生活馆（综合店）", "address": "郑州市商都路居然之家一楼1-051", "phone_number": "13323836983", "id": 111632, "preview_image": "brands_images/full/473.jpg", "brand_id": 473, "create_time": "NOW()", "longitude": 113.74149910620264, "latitude": 34.75513624745796, "official_coord": 0, "region_id_1": "410000", "region_id_2": "410100", "region_id_3": "410105"}, {"name": "箭牌瓷砖专卖店", "address": "郑州市管城区郑汴路125号凤凰城北楼一楼西区北56-64号", "phone_number": "0371-86085659", "id": 111633, "preview_image": "brands_images/full/473.jpg", "brand_id": 473, "create_time": "NOW()", "longitude": 113.71919602839603, "latitude": 34.752106751488114, "official_coord": 0, "region_id_1": "410000", "region_id_2": "410100", "region_id_3": "410105"}, {"name": "箭牌卫浴・瓷砖上品生活馆（综合店）", "address": "焦作市解放区建设路物资城名优陶瓷洁具广场一楼101房", "phone_number": "0391－3883888", "id": 111634, "preview_image": "brands_images/full/473.jpg", "brand_id": 473, "create_time": "NOW()", "longitude": 113.24796046204094, "latitude": 35.2407084192315, "official_coord": 0, "region_id_1": "410000", "region_id_2": "410800", "region_id_3": "410802"}, {"name": "箭牌卫浴瓷砖专卖店", "address": "济源市中原国际商贸城C2-1栋四友厨卫", "phone_number": "0391-5577777", "id": 111635, "preview_image": "brands_images/full/473.jpg", "brand_id": 473, "create_time": "NOW()", "longitude": 112.55656118403051, "latitude": 35.10350359763828, "official_coord": 0, "region_id_1": "410000", "region_id_2": "419000", "region_id_3": "419001"}, {"name": "箭牌瓷砖专卖店", "address": "安阳市紫薇大道装潢材料市场A区东厅", "phone_number": "0372-2588191", "id": 111636, "preview_image": "brands_images/full/473.jpg", "brand_id": 473, "create_time": "NOW()", "longitude": 114.38624350323725, "latitude": 36.106322251281064, "official_coord": 0, "region_id_1": "410000", "region_id_2": "410500", "region_id_3": "410502"}, {"name": "兰考箭牌瓷砖专卖店", "address": "开封市兰考县文明路西段城建所东邻太平洋建材", "phone_number": "37126926766", "id": 111637, "preview_image": "brands_images/full/473.jpg", "brand_id": 473, "create_time": "NOW()", "longitude": 114.81076433525641, "latitude": 34.827185492667695, "official_coord": 0, "region_id_1": "410000", "region_id_2": "410200", "region_id_3": "410225"}, {"name": "光彩大市场箭牌瓷砖专卖店", "address": "新乡市卫滨区光彩大市场西门", "phone_number": "0373-5052788", "id": 111638, "preview_image": "brands_images/full/473.jpg", "brand_id": 473, "create_time": "NOW()", "longitude": 113.89000374151803, "latitude": 35.27771096396116, "official_coord": 0, "region_id_1": "410000", "region_id_2": "410700", "region_id_3": "410703"}, {"name": "箭牌卫浴・瓷砖上品生活馆（综合店）", "address": "濮阳市黄河路丽都商业街义乌商贸城西门对面", "phone_number": "0393-8200688", "id": 111639, "preview_image": "brands_images/full/473.jpg", "brand_id": 473, "create_time": "NOW()", "longitude": 115.06662062834293, "latitude": 35.78058318532203, "official_coord": 0, "region_id_1": "410000", "region_id_2": "410900", "region_id_3": "410902"}, {"name": "箭牌卫浴・瓷砖上品生活馆（综合店）", "address": "鹤壁市万隆商城建材市场对面", "phone_number": "0392-6919681", "id": 111640, "preview_image": "brands_images/full/473.jpg", "brand_id": 473, "create_time": "NOW()", "longitude": 114.29776983802476, "latitude": 35.75542587422399, "official_coord": 0, "region_id_1": "410000", "region_id_2": "410600", "region_id_3": "410611"}, {"name": "箭牌卫浴・瓷砖上品生活馆（综合店）", "address": "商丘八一路建材市场", "phone_number": "18837010888", "id": 111641, "preview_image": "brands_images/full/473.jpg", "brand_id": 473, "create_time": "NOW()", "longitude": 115.65357669502994, "latitude": 34.43761755455031, "official_coord": 0, "region_id_1": "410000", "region_id_2": "411400", "region_id_3": "411402"}, {"name": "信阳箭牌瓷砖专卖店", "address": "信阳国际商城居然之家信阳店", "phone_number": "13503765361", "id": 111642, "preview_image": "brands_images/full/473.jpg", "brand_id": 473, "create_time": "NOW()", "longitude": 114.13671007109977, "latitude": 32.13652626363657, "official_coord": 0, "region_id_1": "410000", "region_id_2": "411500", "region_id_3": "411503"}, {"name": "箭牌瓷砖专卖店", "address": "信阳市国际建材市场", "phone_number": "13503765361", "id": 111643, "preview_image": "brands_images/full/473.jpg", "brand_id": 473, "create_time": "NOW()", "longitude": 114.06057000329412, "latitude": 32.150548768089855, "official_coord": 0, "region_id_1": "410000", "region_id_2": "411500", "region_id_3": "411502"}, {"name": "罗山箭牌瓷砖专卖店", "address": "信阳市罗山县新区灵山大道", "phone_number": "13683767958", "id": 111644, "preview_image": "brands_images/full/473.jpg", "brand_id": 473, "create_time": "NOW()", "longitude": 114.52491996746699, "latitude": 32.20273342273988, "official_coord": 0, "region_id_1": "410000", "region_id_2": "411500", "region_id_3": "411521"}, {"name": "扶沟箭牌瓷砖专卖店", "address": "万港路口西200米", "phone_number": "18239416666", "id": 111645, "preview_image": "brands_images/full/473.jpg", "brand_id": 473, "create_time": "NOW()", "longitude": 123.03278049880403, "latitude": 49.07585558465927, "official_coord": 0, "region_id_1": "150000", "region_id_2": "150700", "region_id_3": "150721"}, {"name": "太康箭牌瓷砖专卖店", "address": "支农路西段", "phone_number": "18903878988", "id": 111646, "preview_image": "brands_images/full/473.jpg", "brand_id": 473, "create_time": "NOW()", "longitude": 114.85667774619873, "latitude": 34.07401645050611, "official_coord": 0, "region_id_1": "410000", "region_id_2": "411600", "region_id_3": "411627"}, {"name": "箭牌卫浴・瓷砖上品生活馆（综合店）", "address": "项城市湖滨路绿源小区路口", "phone_number": "18903878988", "id": 111647, "preview_image": "brands_images/full/473.jpg", "brand_id": 473, "create_time": "NOW()", "longitude": 114.88072663763342, "latitude": 33.4474843817751, "official_coord": 0, "region_id_1": "410000", "region_id_2": "411600", "region_id_3": "411681"}, {"name": "箭牌卫浴・瓷砖上品生活馆（综合店）", "address": "周口市工农路南段", "phone_number": "18903878988", "id": 111648, "preview_image": "brands_images/full/473.jpg", "brand_id": 473, "create_time": "NOW()", "longitude": 114.67027121015677, "latitude": 33.61095286794315, "official_coord": 0, "region_id_1": "410000", "region_id_2": "411600", "region_id_3": "411602"}, {"name": "箭牌瓷砖生活馆（专卖店）", "address": "禹州市浙江商博城", "phone_number": "15836578882", "id": 111649, "preview_image": "brands_images/full/473.jpg", "brand_id": 473, "create_time": "NOW()", "longitude": 113.52225308708456, "latitude": 34.16324414578762, "official_coord": 0, "region_id_1": "410000", "region_id_2": "411000", "region_id_3": "411081"}, {"name": "箭牌卫浴・瓷砖上品生活馆（综合店）", "address": "漯河市柳江路", "phone_number": "18803958788", "id": 111650, "preview_image": "brands_images/full/473.jpg", "brand_id": 473, "create_time": "NOW()", "longitude": 114.02202841498884, "latitude": 33.564565351060246, "official_coord": 0, "region_id_1": "410000", "region_id_2": "411100", "region_id_3": "411102"}, {"name": "南阳西峡箭牌瓷砖专卖店", "address": "西峡县建材市场", "phone_number": "13803777868", "id": 111651, "preview_image": "brands_images/full/473.jpg", "brand_id": 473, "create_time": "NOW()", "longitude": 111.49427528308378, "latitude": 33.30947951953969, "official_coord": 0, "region_id_1": "410000", "region_id_2": "411300", "region_id_3": "411323"}, {"name": "南阳定州箭牌瓷砖专卖店", "address": "定州市建材一条街", "phone_number": "13603778760", "id": 111652, "preview_image": "brands_images/full/473.jpg", "brand_id": 473, "create_time": "NOW()", "longitude": 114.75437594740734, "latitude": 38.620738463887655, "official_coord": 0, "region_id_1": "130000", "region_id_2": "130600", "region_id_3": "130634"}, {"name": "箭牌卫浴・瓷砖上品生活馆（综合店）", "address": "南阳市百里奚陶瓷市场", "phone_number": "13803777868", "id": 111653, "preview_image": "brands_images/full/473.jpg", "brand_id": 473, "create_time": "NOW()", "longitude": 112.51999353335229, "latitude": 33.01280934896841, "official_coord": 0, "region_id_1": "410000", "region_id_2": "411300", "region_id_3": "411303"}, {"name": "箭牌瓷砖专卖店", "address": "许昌亚欧建材城", "phone_number": "13598982631", "id": 111654, "preview_image": "brands_images/full/473.jpg", "brand_id": 473, "create_time": "NOW()", "longitude": 113.85975884251368, "latitude": 33.99526568250147, "official_coord": 0, "region_id_1": 0, "region_id_2": 0, "region_id_3": 0}, {"name": "箭牌上品生活馆（综合店）", "address": "许昌长江建材城", "phone_number": "13598982631", "id": 111655, "preview_image": "brands_images/full/473.jpg", "brand_id": 473, "create_time": "NOW()", "longitude": 113.79102346790664, "latitude": 34.06313039983895, "official_coord": 0, "region_id_1": "410000", "region_id_2": "411000", "region_id_3": "411002"}, {"name": "箭牌卫浴・瓷砖上品生活馆（综合店）", "address": "鲁山人民路家乐家建材超市", "phone_number": "13703752571", "id": 111656, "preview_image": "brands_images/full/473.jpg", "brand_id": 473, "create_time": "NOW()", "longitude": 112.92945819056368, "latitude": 33.75613721615154, "official_coord": 0, "region_id_1": "410000", "region_id_2": "410400", "region_id_3": "410423"}, {"name": "箭牌瓷砖专卖店", "address": "叶县新文化路中段实验小学对面", "phone_number": "13703752571", "id": 111657, "preview_image": "brands_images/full/473.jpg", "brand_id": 473, "create_time": "NOW()", "longitude": 113.36890737793742, "latitude": 33.62928774297459, "official_coord": 0, "region_id_1": "410000", "region_id_2": "410400", "region_id_3": "410422"}, {"name": "舞钢箭牌瓷砖专卖店", "address": "平顶山舞钢市干休一街金叶大厦", "phone_number": "2147483647", "id": 111658, "preview_image": "brands_images/full/473.jpg", "brand_id": 473, "create_time": "NOW()", "longitude": 113.53984256738183, "latitude": 33.33607607776691, "official_coord": 0, "region_id_1": "410000", "region_id_2": "410400", "region_id_3": "410481"}, {"name": "箭牌瓷砖专卖店", "address": "平顶山平西建材城", "phone_number": "13703752571", "id": 111659, "preview_image": "brands_images/full/473.jpg", "brand_id": 473, "create_time": "NOW()", "longitude": 113.29137495226244, "latitude": 33.74480017074025, "official_coord": 0, "region_id_1": "130000", "region_id_2": "130100", "region_id_3": "130105"}, {"name": "库尔勒箭牌瓷砖专卖店", "address": "库尔勒华凌市场一楼", "phone_number": "15276247518", "id": 111660, "preview_image": "brands_images/full/473.jpg", "brand_id": 473, "create_time": "NOW()", "longitude": 86.15542780837377, "latitude": 41.789824111944064, "official_coord": 0, "region_id_1": "650000", "region_id_2": "652800", "region_id_3": "652801"}, {"name": "乌鲁木齐塔城箭牌瓷砖专卖店", "address": "新疆塔城地区华宝建材市场", "phone_number": "13809947311", "id": 111661, "preview_image": "brands_images/full/473.jpg", "brand_id": 473, "create_time": "NOW()", "longitude": 82.98556763478115, "latitude": 46.75411428550396, "official_coord": 0, "region_id_1": "650000", "region_id_2": "654200", "region_id_3": "654201"}, {"name": "乌鲁木齐箭牌瓷砖专卖店", "address": "乌鲁木齐华凌建材市场负一层", "phone_number": "13809947311", "id": 111662, "preview_image": "brands_images/full/473.jpg", "brand_id": 473, "create_time": "NOW()", "longitude": 87.60763513345788, "latitude": 43.822278890108784, "official_coord": 0, "region_id_1": "650000", "region_id_2": "650100", "region_id_3": "650105"}, {"name": "伊宁箭牌瓷砖专卖店", "address": "伊宁市新月湾建材市场", "phone_number": "13309992380", "id": 111663, "preview_image": "brands_images/full/473.jpg", "brand_id": 473, "create_time": "NOW()", "longitude": 81.40461738665485, "latitude": 43.93423003452905, "official_coord": 0, "region_id_1": "650000", "region_id_2": "654000", "region_id_3": "654002"}, {"name": "盐池县箭牌瓷砖", "address": "盐池县永青苑沿街", "phone_number": "18709690233", "id": 111664, "preview_image": "brands_images/full/473.jpg", "brand_id": 473, "create_time": "NOW()", "longitude": 107.41081103489367, "latitude": 37.77888697022038, "official_coord": 0, "region_id_1": "640000", "region_id_2": "640300", "region_id_3": "640323"}, {"name": "银川箭牌瓷砖专卖店", "address": "银川市美德亨建材市场", "phone_number": "9515121303", "id": 111665, "preview_image": "brands_images/full/473.jpg", "brand_id": 473, "create_time": "NOW()", "longitude": 106.30197670003851, "latitude": 38.45828730457034, "official_coord": 0, "region_id_1": "640000", "region_id_2": "640100", "region_id_3": "640104"}, {"name": "佳木斯瓷砖店（专卖店）", "address": "佳木斯市凯联家居市场", "phone_number": "4548686320", "id": 111666, "preview_image": "brands_images/full/473.jpg", "brand_id": 473, "create_time": "NOW()", "longitude": 130.3557600323958, "latitude": 46.80129529089397, "official_coord": 0, "region_id_1": "140000", "region_id_2": "140300", "region_id_3": "140311"}, {"name": "绥化二店（综合店）", "address": "绥化市大世界建材市场", "phone_number": "13339451188", "id": 111667, "preview_image": "brands_images/full/473.jpg", "brand_id": 473, "create_time": "NOW()", "longitude": 126.98280404916156, "latitude": 46.64169178238663, "official_coord": 0, "region_id_1": "230000", "region_id_2": "231200", "region_id_3": "231202"}, {"name": "箭牌瓷砖专卖店", "address": "宁安市建材市场", "phone_number": "13936563206", "id": 111668, "preview_image": "brands_images/full/473.jpg", "brand_id": 473, "create_time": "NOW()", "longitude": 102.59256939281887, "latitude": 24.960614746432427, "official_coord": 0, "region_id_1": "530000", "region_id_2": "530100", "region_id_3": "530181"}, {"name": "密山箭牌瓷砖专卖店", "address": "密山建材市场", "phone_number": "4672436678", "id": 111669, "preview_image": "brands_images/full/473.jpg", "brand_id": 473, "create_time": "NOW()", "longitude": 131.8792575923521, "latitude": 45.55266841090671, "official_coord": 0, "region_id_1": "230000", "region_id_2": "230300", "region_id_3": "230382"}, {"name": "箭牌瓷砖专卖店", "address": "大庆市正大方盛商场1楼", "phone_number": "13904510481", "id": 111670, "preview_image": "brands_images/full/473.jpg", "brand_id": 473, "create_time": "NOW()", "longitude": 125.12723816770354, "latitude": 46.58443138179719, "official_coord": 0, "region_id_1": "230000", "region_id_2": "230600", "region_id_3": "230603"}, {"name": "箭牌瓷砖专卖店", "address": "同江大商商场4楼", "phone_number": 0, "id": 111671, "preview_image": "brands_images/full/473.jpg", "brand_id": 473, "create_time": "NOW()", "longitude": 132.51872673197306, "latitude": 47.65702001270532, "official_coord": 0, "region_id_1": "230000", "region_id_2": "230800", "region_id_3": "230881"}, {"name": "肇州箭牌专卖店", "address": "肇州县民政街", "phone_number": "0459-8544199", "id": 111672, "preview_image": "brands_images/full/473.jpg", "brand_id": 473, "create_time": "NOW()", "longitude": 125.28574441795926, "latitude": 45.70946834539657, "official_coord": 0, "region_id_1": "230000", "region_id_2": "230600", "region_id_3": "230621"}, {"name": "五常箭牌瓷砖专卖店", "address": "五常亚臣路", "phone_number": "座机 0451――87808013  手机18686874086", "id": 111673, "preview_image": "brands_images/full/473.jpg", "brand_id": 473, "create_time": "NOW()", "longitude": 127.17085490653605, "latitude": 44.92378788766588, "official_coord": 0, "region_id_1": "230000", "region_id_2": "230100", "region_id_3": "230184"}, {"name": "尚志箭牌瓷砖专卖店", "address": "尚志腾飞大桥西南门", "phone_number": "座机 0451――87808013  手机18686874086", "id": 111674, "preview_image": "brands_images/full/473.jpg", "brand_id": 473, "create_time": "NOW()", "longitude": 127.9829437148572, "latitude": 45.21969763047304, "official_coord": 0, "region_id_1": "230000", "region_id_2": "230100", "region_id_3": "230183"}, {"name": "巴彦箭牌瓷砖专卖店", "address": "巴彦市松江路", "phone_number": "座机 0451――87808013  手机18686874086", "id": 111675, "preview_image": "brands_images/full/473.jpg", "brand_id": 473, "create_time": "NOW()", "longitude": 127.39538439906093, "latitude": 46.08510114466347, "official_coord": 0, "region_id_1": "230000", "region_id_2": "230100", "region_id_3": "230126"}, {"name": "箭牌上品生活馆（综合店）", "address": "哈尔滨太古街618号", "phone_number": "座机 0451――87808013  手机18686874086", "id": 111676, "preview_image": "brands_images/full/473.jpg", "brand_id": 473, "create_time": "NOW()", "longitude": 126.65900261263683, "latitude": 45.78762220009285, "official_coord": 0, "region_id_1": "230000", "region_id_2": "230100", "region_id_3": "230104"}, {"name": "箭牌卫浴・瓷砖上品生活馆（综合店）", "address": "哈尔滨禧龙建材市场", "phone_number": "座机 0451――87808013  手机18686874086", "id": 111677, "preview_image": "brands_images/full/473.jpg", "brand_id": 473, "create_time": "NOW()", "longitude": 126.75832478458373, "latitude": 45.779960197199955, "official_coord": 0, "region_id_1": "230000", "region_id_2": "230100", "region_id_3": "230104"}, {"name": "箭牌瓷砖真石馆", "address": "哈尔滨禧龙建材市场", "phone_number": "座机 0451――87808013  手机18686874086", "id": 111678, "preview_image": "brands_images/full/473.jpg", "brand_id": 473, "create_time": "NOW()", "longitude": 126.75832478458373, "latitude": 45.779960197199955, "official_coord": 0, "region_id_1": "230000", "region_id_2": "230100", "region_id_3": "230104"}, {"name": "华美太古广场专卖店", "address": "华美太古广场", "phone_number": "座机 0451――87808013  手机18686874086", "id": 111679, "preview_image": "brands_images/full/473.jpg", "brand_id": 473, "create_time": "NOW()", "longitude": 126.64168633987306, "latitude": 45.851826988044934, "official_coord": 0, "region_id_1": "230000", "region_id_2": "230100", "region_id_3": "230109"}, {"name": "哈尔滨先锋店（专卖店）", "address": "先锋路居然之家", "phone_number": "座机 0451――87808013  手机18686874086", "id": 111680, "preview_image": "brands_images/full/473.jpg", "brand_id": 473, "create_time": "NOW()", "longitude": 126.69077082154564, "latitude": 45.77282698471892, "official_coord": 0, "region_id_1": "230000", "region_id_2": "230100", "region_id_3": "230104"}, {"name": "牡丹江箭牌瓷砖专卖店", "address": "牡丹江开发区会展中心对面", "phone_number": "座机 0451――87808013  手机18686874086", "id": 111681, "preview_image": "brands_images/full/473.jpg", "brand_id": 473, "create_time": "NOW()", "longitude": 129.608035395637, "latitude": 44.58852115278252, "official_coord": 0, "region_id_1": "220000", "region_id_2": "220400", "region_id_3": "220403"}, {"name": "哈尔滨海城店（专卖店）", "address": "哈尔滨海城建材卖场箭牌瓷砖店", "phone_number": "座机 0451――87808013  手机18686874086", "id": 111682, "preview_image": "brands_images/full/473.jpg", "brand_id": 473, "create_time": "NOW()", "longitude": 126.65349770749661, "latitude": 45.75304705565797, "official_coord": 0, "region_id_1": "230000", "region_id_2": "230100", "region_id_3": "230103"}, {"name": "蛟河箭牌瓷砖专卖店", "address": "蛟河县飞龙装修市场", "phone_number": "13664447796", "id": 111683, "preview_image": "brands_images/full/473.jpg", "brand_id": 473, "create_time": "NOW()", "longitude": 127.3347227325923, "latitude": 43.72345332564191, "official_coord": 0, "region_id_1": "220000", "region_id_2": "220200", "region_id_3": "220281"}, {"name": "吉林红星美凯龙箭牌瓷砖专卖店", "address": "吉林红星美凯龙", "phone_number": "13704303610", "id": 111684, "preview_image": "brands_images/full/473.jpg", "brand_id": 473, "create_time": "NOW()", "longitude": 125.93767996792721, "latitude": 41.707383191523796, "official_coord": 0, "region_id_1": "220000", "region_id_2": "220500", "region_id_3": "220502"}, {"name": "延吉箭牌瓷砖专卖店", "address": "延吉市长白山路与昌盛街交汇处", "phone_number": "18944733567", "id": 111685, "preview_image": "brands_images/full/473.jpg", "brand_id": 473, "create_time": "NOW()", "longitude": 129.4994641556548, "latitude": 42.89918246480746, "official_coord": 0, "region_id_1": "220000", "region_id_2": "222400", "region_id_3": "222401"}, {"name": "松原箭牌瓷砖专卖店（分销）", "address": "松原红星美凯龙西门前", "phone_number": "13404481968", "id": 111686, "preview_image": "brands_images/full/473.jpg", "brand_id": 473, "create_time": "NOW()", "longitude": 124.83035003073117, "latitude": 45.140253538718575, "official_coord": 0, "region_id_1": "220000", "region_id_2": "220700", "region_id_3": "220702"}, {"name": "北京定慧寺集美箭牌瓷砖", "address": "北京市海淀区定慧寺集美家居中央1厅", "phone_number": 0, "id": 111687, "preview_image": "brands_images/full/473.jpg", "brand_id": 473, "create_time": "NOW()", "longitude": 116.28425395880502, "latitude": 39.927685867820436, "official_coord": 0, "region_id_1": "110000", "region_id_2": "110100", "region_id_3": "110108"}, {"name": "杜家砍集美箭牌瓷砖专卖店", "address": "北京市杜家砍集美家居建材市场", "phone_number": 0, "id": 111688, "preview_image": "brands_images/full/473.jpg", "brand_id": 473, "create_time": "NOW()", "longitude": 116.42713891041409, "latitude": 40.03918728288497, "official_coord": 0, "region_id_1": "110000", "region_id_2": "110100", "region_id_3": "110105"}, {"name": "轻舟装饰专卖店", "address": "朝阳路周家井北岸1292,轻舟装饰5层", "phone_number": "13031165550", "id": 111689, "preview_image": "brands_images/full/473.jpg", "brand_id": 473, "create_time": "NOW()", "longitude": 116.58767723640217, "latitude": 39.91918258886316, "official_coord": 0, "region_id_1": "110000", "region_id_2": "110100", "region_id_3": "110105"}, {"name": "合建装饰专卖店", "address": "北京朝阳区亚运村小营东路凯基伦大夏6层箭牌瓷砖", "phone_number": "13031165871", "id": 111690, "preview_image": "brands_images/full/473.jpg", "brand_id": 473, "create_time": "NOW()", "longitude": 116.44381938050948, "latitude": 39.99689294544418, "official_coord": 0, "region_id_1": "110000", "region_id_2": "110100", "region_id_3": "110105"}, {"name": "八角居然", "address": "北京石景山阜石路168号居然之家1层033号", "phone_number": "010-88785091/15601256702", "id": 111691, "preview_image": "brands_images/full/473.jpg", "brand_id": 473, "create_time": "NOW()", "longitude": 116.20654244314564, "latitude": 39.92822870813542, "official_coord": 0, "region_id_1": "110000", "region_id_2": "110100", "region_id_3": "110107"}, {"name": "顺义居然之家专卖店", "address": "北京市顺义区顺西南中端居然之家1-1-008", "phone_number": "010-89418007", "id": 111692, "preview_image": "brands_images/full/473.jpg", "brand_id": 473, "create_time": "NOW()", "longitude": 116.20749125770507, "latitude": 39.92886092168133, "official_coord": 0, "region_id_1": "110000", "region_id_2": "110100", "region_id_3": "110107"}, {"name": "玉泉营居然专卖店", "address": "北京市南三环玉泉营居然之家1-023", "phone_number": "010-83679157/13031165955", "id": 111693, "preview_image": "brands_images/full/473.jpg", "brand_id": 473, "create_time": "NOW()", "longitude": 116.34988643683421, "latitude": 39.852502321431395, "official_coord": 0, "region_id_1": "110000", "region_id_2": "110100", "region_id_3": "110106"}, {"name": "集美大红门", "address": "北京集美大红门店", "phone_number": "15601256592", "id": 111694, "preview_image": "brands_images/full/473.jpg", "brand_id": 473, "create_time": "NOW()", "longitude": 116.39790292719975, "latitude": 39.83997318278031, "official_coord": 0, "region_id_1": "110000", "region_id_2": "110100", "region_id_3": "110106"}, {"name": "闽龙广场专卖店", "address": "北京市朝阳区十里河建材一条街大羊坊路闽龙广场2-026", "phone_number": "010-87354430/15699796616", "id": 111695, "preview_image": "brands_images/full/473.jpg", "brand_id": 473, "create_time": "NOW()", "longitude": 116.48276503298902, "latitude": 39.86142726717746, "official_coord": 0, "region_id_1": "110000", "region_id_2": "110100", "region_id_3": "110105"}, {"name": "北五红星美凯龙", "address": "来广营西路59号红星美凯龙", "phone_number": 0, "id": 111696, "preview_image": "brands_images/full/473.jpg", "brand_id": 473, "create_time": "NOW()", "longitude": 116.44520857211697, "latitude": 40.02994259559993, "official_coord": 0, "region_id_1": "110000", "region_id_2": "110100", "region_id_3": "110105"}, {"name": "城外诚家居广场专卖店", "address": "北京市朝阳区南四环城外诚家居广场建材厅北广场C-1-111", "phone_number": "010-87634463/15601256621", "id": 111697, "preview_image": "brands_images/full/473.jpg", "brand_id": 473, "create_time": "NOW()", "longitude": 116.45706900338995, "latitude": 39.840661569665116, "official_coord": 0, "region_id_1": "110000", "region_id_2": "110100", "region_id_3": "110105"}, {"name": "东五环红星美凯龙专卖店", "address": "北京市朝阳区东五环朝阳路高井红星美凯龙二层B8007", "phone_number": "010-85596602/15699987708", "id": 111698, "preview_image": "brands_images/full/473.jpg", "brand_id": 473, "create_time": "NOW()", "longitude": 116.54639876149437, "latitude": 39.92093672780263, "official_coord": 0, "region_id_1": "110000", "region_id_2": "110100", "region_id_3": "110105"}, {"name": "重庆市涪陵专卖店", "address": "重庆市涪陵区兴华西路", "phone_number": "13996305555", "id": 111699, "preview_image": "brands_images/full/473.jpg", "brand_id": 473, "create_time": "NOW()", "longitude": 107.38063269346505, "latitude": 29.71217290147677, "official_coord": 0, "region_id_1": "500000", "region_id_2": "500100", "region_id_3": "500102"}, {"name": "重庆重庆璧山专卖店", "address": "璧山大红鼎建材市场", "phone_number": "15823128128", "id": 111700, "preview_image": "brands_images/full/473.jpg", "brand_id": 473, "create_time": "NOW()", "longitude": 106.24132456825579, "latitude": 29.561008171983616, "official_coord": 0, "region_id_1": "500000", "region_id_2": "500100", "region_id_3": "500120"}, {"name": "重庆重庆铜梁专卖店", "address": "重庆嘉乐惠建材市场", "phone_number": "15320216688", "id": 111701, "preview_image": "brands_images/full/473.jpg", "brand_id": 473, "create_time": "NOW()", "longitude": 106.08392945163399, "latitude": 29.819070538166823, "official_coord": 0, "region_id_1": "500000", "region_id_2": "500100", "region_id_3": "500151"}, {"name": "重庆重庆永川专卖店", "address": "重庆永川家博城", "phone_number": "13808317016", "id": 111702, "preview_image": "brands_images/full/473.jpg", "brand_id": 473, "create_time": "NOW()", "longitude": 105.92857584555102, "latitude": 29.35839128716923, "official_coord": 0, "region_id_1": "500000", "region_id_2": "500100", "region_id_3": "500118"}, {"name": "重庆重庆江津专卖店", "address": "重庆江津区东部新城聚兴建材市场", "phone_number": "18983491777", "id": 111703, "preview_image": "brands_images/full/473.jpg", "brand_id": 473, "create_time": "NOW()", "longitude": 106.28160867748838, "latitude": 29.2794704617748, "official_coord": 0, "region_id_1": "500000", "region_id_2": "500100", "region_id_3": "500116"}, {"name": "重庆重庆荣昌专卖店", "address": "重庆荣昌县汇宇建材市场", "phone_number": "13340299009", "id": 111704, "preview_image": "brands_images/full/473.jpg", "brand_id": 473, "create_time": "NOW()", "longitude": 105.61993935696941, "latitude": 29.409653848273127, "official_coord": 0, "region_id_1": 0, "region_id_2": 0, "region_id_3": 0}, {"name": "重庆重庆梁平专卖店", "address": "重庆梁坪建材市场", "phone_number": "13594419248", "id": 111705, "preview_image": "brands_images/full/473.jpg", "brand_id": 473, "create_time": "NOW()", "longitude": 106.53063501341296, "latitude": 29.54460610888615, "official_coord": 0, "region_id_1": "500000", "region_id_2": "500100", "region_id_3": "500103"}, {"name": "重庆重庆园博园居然之家", "address": "重庆市渝北区园博园居然之家", "phone_number": "13896126248", "id": 111706, "preview_image": "brands_images/full/473.jpg", "brand_id": 473, "create_time": "NOW()", "longitude": 106.5708515876954, "latitude": 29.67750752796543, "official_coord": 0, "region_id_1": "500000", "region_id_2": "500100", "region_id_3": "500112"}, {"name": "重庆重庆云阳专卖店", "address": "云阳亿联建材市场", "phone_number": "15312033117", "id": 111707, "preview_image": "brands_images/full/473.jpg", "brand_id": 473, "create_time": "NOW()", "longitude": 108.72744623381763, "latitude": 30.963300814062062, "official_coord": 0, "region_id_1": "500000", "region_id_2": "500100", "region_id_3": "500235"}, {"name": "重庆重庆大足专卖店", "address": "重庆市大足居然之家箭牌瓷砖专卖店", "phone_number": "13883222198", "id": 111708, "preview_image": "brands_images/full/473.jpg", "brand_id": 473, "create_time": "NOW()", "longitude": 105.73882803520426, "latitude": 29.669240889497406, "official_coord": 0, "region_id_1": "500000", "region_id_2": "500100", "region_id_3": "500111"}, {"name": "重庆重庆九龙坡区箭牌瓷砖专卖店", "address": "重庆九龙坡区美每家建材市场", "phone_number": "15102335447", "id": 111709, "preview_image": "brands_images/full/473.jpg", "brand_id": 473, "create_time": "NOW()", "longitude": 106.44462836742535, "latitude": 29.436940219960448, "official_coord": 0, "region_id_1": "500000", "region_id_2": "500100", "region_id_3": "500107"}, {"name": "重庆重庆潼南专卖店", "address": "潼南县城三十米大街", "phone_number": "13637884894", "id": 111710, "preview_image": "brands_images/full/473.jpg", "brand_id": 473, "create_time": "NOW()", "longitude": 105.843481758001, "latitude": 30.17445494687031, "official_coord": 0, "region_id_1": 0, "region_id_2": 0, "region_id_3": 0}, {"name": "重庆广安专卖店", "address": "广安泰合建材市场", "phone_number": "15882576721", "id": 111711, "preview_image": "brands_images/full/473.jpg", "brand_id": 473, "create_time": "NOW()", "longitude": 106.6080474826363, "latitude": 30.44716974261209, "official_coord": 0, "region_id_1": "510000", "region_id_2": "511600", "region_id_3": "511602"}, {"name": "重庆营山箭牌瓷砖专卖店", "address": "营山博美装饰城", "phone_number": "18508290858", "id": 111712, "preview_image": "brands_images/full/473.jpg", "brand_id": 473, "create_time": "NOW()", "longitude": 106.55112322193695, "latitude": 31.075850520623685, "official_coord": 0, "region_id_1": "510000", "region_id_2": "511300", "region_id_3": "511322"}, {"name": "重庆西昌专卖店", "address": "昌平建材市场", "phone_number": "13908212815", "id": 111713, "preview_image": "brands_images/full/473.jpg", "brand_id": 473, "create_time": "NOW()", "longitude": 116.45081890175662, "latitude": 40.07665293944139, "official_coord": 0, "region_id_1": "110000", "region_id_2": "110100", "region_id_3": "110114"}, {"name": "重庆绵阳专卖店", "address": "绵阳绵州装饰城", "phone_number": "15928213788", "id": 111714, "preview_image": "brands_images/full/473.jpg", "brand_id": 473, "create_time": "NOW()", "longitude": 104.74093726704321, "latitude": 31.491749410621967, "official_coord": 0, "region_id_1": "510000", "region_id_2": "510700", "region_id_3": "510703"}, {"name": "重庆绵阳江油专卖店", "address": "江油恒大建材", "phone_number": "15228738955", "id": 111715, "preview_image": "brands_images/full/473.jpg", "brand_id": 473, "create_time": "NOW()", "longitude": 104.72513945627254, "latitude": 31.75202545748569, "official_coord": 0, "region_id_1": "510000", "region_id_2": "510700", "region_id_3": "510781"}, {"name": "重庆宜宾专卖店", "address": "宜宾江北建材城", "phone_number": "13890954053", "id": 111716, "preview_image": "brands_images/full/473.jpg", "brand_id": 473, "create_time": "NOW()", "longitude": 104.61137407025372, "latitude": 28.803005658225747, "official_coord": 0, "region_id_1": "510000", "region_id_2": "511500", "region_id_3": "511502"}, {"name": "重庆达县专卖店", "address": "中青建材城", "phone_number": "13508250000", "id": 111717, "preview_image": "brands_images/full/473.jpg", "brand_id": 473, "create_time": "NOW()", "longitude": 107.51850797298346, "latitude": 31.175977887031163, "official_coord": 0, "region_id_1": 0, "region_id_2": 0, "region_id_3": 0}, {"name": "重庆南充市箭牌瓷砖专卖店", "address": "南充市友豪建材市场", "phone_number": "13811027851", "id": 111718, "preview_image": "brands_images/full/473.jpg", "brand_id": 473, "create_time": "NOW()", "longitude": 106.55112322193695, "latitude": 31.075850520623685, "official_coord": 0, "region_id_1": "510000", "region_id_2": "511300", "region_id_3": "511322"}, {"name": "重庆乐山峨眉山瓷砖专卖店", "address": "峨眉山博美建材市场", "phone_number": "13698380097", "id": 111719, "preview_image": "brands_images/full/473.jpg", "brand_id": 473, "create_time": "NOW()", "longitude": 103.49819455773391, "latitude": 29.606119039461337, "official_coord": 0, "region_id_1": "510000", "region_id_2": "511100", "region_id_3": "511181"}, {"name": "重庆乐山综合店", "address": "乐山东方家园", "phone_number": "13698380097", "id": 111720, "preview_image": "brands_images/full/473.jpg", "brand_id": 473, "create_time": "NOW()", "longitude": 103.74140518077935, "latitude": 29.600381299934938, "official_coord": 0, "region_id_1": "370000", "region_id_2": "370100", "region_id_3": "370103"}, {"name": "金沙居然之家瓷砖专卖店", "address": "金沙居然之家", "phone_number": "13811027851", "id": 111721, "preview_image": "brands_images/full/473.jpg", "brand_id": 473, "create_time": "NOW()", "longitude": 104.00860849160001, "latitude": 30.67951264414795, "official_coord": 0, "region_id_1": "510000", "region_id_2": "510100", "region_id_3": "510105"}, {"name": "崇州箭牌瓷砖专卖店", "address": "崇州箭牌瓷砖专卖店", "phone_number": "13811027851", "id": 111722, "preview_image": "brands_images/full/473.jpg", "brand_id": 473, "create_time": "NOW()", "longitude": 104.0696151412817, "latitude": 30.50077173620111, "official_coord": 0, "region_id_1": 0, "region_id_2": 0, "region_id_3": 0}, {"name": "资阳箭牌瓷砖专卖店", "address": "资阳箭牌瓷砖专卖店", "phone_number": "13811027851", "id": 111723, "preview_image": "brands_images/full/473.jpg", "brand_id": 473, "create_time": "NOW()", "longitude": 104.63856447584031, "latitude": 30.109633598186814, "official_coord": 0, "region_id_1": "510000", "region_id_2": "512000", "region_id_3": "512002"}, {"name": "大邑箭牌瓷砖专卖店", "address": "大邑箭牌瓷砖专卖店", "phone_number": "13811027851", "id": 111724, "preview_image": "brands_images/full/473.jpg", "brand_id": 473, "create_time": "NOW()", "longitude": 104.0696151412817, "latitude": 30.50077173620111, "official_coord": 0, "region_id_1": 0, "region_id_2": 0, "region_id_3": 0}, {"name": "内江箭牌瓷砖专卖店", "address": "内江箭牌瓷砖专卖店", "phone_number": "13811027851", "id": 111725, "preview_image": "brands_images/full/473.jpg", "brand_id": 473, "create_time": "NOW()", "longitude": 105.02743106517022, "latitude": 29.597227325249214, "official_coord": 0, "region_id_1": "370000", "region_id_2": "370100", "region_id_3": "370103"}, {"name": "龙泉箭牌瓷砖专卖店", "address": "龙泉箭牌瓷砖专卖店", "phone_number": "13811027851", "id": 111726, "preview_image": "brands_images/full/473.jpg", "brand_id": 473, "create_time": "NOW()", "longitude": 114.33776134434731, "latitude": 38.07851869806563, "official_coord": 0, "region_id_1": "130000", "region_id_2": "130100", "region_id_3": "130110"}, {"name": "巴中南江县专卖店", "address": "巴中市南江县亿联建材市场", "phone_number": "13811027851", "id": 111727, "preview_image": "brands_images/full/473.jpg", "brand_id": 473, "create_time": "NOW()", "longitude": 106.82672138943555, "latitude": 32.333543036241615, "official_coord": 0, "region_id_1": "510000", "region_id_2": "511900", "region_id_3": "511922"}, {"name": "成都业之峰装饰公司(专卖店）", "address": "成都市区业之峰装饰公司", "phone_number": "13811027851", "id": 111728, "preview_image": "brands_images/full/473.jpg", "brand_id": 473, "create_time": "NOW()", "longitude": 104.0626295584451, "latitude": 30.589403034199506, "official_coord": 0, "region_id_1": "510000", "region_id_2": "510100", "region_id_3": "510107"}, {"name": "成都邛崃市箭牌瓷砖专卖店", "address": "成都邛崃市朱牌坊街", "phone_number": "13811027851", "id": 111729, "preview_image": "brands_images/full/473.jpg", "brand_id": 473, "create_time": "NOW()", "longitude": 103.47951365491605, "latitude": 30.418370749121586, "official_coord": 0, "region_id_1": "510000", "region_id_2": "510100", "region_id_3": "510183"}, {"name": "成都南富森箭牌瓷砖专卖店", "address": "成都南富森箭牌瓷砖专卖店", "phone_number": "13811027851", "id": 111730, "preview_image": "brands_images/full/473.jpg", "brand_id": 473, "create_time": "NOW()", "longitude": 104.07066655408352, "latitude": 30.608133084389642, "official_coord": 0, "region_id_1": "510000", "region_id_2": "510100", "region_id_3": "510107"}, {"name": "成都北富森精品馆（专卖店)", "address": "成都北富森精品馆", "phone_number": "13811027851", "id": 111731, "preview_image": "brands_images/full/473.jpg", "brand_id": 473, "create_time": "NOW()", "longitude": 104.11695915265318, "latitude": 30.72501246881935, "official_coord": 0, "region_id_1": "510000", "region_id_2": "510100", "region_id_3": "510108"}, {"name": "遂宁箭牌瓷砖专卖店", "address": "遂宁箭牌瓷砖专卖店", "phone_number": "13811027851", "id": 111732, "preview_image": "brands_images/full/473.jpg", "brand_id": 473, "create_time": "NOW()", "longitude": 105.38721339028109, "latitude": 30.85971395213206, "official_coord": 0, "region_id_1": "510000", "region_id_2": "510900", "region_id_3": "510922"}, {"name": "华阳箭牌瓷砖专卖店", "address": "华阳箭牌瓷砖专卖店", "phone_number": "13811027851", "id": 111733, "preview_image": "brands_images/full/473.jpg", "brand_id": 473, "create_time": "NOW()", "longitude": 104.0696151412817, "latitude": 30.50077173620111, "official_coord": 0, "region_id_1": 0, "region_id_2": 0, "region_id_3": 0}, {"name": "昆明市得胜专卖店", "address": "昆明市得胜市场箭牌瓷砖专卖店", "phone_number": "13888787192", "id": 111734, "preview_image": "brands_images/full/473.jpg", "brand_id": 473, "create_time": "NOW()", "longitude": 102.71788060476514, "latitude": 24.989259040210754, "official_coord": 0, "region_id_1": "530000", "region_id_2": "530100", "region_id_3": "530112"}, {"name": "腾冲箭牌瓷砖专卖店", "address": "腾冲大商汇建材市场", "phone_number": "13968908968", "id": 111735, "preview_image": "brands_images/full/473.jpg", "brand_id": 473, "create_time": "NOW()", "longitude": 98.51430833553589, "latitude": 25.02943309381721, "official_coord": 0, "region_id_1": 0, "region_id_2": 0, "region_id_3": 0}, {"name": "遵义桐梓县箭牌瓷砖专卖店", "address": "遵义桐梓县商贸城", "phone_number": "13985630702", "id": 111736, "preview_image": "brands_images/full/473.jpg", "brand_id": 473, "create_time": "NOW()", "longitude": 106.83538524688305, "latitude": 28.137675905335506, "official_coord": 0, "region_id_1": "520000", "region_id_2": "520300", "region_id_3": "520322"}, {"name": "遵义箭牌综合店", "address": "遵义市红花岗区中信灯饰城", "phone_number": "13985630702", "id": 111737, "preview_image": "brands_images/full/473.jpg", "brand_id": 473, "create_time": "NOW()", "longitude": 106.92390658104772, "latitude": 27.674586898946952, "official_coord": 0, "region_id_1": "520000", "region_id_2": "520300", "region_id_3": "520302"}, {"name": "关岭会成建材经营部专卖店", "address": "关岭县关索镇磬园", "phone_number": "18722798300", "id": 111738, "preview_image": "brands_images/full/473.jpg", "brand_id": 473, "create_time": "NOW()", "longitude": 105.62974478769712, "latitude": 25.95094722473904, "official_coord": 0, "region_id_1": "520000", "region_id_2": "520400", "region_id_3": "520424"}, {"name": "凤岗箭牌瓷砖专卖店", "address": "凤岗建材市场", "phone_number": "13639297333", "id": 111739, "preview_image": "brands_images/full/473.jpg", "brand_id": 473, "create_time": "NOW()", "longitude": 114.18727779034734, "latitude": 22.748976020889636, "official_coord": 0, "region_id_1": "100000", "region_id_2": "440000", "region_id_3": "441900"}, {"name": "瓷砖专卖店", "address": "芒市农垦路金塔水乡北岸1-10号", "phone_number": "13988270304", "id": 111740, "preview_image": "brands_images/full/473.jpg", "brand_id": 473, "create_time": "NOW()", "longitude": 98.58642741430538, "latitude": 24.42257605359256, "official_coord": 0, "region_id_1": "530000", "region_id_2": "533100", "region_id_3": "533103"}, {"name": "瓷砖专卖店", "address": "红河州泸西县", "phone_number": "13887360088", "id": 111741, "preview_image": "brands_images/full/473.jpg", "brand_id": 473, "create_time": "NOW()", "longitude": 103.77271845513138, "latitude": 24.537965271664635, "official_coord": 0, "region_id_1": "530000", "region_id_2": "532500", "region_id_3": "532527"}, {"name": "箭牌瓷砖专卖店", "address": "蒙自市滇南大商汇箭牌瓷砖专卖店", "phone_number": "13987333415", "id": 111742, "preview_image": "brands_images/full/473.jpg", "brand_id": 473, "create_time": "NOW()", "longitude": 103.37755763348854, "latitude": 23.359394735544242, "official_coord": 0, "region_id_1": "530000", "region_id_2": "532500", "region_id_3": "532503"}, {"name": "江川箭牌瓷砖专卖店", "address": "江川市政府对面", "phone_number": "13987738287", "id": 111743, "preview_image": "brands_images/full/473.jpg", "brand_id": 473, "create_time": "NOW()", "longitude": 102.76023191576488, "latitude": 24.29342236262492, "official_coord": 0, "region_id_1": 0, "region_id_2": 0, "region_id_3": 0}, {"name": "瓷砖专卖店", "address": "沃尔玛商业中心建材区", "phone_number": "15087782099", "id": 111744, "preview_image": "brands_images/full/473.jpg", "brand_id": 473, "create_time": "NOW()", "longitude": 119.18707389485463, "latitude": 34.61463091370342, "official_coord": 0, "region_id_1": 0, "region_id_2": 0, "region_id_3": 0}, {"name": "瓷砖专卖店", "address": "石林东方建材城旁", "phone_number": "15087782099", "id": 111745, "preview_image": "brands_images/full/473.jpg", "brand_id": 473, "create_time": "NOW()", "longitude": 102.75937224190075, "latitude": 24.992569949704624, "official_coord": 0, "region_id_1": "530000", "region_id_2": "530100", "region_id_3": "530111"}, {"name": "昆明罗平瓷砖专卖店", "address": "罗平嘉喜建材市场", "phone_number": "15887407970", "id": 111746, "preview_image": "brands_images/full/473.jpg", "brand_id": 473, "create_time": "NOW()", "longitude": 104.34085527645483, "latitude": 24.899795353038222, "official_coord": 0, "region_id_1": "530000", "region_id_2": "530300", "region_id_3": "530324"}, {"name": "文山箭牌瓷砖专卖店", "address": "文山大商汇建材市场", "phone_number": "18987609662", "id": 111747, "preview_image": "brands_images/full/473.jpg", "brand_id": 473, "create_time": "NOW()", "longitude": 104.23249921787432, "latitude": 23.375450008309162, "official_coord": 0, "region_id_1": "530000", "region_id_2": "532600", "region_id_3": "532601"}, {"name": "盈江箭牌瓷砖专卖店", "address": "德宏州盈江县启宏大商汇2栋", "phone_number": "13578252486", "id": 111748, "preview_image": "brands_images/full/473.jpg", "brand_id": 473, "create_time": "NOW()", "longitude": 97.94765219243583, "latitude": 24.700522828531103, "official_coord": 0, "region_id_1": "530000", "region_id_2": "533100", "region_id_3": "533123"}, {"name": "玉溪箭牌瓷砖专卖店", "address": "玉溪得胜建材市场", "phone_number": "13888787192", "id": 111749, "preview_image": "brands_images/full/473.jpg", "brand_id": 473, "create_time": "NOW()", "longitude": 102.53578730476751, "latitude": 24.344529786452977, "official_coord": 0, "region_id_1": "530000", "region_id_2": "530400", "region_id_3": "530402"}, {"name": "祥云箭牌瓷砖专卖店", "address": "祥云建材市场", "phone_number": 0, "id": 111750, "preview_image": "brands_images/full/473.jpg", "brand_id": 473, "create_time": "NOW()", "longitude": 100.56434130509611, "latitude": 25.473995722750146, "official_coord": 0, "region_id_1": "530000", "region_id_2": "532900", "region_id_3": "532923"}, {"name": "腾冲箭牌瓷砖专卖店", "address": "腾冲大商汇建材市场", "phone_number": "13968908968", "id": 111751, "preview_image": "brands_images/full/473.jpg", "brand_id": 473, "create_time": "NOW()", "longitude": 98.51430833553589, "latitude": 25.02943309381721, "official_coord": 0, "region_id_1": 0, "region_id_2": 0, "region_id_3": 0}, {"name": "临沧箭牌瓷砖专卖店", "address": "临沧建材市场", "phone_number": "13908831105", "id": 111752, "preview_image": "brands_images/full/473.jpg", "brand_id": 473, "create_time": "NOW()", "longitude": 100.1035095682651, "latitude": 23.8959797058569, "official_coord": 0, "region_id_1": "530000", "region_id_2": "530900", "region_id_3": "530902"}, {"name": "昆明云纺商业区箭牌综合店", "address": "昆明云纺商业区装饰广场2楼27号", "phone_number": "13888787192", "id": 111753, "preview_image": "brands_images/full/473.jpg", "brand_id": 473, "create_time": "NOW()", "longitude": 102.71618296883491, "latitude": 25.025803897632017, "official_coord": 0, "region_id_1": "530000", "region_id_2": "530100", "region_id_3": "530112"}, {"name": "华洋建材市场(综合店)", "address": "华洋市场箭牌瓷砖店", "phone_number": "13888987777", "id": 111754, "preview_image": "brands_images/full/473.jpg", "brand_id": 473, "create_time": "NOW()", "longitude": 102.76737549990048, "latitude": 24.99830228315455, "official_coord": 0, "region_id_1": "530000", "region_id_2": "530100", "region_id_3": "530111"}, {"name": "大商汇总部专卖店", "address": "昆明大商汇D区58幢二楼", "phone_number": "13888555199", "id": 111755, "preview_image": "brands_images/full/473.jpg", "brand_id": 473, "create_time": "NOW()", "longitude": 102.71816767470595, "latitude": 24.99098415376405, "official_coord": 0, "region_id_1": "530000", "region_id_2": "530100", "region_id_3": "530112"}, {"name": "箭牌瓷砖专卖店", "address": "青浦九星建材市场", "phone_number": "13808479575", "id": 111756, "preview_image": "brands_images/full/473.jpg", "brand_id": 473, "create_time": "NOW()", "longitude": 121.23055932229569, "latitude": 31.195491975127283, "official_coord": 0, "region_id_1": "310000", "region_id_2": "310100", "region_id_3": "310118"}, {"name": "箭牌瓷砖专卖店", "address": "恒大建材市场", "phone_number": "13808479575", "id": 111757, "preview_image": "brands_images/full/473.jpg", "brand_id": 473, "create_time": "NOW()", "longitude": 120.30360763694917, "latitude": 30.333059643082713, "official_coord": 0, "region_id_1": "330000", "region_id_2": "330100", "region_id_3": "330104"}, {"name": "箭牌瓷砖专卖店", "address": "金山同福易家丽建材市场", "phone_number": "13808479575", "id": 111758, "preview_image": "brands_images/full/473.jpg", "brand_id": 473, "create_time": "NOW()", "longitude": 121.33349219679427, "latitude": 30.73928743247252, "official_coord": 0, "region_id_1": "310000", "region_id_2": "310100", "region_id_3": "310116"}, {"name": "箭牌瓷砖专卖店", "address": "青浦吉盛伟邦建材市场", "phone_number": "13808479575", "id": 111759, "preview_image": "brands_images/full/473.jpg", "brand_id": 473, "create_time": "NOW()", "longitude": 121.23616068603584, "latitude": 31.168128531417846, "official_coord": 0, "region_id_1": "310000", "region_id_2": "310100", "region_id_3": "310118"}, {"name": "箭牌瓷砖专卖店", "address": "浦东新区同福易家丽建材市场", "phone_number": "13917038731", "id": 111760, "preview_image": "brands_images/full/473.jpg", "brand_id": 473, "create_time": "NOW()", "longitude": 121.52687300712266, "latitude": 31.173809544065932, "official_coord": 0, "region_id_1": "310000", "region_id_2": "310100", "region_id_3": "310115"}, {"name": "湖州红星美凯龙专卖店", "address": "湖州市红星美凯龙", "phone_number": "15205819070", "id": 111761, "preview_image": "brands_images/full/473.jpg", "brand_id": 473, "create_time": "NOW()", "longitude": 120.08131693558711, "latitude": 30.846395140628914, "official_coord": 0, "region_id_1": "330000", "region_id_2": "330500", "region_id_3": "330502"}, {"name": "海盐瓷砖专卖店", "address": "海盐市河南西路", "phone_number": "13957321236", "id": 111762, "preview_image": "brands_images/full/473.jpg", "brand_id": 473, "create_time": "NOW()", "longitude": 120.93713724012551, "latitude": 30.518593642678972, "official_coord": 0, "region_id_1": "330000", "region_id_2": "330400", "region_id_3": "330424"}, {"name": "诸暨箭牌瓷砖专卖店", "address": "诸暨建材市场", "phone_number": "15205819026", "id": 111763, "preview_image": "brands_images/full/473.jpg", "brand_id": 473, "create_time": "NOW()", "longitude": 120.26380930670138, "latitude": 29.7022027181089, "official_coord": 0, "region_id_1": "330000", "region_id_2": "330600", "region_id_3": "330681"}, {"name": "杭州新时代箭牌瓷砖综合店", "address": "杭州古镇路新时代建材市场", "phone_number": "13958119068", "id": 111764, "preview_image": "brands_images/full/473.jpg", "brand_id": 473, "create_time": "NOW()", "longitude": 120.10155104731058, "latitude": 30.31534649865175, "official_coord": 0, "region_id_1": "330000", "region_id_2": "330100", "region_id_3": "330106"}, {"name": "古墩专卖店", "address": "杭州古墩路", "phone_number": "15205819051", "id": 111765, "preview_image": "brands_images/full/473.jpg", "brand_id": 473, "create_time": "NOW()", "longitude": 120.10442599663595, "latitude": 30.303387559229037, "official_coord": 0, "region_id_1": "330000", "region_id_2": "330100", "region_id_3": "330106"}, {"name": "临平箭牌瓷砖综合店", "address": "临平建材市场", "phone_number": "15205819701", "id": 111766, "preview_image": "brands_images/full/473.jpg", "brand_id": 473, "create_time": "NOW()", "longitude": 120.2649113851137, "latitude": 30.43097163138292, "official_coord": 0, "region_id_1": "330000", "region_id_2": "330100", "region_id_3": "330110"}, {"name": "东箭嘉兴专专卖馆", "address": "嘉兴建陶市场二期", "phone_number": "15205819070", "id": 111767, "preview_image": "brands_images/full/473.jpg", "brand_id": 473, "create_time": "NOW()", "longitude": 120.70925179604355, "latitude": 30.74171742639275, "official_coord": 0, "region_id_1": "330000", "region_id_2": "330400", "region_id_3": "330402"}, {"name": "海宁海航专卖店", "address": "海杭建材市场一幢006-007", "phone_number": "18606508753", "id": 111768, "preview_image": "brands_images/full/473.jpg", "brand_id": 473, "create_time": "NOW()", "longitude": 120.34978709895015, "latitude": 30.463349939561695, "official_coord": 0, "region_id_1": "330000", "region_id_2": "330400", "region_id_3": "330481"}, {"name": "义乌专卖店", "address": "义乌物资市场", "phone_number": "18757979988", "id": 111769, "preview_image": "brands_images/full/473.jpg", "brand_id": 473, "create_time": "NOW()", "longitude": 120.07938586005322, "latitude": 29.327370599780128, "official_coord": 0, "region_id_1": "330000", "region_id_2": "330700", "region_id_3": "330782"}, {"name": "杭州转塘瓷砖专卖店", "address": "杭州转塘建材市场", "phone_number": "15205819051", "id": 111770, "preview_image": "brands_images/full/473.jpg", "brand_id": 473, "create_time": "NOW()", "longitude": 120.10505638665204, "latitude": 30.13727623268265, "official_coord": 0, "region_id_1": "330000", "region_id_2": "330100", "region_id_3": "330106"}, {"name": "柯桥箭牌瓷砖综合店", "address": "柯桥云集路88好C区7-10号D18", "phone_number": "13094639221", "id": 111771, "preview_image": "brands_images/full/473.jpg", "brand_id": 473, "create_time": "NOW()", "longitude": 120.49889475047453, "latitude": 30.068862485019867, "official_coord": 0, "region_id_1": 0, "region_id_2": 0, "region_id_3": 0}, {"name": "安吉箭牌瓷砖综合店", "address": "安吉天荒坪中路134-146号", "phone_number": "13905821530", "id": 111772, "preview_image": "brands_images/full/473.jpg", "brand_id": 473, "create_time": "NOW()", "longitude": 119.69325118503244, "latitude": 30.64351654149763, "official_coord": 0, "region_id_1": "330000", "region_id_2": "330500", "region_id_3": "330523"}, {"name": "宁波箭牌瓷砖专卖店", "address": "宁波现代商场", "phone_number": "13905746322", "id": 111773, "preview_image": "brands_images/full/473.jpg", "brand_id": 473, "create_time": "NOW()", "longitude": 121.58100411001112, "latitude": 29.85351468222915, "official_coord": 0, "region_id_1": "330000", "region_id_2": "330200", "region_id_3": "330212"}, {"name": "台州箭牌瓷砖专卖店", "address": "台州洪家建材市场", "phone_number": "13958119278", "id": 111774, "preview_image": "brands_images/full/473.jpg", "brand_id": 473, "create_time": "NOW()", "longitude": 121.41339435848539, "latitude": 28.61151966355644, "official_coord": 0, "region_id_1": "330000", "region_id_2": "331000", "region_id_3": "331002"}, {"name": "箭牌瓷砖专卖店", "address": "武义新霞建材市场箭牌瓷砖", "phone_number": "13586987676", "id": 111775, "preview_image": "brands_images/full/473.jpg", "brand_id": 473, "create_time": "NOW()", "longitude": 119.7106388279308, "latitude": 29.09096217673145, "official_coord": 0, "region_id_1": "330000", "region_id_2": "330700", "region_id_3": "330703"}, {"name": "金华箭牌瓷砖专卖店", "address": "浙中建材市场", "phone_number": "13586983338", "id": 111776, "preview_image": "brands_images/full/473.jpg", "brand_id": 473, "create_time": "NOW()", "longitude": 119.71163765650834, "latitude": 29.09109757774116, "official_coord": 0, "region_id_1": "330000", "region_id_2": "330700", "region_id_3": "330703"}, {"name": "永康箭牌专卖店", "address": "永康市昌明国际装饰城", "phone_number": "13906790513", "id": 111777, "preview_image": "brands_images/full/473.jpg", "brand_id": 473, "create_time": "NOW()", "longitude": 120.02507511476962, "latitude": 28.914391120786963, "official_coord": 0, "region_id_1": "330000", "region_id_2": "330700", "region_id_3": "330784"}, {"name": "箭牌瓷砖专卖店", "address": "长沙月亮岛箭牌瓷砖专卖店", "phone_number": "13107119095", "id": 111778, "preview_image": "brands_images/full/473.jpg", "brand_id": 473, "create_time": "NOW()", "longitude": 112.91506144328248, "latitude": 28.2852745562055, "official_coord": 0, "region_id_1": "430000", "region_id_2": "430100", "region_id_3": "430112"}, {"name": "株州炎陵专卖店", "address": "炎陵建材市场", "phone_number": "13822653722", "id": 111779, "preview_image": "brands_images/full/473.jpg", "brand_id": 473, "create_time": "NOW()", "longitude": 113.78210657812227, "latitude": 26.493424124113, "official_coord": 0, "region_id_1": "430000", "region_id_2": "430200", "region_id_3": "430225"}, {"name": "箭牌瓷砖专卖店", "address": "靖州建材市场", "phone_number": "13822653722", "id": 111780, "preview_image": "brands_images/full/473.jpg", "brand_id": 473, "create_time": "NOW()", "longitude": 109.68393277655208, "latitude": 26.591437009514642, "official_coord": 0, "region_id_1": "430000", "region_id_2": "431200", "region_id_3": "431229"}, {"name": "箭牌瓷砖专卖店", "address": "郁金香建材市场", "phone_number": "13822653722", "id": 111781, "preview_image": "brands_images/full/473.jpg", "brand_id": 473, "create_time": "NOW()", "longitude": 112.91978877200069, "latitude": 28.22221502167798, "official_coord": 0, "region_id_1": "430000", "region_id_2": "430100", "region_id_3": "430104"}, {"name": "箭牌瓷砖专卖店", "address": "宁乡建材市场", "phone_number": "13822653722", "id": 111782, "preview_image": "brands_images/full/473.jpg", "brand_id": 473, "create_time": "NOW()", "longitude": 112.56601596388553, "latitude": 28.252729783068144, "official_coord": 0, "region_id_1": 0, "region_id_2": 0, "region_id_3": 0}, {"name": "箭牌瓷砖专卖店", "address": "长沙河西红星美凯龙", "phone_number": "13822653722", "id": 111783, "preview_image": "brands_images/full/473.jpg", "brand_id": 473, "create_time": "NOW()", "longitude": 112.95353807517643, "latitude": 28.233171239569614, "official_coord": 0, "region_id_1": "430000", "region_id_2": "430100", "region_id_3": "430104"}, {"name": "箭牌卫浴・瓷砖综合店店", "address": "马王堆建材市场", "phone_number": "18390996077", "id": 111784, "preview_image": "brands_images/full/473.jpg", "brand_id": 473, "create_time": "NOW()", "longitude": 113.03495839276586, "latitude": 28.204490297710784, "official_coord": 0, "region_id_1": "430000", "region_id_2": "430100", "region_id_3": "430102"}, {"name": "箭牌瓷砖专卖店", "address": "红星美凯龙", "phone_number": "15874257768", "id": 111785, "preview_image": "brands_images/full/473.jpg", "brand_id": 473, "create_time": "NOW()", "longitude": 116.44566304799645, "latitude": 40.031080880467705, "official_coord": 0, "region_id_1": "110000", "region_id_2": "110100", "region_id_3": "110105"}, {"name": "箭牌瓷砖专卖店", "address": "长沙金源居然之家", "phone_number": "18670097567", "id": 111786, "preview_image": "brands_images/full/473.jpg", "brand_id": 473, "create_time": "NOW()", "longitude": 112.98488881159818, "latitude": 28.258200259851353, "official_coord": 0, "region_id_1": "430000", "region_id_2": "430100", "region_id_3": "430105"}, {"name": "箭牌瓷砖专卖店", "address": "鑫源大厦店面", "phone_number": "18773602529", "id": 111787, "preview_image": "brands_images/full/473.jpg", "brand_id": 473, "create_time": "NOW()", "longitude": 110.87680859733426, "latitude": 35.98569608919691, "official_coord": 0, "region_id_1": "140000", "region_id_2": "141000", "region_id_3": "141029"}, {"name": "常德箭牌瓷砖专卖店", "address": "常德东星建材市场", "phone_number": "15907367805", "id": 111788, "preview_image": "brands_images/full/473.jpg", "brand_id": 473, "create_time": "NOW()", "longitude": 111.70217649713884, "latitude": 29.072781204793078, "official_coord": 0, "region_id_1": "430000", "region_id_2": "430700", "region_id_3": "430702"}, {"name": "箭牌瓷砖专卖店", "address": "郴州嘉禾县金鑫嘉园建材市场", "phone_number": "13873519508", "id": 111789, "preview_image": "brands_images/full/473.jpg", "brand_id": 473, "create_time": "NOW()", "longitude": 112.38558794657953, "latitude": 25.624493587851365, "official_coord": 0, "region_id_1": "430000", "region_id_2": "431000", "region_id_3": "431024"}, {"name": "衡阳南岳箭牌瓷砖专卖店", "address": "南岳区万福路179号", "phone_number": "13724379841", "id": 111790, "preview_image": "brands_images/full/473.jpg", "brand_id": 473, "create_time": "NOW()", "longitude": 112.74633478268655, "latitude": 27.23975837926512, "official_coord": 0, "region_id_1": "430000", "region_id_2": "430400", "region_id_3": "430412"}, {"name": "箭牌瓷砖专卖店", "address": "云集建材市场", "phone_number": "13873464595", "id": 111791, "preview_image": "brands_images/full/473.jpg", "brand_id": 473, "create_time": "NOW()", "longitude": 112.681130039058, "latitude": 26.75392139053248, "official_coord": 0, "region_id_1": "430000", "region_id_2": "430400", "region_id_3": "430422"}, {"name": "箭牌瓷砖专卖店", "address": "祁阳建材市场", "phone_number": "13873464595", "id": 111792, "preview_image": "brands_images/full/473.jpg", "brand_id": 473, "create_time": "NOW()", "longitude": 111.85796638653885, "latitude": 26.56781018406842, "official_coord": 0, "region_id_1": "430000", "region_id_2": "431100", "region_id_3": "431121"}, {"name": "箭牌卫浴・瓷砖箭牌卫浴・瓷砖综合店", "address": "西渡建材市场", "phone_number": "13873497343", "id": 111793, "preview_image": "brands_images/full/473.jpg", "brand_id": 473, "create_time": "NOW()", "longitude": 112.39038372965967, "latitude": 26.9650766070464, "official_coord": 0, "region_id_1": "430000", "region_id_2": "430400", "region_id_3": "430421"}, {"name": "益阳瓷砖专卖店", "address": "益阳楠木塘村建材市场", "phone_number": 0, "id": 111794, "preview_image": "brands_images/full/473.jpg", "brand_id": 473, "create_time": "NOW()", "longitude": 112.3418880973533, "latitude": 28.546106159627584, "official_coord": 0, "region_id_1": "430000", "region_id_2": "430900", "region_id_3": "430903"}, {"name": "箭牌卫浴・瓷砖综合店", "address": "家年华建材市场", "phone_number": "13973149653", "id": 111795, "preview_image": "brands_images/full/473.jpg", "brand_id": 473, "create_time": "NOW()", "longitude": 108.97976958041436, "latitude": 34.313676467989964, "official_coord": 0, "region_id_1": "610000", "region_id_2": "610100", "region_id_3": "610112"}, {"name": "箭牌瓷砖专卖店", "address": "安江建材市场6号", "phone_number": "13787554765", "id": 111796, "preview_image": "brands_images/full/473.jpg", "brand_id": 473, "create_time": "NOW()", "longitude": 110.14536984521993, "latitude": 27.320506483129122, "official_coord": 0, "region_id_1": "430000", "region_id_2": "431200", "region_id_3": "431281"}, {"name": "箭牌瓷砖专卖店", "address": "怀化市溆浦县兆隆商业广场", "phone_number": "13874524781", "id": 111797, "preview_image": "brands_images/full/473.jpg", "brand_id": 473, "create_time": "NOW()", "longitude": 110.58714926021452, "latitude": 27.92976074855762, "official_coord": 0, "region_id_1": "430000", "region_id_2": "431200", "region_id_3": "431224"}, {"name": "箭牌瓷砖专卖店", "address": "会同消防局对面", "phone_number": "13874524781", "id": 111798, "preview_image": "brands_images/full/473.jpg", "brand_id": 473, "create_time": "NOW()", "longitude": 109.72234971047305, "latitude": 26.876098660599876, "official_coord": 0, "region_id_1": "430000", "region_id_2": "431200", "region_id_3": "431225"}, {"name": "箭牌瓷砖专卖店", "address": "怀化市河西德天建材市场10栋21--24", "phone_number": "15907367805", "id": 111799, "preview_image": "brands_images/full/473.jpg", "brand_id": 473, "create_time": "NOW()", "longitude": 109.95369851487443, "latitude": 27.54749261194786, "official_coord": 0, "region_id_1": "430000", "region_id_2": "431200", "region_id_3": "431202"}, {"name": "箭牌瓷砖专卖店", "address": "会同消防局对面", "phone_number": "13874524781", "id": 111800, "preview_image": "brands_images/full/473.jpg", "brand_id": 473, "create_time": "NOW()", "longitude": 109.72234971047305, "latitude": 26.876098660599876, "official_coord": 0, "region_id_1": "430000", "region_id_2": "431200", "region_id_3": "431225"}, {"name": "箭牌瓷砖专卖店", "address": "怀化市溆浦县兆隆商业广场", "phone_number": "13874524781", "id": 111801, "preview_image": "brands_images/full/473.jpg", "brand_id": 473, "create_time": "NOW()", "longitude": 110.58714926021452, "latitude": 27.92976074855762, "official_coord": 0, "region_id_1": "430000", "region_id_2": "431200", "region_id_3": "431224"}, {"name": "箭牌瓷砖专卖店", "address": "安江建材市场6号", "phone_number": "13787554765", "id": 111802, "preview_image": "brands_images/full/473.jpg", "brand_id": 473, "create_time": "NOW()", "longitude": 110.14536984521993, "latitude": 27.320506483129122, "official_coord": 0, "region_id_1": "430000", "region_id_2": "431200", "region_id_3": "431281"}, {"name": "箭牌卫浴・瓷砖综合店", "address": "湖南永州市冷水滩河东育才路凯旋建材城", "phone_number": "13974602246", "id": 111803, "preview_image": "brands_images/full/473.jpg", "brand_id": 473, "create_time": "NOW()", "longitude": 111.62814048177032, "latitude": 26.421474938612274, "official_coord": 0, "region_id_1": "430000", "region_id_2": "431100", "region_id_3": "431103"}, {"name": "箭牌瓷砖专卖店", "address": "张家界建材市场二期", "phone_number": 0, "id": 111804, "preview_image": "brands_images/full/473.jpg", "brand_id": 473, "create_time": "NOW()", "longitude": 110.49946574390802, "latitude": 29.125773409116157, "official_coord": 0, "region_id_1": "350000", "region_id_2": "350800", "region_id_3": "350822"}, {"name": "箭牌瓷砖专卖店", "address": "岳阳大阳桥建材市场", "phone_number": "13975089607", "id": 111805, "preview_image": "brands_images/full/473.jpg", "brand_id": 473, "create_time": "NOW()", "longitude": 113.1763486169631, "latitude": 29.363178671727187, "official_coord": 0, "region_id_1": "430000", "region_id_2": "430600", "region_id_3": "430602"}, {"name": "箭牌瓷砖专卖店", "address": "邵东正红盛源大厦负一楼", "phone_number": "13348799198", "id": 111806, "preview_image": "brands_images/full/473.jpg", "brand_id": 473, "create_time": "NOW()", "longitude": 111.73452715373782, "latitude": 27.261248915609233, "official_coord": 0, "region_id_1": "430000", "region_id_2": "430500", "region_id_3": "430521"}, {"name": "箭牌卫浴・瓷砖综合店", "address": "大悟建材街", "phone_number": "13567889876", "id": 111807, "preview_image": "brands_images/full/473.jpg", "brand_id": 473, "create_time": "NOW()", "longitude": 114.44527420939446, "latitude": 31.31864501656218, "official_coord": 0, "region_id_1": "420000", "region_id_2": "420900", "region_id_3": "420922"}, {"name": "箭牌瓷砖专卖店", "address": "应城中柏仓储对面", "phone_number": "13886363312", "id": 111808, "preview_image": "brands_images/full/473.jpg", "brand_id": 473, "create_time": "NOW()", "longitude": 113.58070274989699, "latitude": 30.94039613241806, "official_coord": 0, "region_id_1": "420000", "region_id_2": "420900", "region_id_3": "420981"}, {"name": "箭牌瓷砖专卖店", "address": "安陆建材市场", "phone_number": "13807293341", "id": 111809, "preview_image": "brands_images/full/473.jpg", "brand_id": 473, "create_time": "NOW()", "longitude": 113.70794186354134, "latitude": 31.251051399274967, "official_coord": 0, "region_id_1": "420000", "region_id_2": "420900", "region_id_3": "420982"}, {"name": "箭牌卫浴・瓷砖综合店", "address": "黄陂建材市场", "phone_number": "13878654562", "id": 111810, "preview_image": "brands_images/full/473.jpg", "brand_id": 473, "create_time": "NOW()", "longitude": 114.37696612144698, "latitude": 30.883275165706177, "official_coord": 0, "region_id_1": "420000", "region_id_2": "420100", "region_id_3": "420116"}, {"name": "箭牌卫浴・瓷砖综合店", "address": "武汉 江夏区立交桥路90-37号", "phone_number": "18627827081", "id": 111811, "preview_image": "brands_images/full/473.jpg", "brand_id": 473, "create_time": "NOW()", "longitude": 114.32910174649282, "latitude": 30.36408641896649, "official_coord": 0, "region_id_1": "420000", "region_id_2": "420100", "region_id_3": "420115"}, {"name": "箭牌瓷砖专卖店", "address": "孝感广东饰家建材市场", "phone_number": "13643353781", "id": 111812, "preview_image": "brands_images/full/473.jpg", "brand_id": 473, "create_time": "NOW()", "longitude": 113.97747191205174, "latitude": 30.937399598126877, "official_coord": 0, "region_id_1": "420000", "region_id_2": "420900", "region_id_3": "420902"}, {"name": "箭牌瓷砖专卖店", "address": "黄石红星美凯龙", "phone_number": "13783423210", "id": 111813, "preview_image": "brands_images/full/473.jpg", "brand_id": 473, "create_time": "NOW()", "longitude": 115.06085296966499, "latitude": 30.25706593358025, "official_coord": 0, "region_id_1": "420000", "region_id_2": "420200", "region_id_3": "420202"}, {"name": "箭牌卫浴・瓷砖综合店", "address": "武昌金鑫建材家居市场", "phone_number": "13865438267", "id": 111814, "preview_image": "brands_images/full/473.jpg", "brand_id": 473, "create_time": "NOW()", "longitude": 114.35971473426977, "latitude": 30.617845037440446, "official_coord": 0, "region_id_1": "420000", "region_id_2": "420100", "region_id_3": "420106"}, {"name": "箭牌卫浴・瓷砖综合店", "address": "武昌区友谊路金盛建材国际家居", "phone_number": "13633866453", "id": 111815, "preview_image": "brands_images/full/473.jpg", "brand_id": 473, "create_time": "NOW()", "longitude": 114.32465578281742, "latitude": 30.565616700404494, "official_coord": 0, "region_id_1": "420000", "region_id_2": "420100", "region_id_3": "420106"}, {"name": "箭牌瓷砖专卖店", "address": "南国大武汉建材市场", "phone_number": "13782433251", "id": 111816, "preview_image": "brands_images/full/473.jpg", "brand_id": 473, "create_time": "NOW()", "longitude": 114.23207881058353, "latitude": 30.59331126968778, "official_coord": 0, "region_id_1": "420000", "region_id_2": "420100", "region_id_3": "420104"}, {"name": "箭牌瓷砖专卖店", "address": "大冶市美吉特建材市场一楼", "phone_number": "13339924386", "id": 111817, "preview_image": "brands_images/full/473.jpg", "brand_id": 473, "create_time": "NOW()", "longitude": 114.96692689364994, "latitude": 30.130559866542434, "official_coord": 0, "region_id_1": "420000", "region_id_2": "420200", "region_id_3": "420281"}, {"name": "箭牌瓷砖专卖店", "address": "崇阳县电力大道凯鸿国际一楼", "phone_number": "18507243333", "id": 111818, "preview_image": "brands_images/full/473.jpg", "brand_id": 473, "create_time": "NOW()", "longitude": 114.04504848352029, "latitude": 29.55548987681184, "official_coord": 0, "region_id_1": "420000", "region_id_2": "421200", "region_id_3": "421223"}, {"name": "箭牌卫浴・瓷砖综合店", "address": "随州滨湖湾二期", "phone_number": "13085255666", "id": 111819, "preview_image": "brands_images/full/473.jpg", "brand_id": 473, "create_time": "NOW()", "longitude": 113.39504552729598, "latitude": 31.70365668409233, "official_coord": 0, "region_id_1": "420000", "region_id_2": "421300", "region_id_3": "421303"}, {"name": "箭牌瓷砖专卖店", "address": "潜江建材城", "phone_number": "13456733456", "id": 111820, "preview_image": "brands_images/full/473.jpg", "brand_id": 473, "create_time": "NOW()", "longitude": 112.89654708218211, "latitude": 30.421725917644828, "official_coord": 0, "region_id_1": "420000", "region_id_2": "429000", "region_id_3": "429005"}, {"name": "箭牌卫浴・瓷砖综合店", "address": "襄樊领袖中原建材市场", "phone_number": "13971298173", "id": 111821, "preview_image": "brands_images/full/473.jpg", "brand_id": 473, "create_time": "NOW()", "longitude": 112.15379540758782, "latitude": 32.06631896158135, "official_coord": 0, "region_id_1": "420000", "region_id_2": "420600", "region_id_3": "420606"}, {"name": "箭牌瓷砖专卖店", "address": "监利蓝星陶瓷城", "phone_number": 0, "id": 111822, "preview_image": "brands_images/full/473.jpg", "brand_id": 473, "create_time": "NOW()", "longitude": 112.91657335558263, "latitude": 29.831078456287216, "official_coord": 0, "region_id_1": "420000", "region_id_2": "421000", "region_id_3": "421023"}, {"name": "箭牌瓷砖专卖店", "address": "荆州松滋专卖店", "phone_number": "13872391447", "id": 111823, "preview_image": "brands_images/full/473.jpg", "brand_id": 473, "create_time": "NOW()", "longitude": 111.78705948366026, "latitude": 30.165040347583357, "official_coord": 0, "region_id_1": "420000", "region_id_2": "421000", "region_id_3": "421087"}, {"name": "箭牌瓷砖专卖店", "address": "荆州江陵建材市场", "phone_number": "15827774237", "id": 111824, "preview_image": "brands_images/full/473.jpg", "brand_id": 473, "create_time": "NOW()", "longitude": 112.42970163962806, "latitude": 30.03412665756994, "official_coord": 0, "region_id_1": "420000", "region_id_2": "421000", "region_id_3": "421024"}, {"name": "箭牌瓷砖专卖店", "address": "荆州市南国大家装", "phone_number": "13986726098", "id": 111825, "preview_image": "brands_images/full/473.jpg", "brand_id": 473, "create_time": "NOW()", "longitude": 112.26046692120498, "latitude": 30.34128328102091, "official_coord": 0, "region_id_1": "420000", "region_id_2": "421000", "region_id_3": "421002"}, {"name": "箭牌瓷砖专卖店", "address": "十堰虹桥建材市场", "phone_number": "13593737799", "id": 111826, "preview_image": "brands_images/full/473.jpg", "brand_id": 473, "create_time": "NOW()", "longitude": 0, "latitude": 0, "official_coord": 0, "region_id_1": "420000", "region_id_2": "421000", "region_id_3": "421002"}, {"name": "箭牌瓷砖专卖店", "address": "宜昌金东山建材市场", "phone_number": "15171870788", "id": 111827, "preview_image": "brands_images/full/473.jpg", "brand_id": 473, "create_time": "NOW()", "longitude": 111.3325998795133, "latitude": 30.707561861272353, "official_coord": 0, "region_id_1": "420000", "region_id_2": "420500", "region_id_3": "420502"}, {"name": "箭牌瓷砖专卖店", "address": "贺州鼎富建材市场", "phone_number": "13978426788", "id": 111828, "preview_image": "brands_images/full/473.jpg", "brand_id": 473, "create_time": "NOW()", "longitude": 111.54322501776426, "latitude": 24.417712270644618, "official_coord": 0, "region_id_1": "450000", "region_id_2": "451100", "region_id_3": "451102"}, {"name": "惠宁建材有限公司（综合店）", "address": "河池市金城江区南新东路157号", "phone_number": "13907889032", "id": 111829, "preview_image": "brands_images/full/473.jpg", "brand_id": 473, "create_time": "NOW()", "longitude": 108.0830966111308, "latitude": 24.692974903158103, "official_coord": 0, "region_id_1": "450000", "region_id_2": "451200", "region_id_3": "451202"}, {"name": "防城港箭牌瓷砖专卖店", "address": "防城港华美立家一楼", "phone_number": "13557006869", "id": 111830, "preview_image": "brands_images/full/473.jpg", "brand_id": 473, "create_time": "NOW()", "longitude": 108.38824455012978, "latitude": 21.731859038041254, "official_coord": 0, "region_id_1": "450000", "region_id_2": "450600", "region_id_3": "450603"}, {"name": "桂林箭牌瓷砖营销中心（专卖店）", "address": "桂林联坤家居广场", "phone_number": "15295884058", "id": 111831, "preview_image": "brands_images/full/473.jpg", "brand_id": 473, "create_time": "NOW()", "longitude": 110.2977074257934, "latitude": 25.302200478295454, "official_coord": 0, "region_id_1": "450000", "region_id_2": "450300", "region_id_3": "450303"}, {"name": "北海名殿建材工贸有限公司（综合店）", "address": "北海市北海大道北园公寓首层", "phone_number": "18677989388", "id": 111832, "preview_image": "brands_images/full/473.jpg", "brand_id": 473, "create_time": "NOW()", "longitude": 109.12542195028466, "latitude": 21.474485686922534, "official_coord": 0, "region_id_1": "450000", "region_id_2": "450500", "region_id_3": "450502"}, {"name": "柳州富美建材有限公司（专卖店）", "address": "红星美凯龙建材市场", "phone_number": "15807728888", "id": 111833, "preview_image": "brands_images/full/473.jpg", "brand_id": 473, "create_time": "NOW()", "longitude": 112.52113645977992, "latitude": 37.91025538506419, "official_coord": 0, "region_id_1": "140000", "region_id_2": "140100", "region_id_3": "140108"}, {"name": "箭牌瓷砖专卖店", "address": "海南国度建材城一楼", "phone_number": "13876702918", "id": 111834, "preview_image": "brands_images/full/473.jpg", "brand_id": 473, "create_time": "NOW()", "longitude": 110.33224522084795, "latitude": 20.000531875852147, "official_coord": 0, "region_id_1": "460000", "region_id_2": "460100", "region_id_3": "460106"}, {"name": "呼伦贝尔箭牌专卖店", "address": "呼伦贝尔箭牌店", "phone_number": "15048080888", "id": 111835, "preview_image": "brands_images/full/473.jpg", "brand_id": 473, "create_time": "NOW()", "longitude": 124.50768833180435, "latitude": 48.48471670889939, "official_coord": 0, "region_id_1": "150000", "region_id_2": "150700", "region_id_3": "150722"}, {"name": "内蒙古-临河红星美凯龙箭牌瓷砖专卖店", "address": "临河红星美凯龙一楼", "phone_number": "15334999199", "id": 111836, "preview_image": "brands_images/full/473.jpg", "brand_id": 473, "create_time": "NOW()", "longitude": 107.45665544233275, "latitude": 40.775891169591105, "official_coord": 0, "region_id_1": "150000", "region_id_2": "150800", "region_id_3": "150802"}, {"name": "乌海箭牌瓷砖专卖店", "address": "乌海月星家具", "phone_number": "13190688886", "id": 111837, "preview_image": "brands_images/full/473.jpg", "brand_id": 473, "create_time": "NOW()", "longitude": 106.8185695159194, "latitude": 39.68212431782231, "official_coord": 0, "region_id_1": "150000", "region_id_2": "150300", "region_id_3": "150302"}]