[{"name": "黄山顶固", "address": "安徽黄山市屯溪区长干路展望市场A区36号", "longitude": "118.331116", "latitude": "29.714132"}, {"name": "福州友谊", "address": "福州市台江区广达路395-5雅之杰", "longitude": "119.315181", "latitude": "26.065401"}, {"name": "甘肃新锐", "address": "兰州市城关区富星家居广场91101号 ", "longitude": "103.837578", "latitude": "36.073276"}, {"name": "广州家誉", "address": "广东省广州市天河区黄埔大道中262号恒安大厦恒福轩1301房", "longitude": "112.705231", "latitude": "23.348979"}, {"name": "四会摩登", "address": "四会市水闸路建业大厦111号摩登五金", "longitude": "113.101087", "latitude": "23.014643"}, {"name": "佛山市汉斯建材有限公司", "address": "佛山禅城区季华四路意美家卫浴世界24栋30-38号", "longitude": "112.32882", "latitude": "22.196444"}, {"name": "恩平市今润装饰建材有限公司", "address": "恩平市新平北路21号翠景园首层今润卫浴", "longitude": "113.249026", "latitude": "22.855892"}, {"name": "佛山市大良歌雅五金电器有限公司", "address": "佛山顺德大良环市北路104-108号", "longitude": "113.682458", "latitude": "22.831882"}, {"name": "东莞虎门盛辉建材有限公司", "address": "东莞市虎门镇人民中路6号", "longitude": "113.662567", "latitude": "23.103236"}, {"name": "东莞市迅发建材有限公司", "address": "东莞市厚街镇中兴路22号", "longitude": "113.794814", "latitude": "22.811564"}, {"name": "东莞长安天昱建材配送中心", "address": "东莞市长安镇新安明和建材市场D区", "longitude": "113.270868", "latitude": "23.104633"}, {"name": "广州市宏迪卫浴建材有限公司", "address": "广州市海珠区宝岗大道263号", "longitude": "113.36429", "latitude": "23.129582"}, {"name": "恒洁卫浴", "address": "防城港市防城区群星大道65号大西南家具材料城 ", "longitude": "108.371335", "latitude": "21.749218"}, {"name": "洛阳摩登", "address": "洛阳市西工区王城大道名优建材城A一39号摩登五金", "longitude": "112.43901", "latitude": "34.661414"}, {"name": "哈尔滨汇丰", "address": "哈尔滨市南岗区文明街66号海城品牌装饰广场2069室/道外区红旗家俱城一期建材区7-12号 ", "longitude": "126.653034", "latitude": "45.75308"}, {"name": "武汉金东成", "address": "湖北省武汉市~口区游艺路蓝山城市中心16F", "longitude": "114.28123", "latitude": "30.580033"}, {"name": "长沙莱博顿", "address": "长沙市芙蓉区万家丽家居建材广场2楼85号门面   展厅", "longitude": "113.036081", "latitude": "28.198775"}, {"name": "常州雅之杰", "address": "常州市钟楼区怀德南路268号11栋（美吉特建材家居广场）213-215", "longitude": "117.228108", "latitude": "34.231539"}, {"name": "徐州名门", "address": "徐州市泉山区新世纪装饰城一期一楼A01-02-03号", "longitude": "119.416768", "latitude": "32.379561"}, {"name": "扬州永昌", "address": "扬州邗江区江阳西路商城五金市场1号", "longitude": "119.416768", "latitude": "32.379561"}, {"name": "扬州永昌", "address": "扬州邗江区江阳西路商城五金市场1号", "longitude": "119.826891", "latitude": "31.394899"}, {"name": "宜兴兴联", "address": "宜兴市建材市场杏头西路107号", "longitude": "119.875055", "latitude": "31.783751"}, {"name": "乐平鲸华国际卫浴馆", "address": "江西省乐平市赣东北商贸城5号门一楼", "longitude": "117.156101", "latitude": "28.99163"}, {"name": "大连华良", "address": "大连市沙河口区五一路105号白领公寓临街6号", "longitude": "121.583746", "latitude": "38.911165"}, {"name": "银川石乐家", "address": "银川市兴庆区新华东街塞上凝聚力6-18号营业房", "longitude": "106.309901", "latitude": "38.461228"}, {"name": "滨州友联", "address": "滨州市滨城区黄沙一路渤海八路南箭牌卫浴", "longitude": "122.433129", "latitude": "36.895838"}, {"name": "荣成金秋", "address": "山东省荣成市石岛金秋建材城", "longitude": "121.568319", "latitude": "37.395816"}, {"name": "烟台惠达", "address": "山东省烟台市牟平区东华家泰家居一楼A1010 TOTO卫浴", "longitude": "120.446083", "latitude": "37.364347"}, {"name": "招远赛蒙", "address": "山东省招远市金辉装饰城赛蒙洁具", "longitude": "118.030418", "latitude": "37.380396"}, {"name": "上海画宇", "address": "上海市青浦区北青公路6588号意邦D4栋3楼", "longitude": "121.198808", "latitude": "31.199998"}, {"name": "自贡赛唯雅", "address": "四川省自贡市大安区马吃水川南建材市场1区1-7-8门市", "longitude": "104.746942", "latitude": "29.338177"}, {"name": "昆明雅仕", "address": "昆明市西山区大商汇B区五金区41栋3-4号", "longitude": "102.715207", "latitude": "24.988466"}, {"name": "杭州朗高", "address": "杭州市杭州市江干区新塘路65号元华旺座中心2号楼1501", "longitude": "119.270225", "latitude": "29.434042"}, {"name": "建德美佳", "address": "浙江省建德市国大阳光家居博览中心精品街16-26号", "longitude": "119.186875", "latitude": "29.04416"}, {"name": "龙游四维", "address": "浙江省龙游荣昌大道207-219号四维卫浴", "longitude": "119.109892", "latitude": "29.602104"}, {"name": "千岛湖叶佳", "address": "浙江省淳安县千岛湖镇清溪新城建材市场15楼2楼箭牌卫浴", "longitude": "120.668431", "latitude": "27.952475"}, {"name": "温州中盛", "address": "温州市瓯海区104国道慈湖段8号红星美凯龙二楼  理想卫浴", "longitude": "120.667633", "latitude": "27.777431"}, {"name": "欣雅建材", "address": "温州市瑞安市罗阳大道1155号", "longitude": "120.213835", "latitude": "30.267637"}, {"name": "重庆皇室", "address": "重庆市南岸区南坪西路58号红星美凯龙A8336号", "longitude": "106.584164", "latitude": "29.556959"}, {"name": "重庆嘉利达", "address": "重庆市渝中区凯旋路61号", "longitude": "106.567587", "latitude": "29.53648"}]