[{"name": "镇江东鹏洁具亚太专卖店", "address": "江苏省镇江市丁卯桥路亚太五金城14幢127-128号", "longitude": "119.518199", "latitude": "32.183232"}, {"name": "佛山市天洛建材贸易有限公司", "address": "广东省佛山市南海区大沥镇黄岐海北建设大道南红星美凯龙家居生活广场一楼A8050", "longitude": "113.20629", "latitude": "23.146012"}, {"name": "李凯健", "address": "广东省佛山市南海区西樵镇国际建材城B1022铺2楼", "longitude": "112.971437", "latitude": "22.966521"}, {"name": "佛山市禅城区宏典卫浴经营部", "address": "广东省佛山市狮山镇中心城区人民路3号奥米茄花园02号商铺", "longitude": "113.006177", "latitude": "23.131824"}, {"name": "佛山市南海区桂城Z辉卫浴洁具经营部", "address": "广东省佛山市南海区桂城新佛平路75街区家天下广场A区首层A1003A", "longitude": "113.160708", "latitude": "23.046236"}, {"name": "顺德区容桂曼博卫浴洁具店", "address": "广东省佛山市顺德区容桂风华路华柏雅苑九座首层5-6号铺", "longitude": "113.287761", "latitude": "22.768284"}, {"name": "佛山市南海区拓伟建材营销中心", "address": "广东省佛山市南海区罗村华南装饰材料城B区5路11号", "longitude": "113.077312", "latitude": "23.068738"}, {"name": "佛山陈家谊", "address": "广东省佛山市顺德区大良桂峰路景峰轩110号", "longitude": "113.281232", "latitude": "22.843441"}, {"name": "佛山吴海城", "address": "广东省佛山市南海区黄岐广佛国际五金城7号馆18-19号", "longitude": "113.18538", "latitude": "23.114739"}, {"name": "佛山市三水区西南街德兴建材商行", "address": "广东省佛山市三水区西南街健力宝北路21号首二层", "longitude": "112.905018", "latitude": "23.174158"}, {"name": "佛山市南海区里水华亮洁具店", "address": "广东省佛山市南海区里水镇和顺金逢路23号首层东1-2号", "longitude": "113.136407", "latitude": "23.261571"}, {"name": "佛山市澳星洲卫浴有限公司", "address": "广东省佛山市禅城区华艺装饰城8座46号", "longitude": "113.102936", "latitude": "23.005848"}, {"name": "佛山市南海区金柏紫罗卫浴商行", "address": "广东省佛山市南海区狮山镇罗村大道南3号尚观嘉园14号铺", "longitude": "113.049596", "latitude": "23.055903"}, {"name": "佛山市东鹏陶瓷有限公司", "address": "广东省佛山市禅城区江湾三路8号", "longitude": "113.092061", "latitude": "23.015429"}, {"name": "上海久实商贸有限公司", "address": "上海市上海市浦东新区周浦镇建韵路500号天纳商会1803室", "longitude": "121.573955", "latitude": "31.102556"}, {"name": "新疆西鹏投资管理有限公司", "address": "新疆乌鲁木齐市天津南路银座中心1203室", "longitude": "87.584063", "latitude": "43.872203"}, {"name": "平凉市崆峒区金涛五金水暖经销部", "address": "甘肃省平凉市崆峒区世博伟业精品馆二楼", "longitude": "106.747411", "latitude": "35.522969"}, {"name": "庆阳欣亦商贸有限公司", "address": "甘肃省庆阳市西峰区陇东建材市场灯具城南门C区5号", "longitude": "107.643222", "latitude": "35.727929"}, {"name": "二连浩特市星联贸易有限公司", "address": "内蒙古锡林郭勒盟自治区林郭勒盟二连浩特市贝加尔街南六街坊、诚信路149号", "longitude": "111.993961", "latitude": "43.642982"}, {"name": "集宁区开泰元卫浴经销部", "address": "内蒙古乌兰察布市集宁区温州建材城11#楼桥下阴面", "longitude": "113.153817", "latitude": "41.001731"}, {"name": "上海誉涵实业有限公司", "address": "内蒙古包头市青山区民族东路居然之家东鹏洁具", "longitude": "109.855872", "latitude": "40.662111"}, {"name": "宁夏天耀家居有限公司", "address": "宁夏固原市金华家居生活广场", "longitude": "106.268471", "latitude": "36.011734"}, {"name": "呼和浩特市众吉商贸有限责任公司", "address": "内蒙古呼和浩特市新城区东库街19号", "longitude": "111.697996", "latitude": "40.84107"}, {"name": "宁夏鑫鑫文博工贸有限公司", "address": "宁夏银川市兴庆区金茂建材城B3-14", "longitude": "106.313982", "latitude": "38.459082"}, {"name": "甘肃利江源商贸有限公司", "address": "甘肃省兰州市西固区福利东路60号兰州月星家居西固荔昌A010号", "longitude": "103.658705", "latitude": "36.089678"}, {"name": "兰州歆然居建筑装饰材料有限公司", "address": "甘肃省兰州市定西市亿联国际建材城"}, {"name": "城关区红星美凯龙澳斯曼卫浴经销部", "address": "甘肃省兰州市城关区红星美凯龙澳斯曼卫浴经销部", "longitude": "103.906966", "latitude": "36.055743"}, {"name": "临洮县成兴瓷砖南街店", "address": "甘肃省定西市临洮县洮阳镇南大街通明巷1号", "longitude": "103.869782", "latitude": "35.37687"}, {"name": "格尔木美心木门经营部", "address": "青海省海西州荣盛家居商城东门1号", "longitude": "94.92491", "latitude": "36.402093"}, {"name": "甘肃李清华", "address": "甘肃省陇南市成县陇南华吕电商产业园暨家居建材城", "longitude": "105.753197", "latitude": "33.742425"}, {"name": "兴达装饰材料批发部", "address": "甘肃省金昌市金川区金戈购物广场843号", "longitude": "102.18307", "latitude": "38.510397"}, {"name": "西宁宁尚商贸有限公司", "address": "青海省西宁市朝阳东路佳榭苑4-432室", "longitude": "101.775136", "latitude": "36.651069"}, {"name": "红古海石湾三德装饰建材经营部", "address": "甘肃省兰州市红古区海石湾西部综合市场", "longitude": "102.888206", "latitude": "36.347389"}, {"name": "天水金马装饰工程有限公司", "address": "甘肃省天水市桥南建材市场国际卫浴二号馆5号", "longitude": "105.900771", "latitude": "34.557324"}, {"name": "西宁家博士商贸有限公司", "address": "青海省西宁市城北区朝阳国际市场", "longitude": "101.771635", "latitude": "36.67536"}, {"name": "张掖市甘州区青真装饰材料店", "address": "甘肃省张掖市天佑家居广场103号", "longitude": "100.474202", "latitude": "38.926128"}, {"name": "甘肃昶盛商贸有限公司", "address": "甘肃省白银市白银区居然之家", "longitude": "104.139232", "latitude": "36.555588"}, {"name": "天水慧通装饰有限责任公司", "address": "甘肃省天水市武山县城关镇北滨河路安康家园", "longitude": "105.903374", "latitude": "34.57667"}, {"name": "拉萨美居建材有限公司", "address": "西藏拉萨市民族北路1号宏远家居装饰城", "longitude": "91.104051", "latitude": "29.66387"}, {"name": "甘肃中顺物资商贸有限责任公司", "address": "甘肃省兰州市城关区甘南路171号（兰海商贸城）", "longitude": "103.85668", "latitude": "36.052243"}, {"name": "榆林市星空商贸有限公司", "address": "陕西省榆林市高新区西部三辰家具建材市场主楼一层", "longitude": "109.760514", "latitude": "38.229077"}, {"name": "陕西鹏图建筑工程有限公司", "address": "陕西省西安市未央区先锋一路先锋花园南区16号楼901室", "longitude": "108.982713", "latitude": "34.31829"}, {"name": "陕西东鹏建材有限公司", "address": "陕西省西安市未央区太华北路242号", "longitude": "108.976869", "latitude": "34.319952"}, {"name": "乌兰浩特市吉亿陶瓷商行", "address": "内蒙古兴安盟乌兰浩特市备物流园区融佳建材市场14号楼门市", "longitude": "122.016388", "latitude": "46.107812"}, {"name": "满洲里市桂艳家具摊床", "address": "内蒙古呼伦贝尔市满洲里市音贸大厦25号", "longitude": "117.46558", "latitude": "49.598211"}, {"name": "呼伦贝尔市海拉尔区华涛商贸有限公司", "address": "内蒙古呼伦贝尔市海拉尔区革市街尚品国际家居建材城", "longitude": "119.757114", "latitude": "49.226989"}, {"name": "德惠市建设街东方厨具洁具城", "address": "吉林省长春市二道区福安街御景名都B区东鹏洁具", "longitude": "125.391202", "latitude": "43.90248"}, {"name": "沈阳市锦绣兴华陶瓷营销中心", "address": "辽宁省沈阳市锦绣兴华陶瓷营销中心", "longitude": "123.376704", "latitude": "41.800203"}, {"name": "赤峰市红山区意陶陶瓷经销处", "address": "内蒙古赤峰市红山区天丰市场B栋5#东鹏洁具", "longitude": "118.984875", "latitude": "42.280736"}, {"name": "葫芦岛市龙港区玉皇商城商贸寓言建材商行", "address": "辽宁省葫芦岛市龙港区锦葫路中旺商场", "longitude": "120.887861", "latitude": "40.74366"}, {"name": "营口市三福陶瓷有限公司", "address": "辽宁省营口市北方陶瓷城二期901-908展厅", "longitude": "122.28473", "latitude": "40.7097"}, {"name": "海城市响堂管理区宗骏宜家卫浴商行", "address": "辽宁省鞍山市宗骏家世界一层", "longitude": "122.745286", "latitude": "40.849563"}, {"name": "朝阳县昆鹏陶瓷洁具经销处", "address": "辽宁省朝阳市双塔区竹林路四段95号", "longitude": "120.448082", "latitude": "41.588263"}, {"name": "大连幸福家居世界黎明洁具商行", "address": "辽宁省大连市幸福家居世界二楼125号", "longitude": "121.583746", "latitude": "38.911165"}, {"name": "法库经济开发区好亿家卫浴营销中心", "address": "辽宁省沈阳市法库经济开发区派出所对面", "longitude": "123.416927", "latitude": "42.491623"}, {"name": "沈阳长城陶瓷有限公司", "address": "辽宁省沈阳市大东区东北陶瓷城东鹏旗舰店", "longitude": "123.523024", "latitude": "41.847581"}, {"name": "运城经济开发区伟创建材销售部", "address": "山西省运城市盐湖区禹都市场十三区东鹏洁具", "longitude": "111.035242", "latitude": "35.062737"}, {"name": "山西宏利爱家商贸有限公司", "address": "山西省长治市环东路万博装饰广场宜家苑生活体验馆一层B区12号", "longitude": "113.132851", "latitude": "36.186637"}, {"name": "大同市南郊区中益合创商贸有限公司", "address": "山西省大同市南环路正德广场A座10号", "longitude": "113.287714", "latitude": "40.069474"}, {"name": "临汾市尧都区创辉装饰材料门市部", "address": "山西省临汾市尧都区神州装饰城东区26-27号", "longitude": "111.519455", "latitude": "36.066478"}, {"name": "侯马经济开发区杰岭装饰材料经销部", "address": "山西省临汾市中天建材广场南一排一号东鹏洁具专卖店", "longitude": "111.398046", "latitude": "35.626845"}, {"name": "阳泉市郊区聚泉装饰材料总汇", "address": "山西省阳泉市桃北东路居然之家1230号东鹏洁具", "longitude": "113.605258", "latitude": "37.8682"}, {"name": "北京华宇京鹏建材有限公司", "address": "山西省太原市尖草坪区兴华街钢材大厦803室", "longitude": "112.52646", "latitude": "37.892552"}, {"name": "北京世达一博商贸有限公司", "address": "天津市天津市东丽区二维路9号财智大厦611室", "longitude": "117.358292", "latitude": "39.083954"}, {"name": "北京朗惠时代家居用品有限公司", "address": "北京市北京市朝阳区十里河闽龙陶瓷总部基地C区16号", "longitude": "116.484183", "latitude": "39.863952"}, {"name": "山东日高商贸有限公司", "address": "山东省济南市天桥区滨河商务中心C座401-407", "longitude": "117.054218", "latitude": "36.708243"}, {"name": "宿迁经济技术开发区航盛建材经营部", "address": "江苏省宿迁市义务商贸城精品家居广场一楼10028-10032号", "longitude": "118.287819", "latitude": "33.939549"}, {"name": "睢宁县睢城镇浩博建材经营部", "address": "江苏省徐州市睢宁县经济开发区104国道东侧11号金港国际建材家居广场", "longitude": "117.919936", "latitude": "33.906006"}, {"name": "徐州驰美建材有限公司", "address": "江苏省徐州市新世纪建材家居广场二期S-183、184号", "longitude": "117.227654", "latitude": "34.232989"}, {"name": "淮安市美家浴品商贸有限公司", "address": "江苏省淮安市清河区锦绣国际装饰城二楼", "longitude": "119.004513", "latitude": "33.59767"}, {"name": "连云港聚谦实业有限公司", "address": "江苏省连云港市经济技术开发区大埔工业区金桥路北", "longitude": "119.07991", "latitude": "35.021831"}, {"name": "连云港金汇美佳商贸有限公司", "address": "江苏省连云港市灌云县伊山镇云海花园19幢108号门面房", "longitude": "119.258738", "latitude": "34.296599"}, {"name": "扬州博菲特建材有限公司", "address": "江苏省扬州市经济开发区恒通金天城1908室", "longitude": "119.415504", "latitude": "32.376053"}, {"name": "泰州市梦之家贸易有限公司", "address": "江苏省泰州市海陵区迎宾路10号月星家居东鹏洁具", "longitude": "119.96794", "latitude": "32.503108"}, {"name": "盐城市水立方贸易有限公司", "address": "江苏省盐城市亭湖区开放大道268号盐城装饰装潢材料门市2号楼2109门市", "longitude": "120.130303", "latitude": "33.434426"}, {"name": "江苏行运建材有限公司", "address": "江苏省常州市天宁区友谊路8号", "longitude": "120.011876", "latitude": "31.751108"}, {"name": "安徽佳悦投资有限公司", "address": "安徽省合肥市肥东县华东建材城腾辉综合楼5楼501室", "longitude": "117.416492", "latitude": "31.840356"}, {"name": "温州市鸿联建材连锁有限公司", "address": "浙江省温州市龙湾区据巷中路21号", "longitude": "120.301522", "latitude": "30.324098"}, {"name": "杭州东琨建材有限公司", "address": "浙江省杭州市恒大国际建材家居博览中心写字楼A9-111", "longitude": "120.301522", "latitude": "30.324098"}, {"name": "安顺市欢喜岭聚鑫铝合金不锈钢综合批发市场有限公司", "address": "贵州省安顺市西秀区客车站建材市场172号", "longitude": "106.094992", "latitude": "25.755201"}, {"name": "赤水市金匠生态瓷砖经营门市", "address": "贵州省遵义市合江县九支镇富家坳388号", "longitude": "105.705286", "latitude": "28.590429"}, {"name": "刘祥和", "address": "贵州省黔东南州镇远县大菜园铭城花园东鹏洁具", "longitude": "108.417829", "latitude": "27.046553"}, {"name": "贵州金斗商贸有限公司", "address": "贵州省都匀市灵智家居博览城B2区1041", "longitude": "107.519052", "latitude": "26.328319"}, {"name": "七星关区鸭池镇银晶卫浴专卖店", "address": "贵州省毕节地区鸭池镇居然之家远航店1号楼1-013号", "longitude": "105.336319", "latitude": "27.288738"}, {"name": "安龙县莫家建材城", "address": "贵州省黔西南州鑫龙成东鹏洁具专卖店", "longitude": "106.973164", "latitude": "27.068722"}, {"name": "开阳县湘源装饰建材店", "address": "贵州省贵阳市火车站麒龙美家居建材市场", "longitude": "106.973164", "latitude": "27.068722"}, {"name": "兴义市洁丽厨卫经营部", "address": "贵州省黔西南州桔山大道桂城小区5-6号门市", "longitude": "104.932905", "latitude": "25.120858"}, {"name": "贵州大黄蜂鹏飞商贸有限公司", "address": "贵州省贵阳市解放路双龙洁具城", "longitude": "106.708413", "latitude": "26.568225"}, {"name": "仁怀市雄振建材经营部", "address": "贵州省仁怀市外环路车程广场红星美凯龙", "longitude": "106.414455", "latitude": "27.79542"}, {"name": "黔东南未来万家贸易有限公司", "address": "贵州省黔东南州迎宾大道国际商贸城C馆一楼", "longitude": "107.965247", "latitude": "26.568701"}, {"name": "六盘水市钟山区欧雅卫浴销售有限公司", "address": "贵州省六盘水南环路恒维建材城71号", "longitude": "104.862885", "latitude": "26.587544"}, {"name": "兴仁县湘仁厨卫洁具店", "address": "贵州省黔西南州盛丰国际商贸城", "longitude": "105.204192", "latitude": "25.439349"}, {"name": "环宇建材经营部", "address": "贵州省铜仁地区西南商贸城内", "longitude": "108.390417", "latitude": "28.015622"}, {"name": "安顺市平坝区质恒装饰材料经营部", "address": "贵州省安顺市亿丰国际商贸城", "longitude": "106.260913", "latitude": "26.402471"}, {"name": "贵州世爵建材有限公司", "address": "贵州省遵义市建材路新天地橱柜大世界", "longitude": "106.947815", "latitude": "27.696904"}, {"name": "云南正则商贸有限公司", "address": "云南省昆明市鸣泉得胜家俱城一楼A区12号", "longitude": "102.775461", "latitude": "24.988857"}, {"name": "云南卫通建材有限公司", "address": "云南省昆明市大商汇建材城B区30幢3-6号", "longitude": "102.713704", "latitude": "24.988274"}, {"name": "南宁市升钻商贸有限责任公司", "address": "广西南宁市秀厢大道99号快环建材市场A1栋1号", "longitude": "108.347214", "latitude": "22.873095"}, {"name": "成都市豪琳建材有限公司", "address": "四川省成都市东荆路988号华宇阳光尚座5栋2座405", "longitude": "104.122594", "latitude": "30.722243"}, {"name": "重庆广淘建材有限公司", "address": "重庆市九龙坡区科城路68号26-6号", "longitude": "106.467822", "latitude": "29.516257"}, {"name": "宜昌欧迅建材商贸有限公司", "address": "湖北省宜昌市欧亚达家居建材广场A1-14", "longitude": "111.332926", "latitude": "30.706795"}, {"name": "武汉佛鹏建材有限公司", "address": "湖北省武汉市解放大道南国大家装U座7楼709", "longitude": "114.357637", "latitude": "30.518833"}, {"name": "河南美鹏商贸有限公司", "address": "河南省郑州市商都路与农业路交叉口亚星投资大厦1401", "longitude": "113.763173", "latitude": "34.752211"}, {"name": "石狮市三跃建材贸易有限公司", "address": "福建省石狮市八七路1462-1468号东鹏瓷砖生活馆", "longitude": "118.638975", "latitude": "24.733936"}, {"name": "江西高时建材有限公司", "address": "江西省南昌市南昌高新技术产业开发区紫阳大道绿地新都会紫峰大厦写字楼1405室", "longitude": "115.999533", "latitude": "28.680777"}, {"name": "宜春烁果境建材有限公司", "address": "江西省宜春市国际商贸城11栋楼1-2号", "longitude": "114.408607", "latitude": "27.838456"}, {"name": "吉安市吉州区兴泰贸易有限公司", "address": "江西省吉安市吉州大道四方圆建材家居广场第C栋3铺", "longitude": "114.976923", "latitude": "27.120081"}, {"name": "赣州市跨世纪水暖器材有限公司", "address": "江西省赣州市龙都五岗路49号", "longitude": "114.965418", "latitude": "25.850019"}, {"name": "萍乡市中环贸易商行", "address": "江西省萍乡市安源建材市场", "longitude": "113.850654", "latitude": "27.635127"}, {"name": "渝水区东方巴黎家居广场渝鹏建材经营部", "address": "江西省新余市青年路东方巴黎家居广场三号馆", "longitude": "114.93452", "latitude": "27.818412"}, {"name": "九江市世嘉商贸有限公司", "address": "江西省九江市华东市场三期精品馆", "longitude": "115.987812", "latitude": "29.691836"}, {"name": "南昌创东贸易有限公司", "address": "江西省南昌市喜盈门", "longitude": "115.877186", "latitude": "28.64571"}, {"name": "抚州市临川区东鹏洁具经营部", "address": "江西省抚州市玉茗大道98号", "longitude": "116.361785", "latitude": "27.972976"}, {"name": "丰城东之鹏贸易有限公司", "address": "江西省丰城市林安国际商贸城B7栋13-21号", "longitude": "115.825098", "latitude": "28.195365"}, {"name": "上饶县君创建材店", "address": "江西省上饶市三清山大道", "longitude": "118.262781", "latitude": "28.682344"}, {"name": "湖南锦辉铭商贸有限公司", "address": "湖南省长沙市长沙大道566号星雅大厦1703", "longitude": "113.04834", "latitude": "28.174932"}, {"name": "海南金地建材贸易有限公司", "address": "海南省海口市南海大道88号万佳装饰广场E座303-304", "longitude": "110.330313", "latitude": "20"}, {"name": "阳江市高鹏五金交电有限公司", "address": "广东省阳江市华科国际建材市场19栋121-129号", "longitude": "112.046151", "latitude": "21.889495"}, {"name": "汕头市顺诚隆建材家居有限公司", "address": "广东省汕头市中山路166号国瑞建材家居博览中心2号馆A39号", "longitude": "116.74784", "latitude": "23.357575"}, {"name": "梅州市梅县区淦华建材经营部", "address": "广东省梅州市广梅北路（渡江律加油站斜对面）", "longitude": "113.086719", "latitude": "23.004829"}, {"name": "佛山市展缘陶瓷有限公司", "address": "广东省佛山市石湾镇街道建国路29号之一首层A2号", "longitude": "113.086719", "latitude": "23.004829"}, {"name": "深圳东鹏陶瓷有限公司", "address": "广东省深圳市八卦四路49号东鹏瓷砖国际风尚馆", "longitude": "114.103591", "latitude": "22.56958"}, {"name": "深圳市港辉鸿发贸易有限公司", "address": "广东省深圳市44区海云轩花园一楼1168-17号", "longitude": "113.900283", "latitude": "22.564034"}, {"name": "江门市新会区富饶建材贸易有限公司", "address": "广东省江门市新会区会城镇振兴二路59号102", "longitude": "113.052453", "latitude": "22.52142"}, {"name": "鹤山市合创盈逸建材贸易有限公司", "address": "广东省鹤山市沙坪镇人民西路55号", "longitude": "112.955121", "latitude": "22.772798"}, {"name": "佛冈县蓝箭装饰建材有限公司", "address": "广东省清远市佛冈县振兴中路东鹏陶瓷", "longitude": "113.539863", "latitude": "23.869247"}, {"name": "仁化县雄鹰装饰材料购销部", "address": "广东省韶关市仁化县建设路234号", "longitude": "113.737534", "latitude": "25.09511"}, {"name": "翁源县盛豪家居建材店", "address": "广东省韶关市翁源县龙湖花园首层东鹏", "longitude": "114.132462", "latitude": "24.367576"}, {"name": "武江区国记建材经营部", "address": "广东省韶关市武江区工业西路前进市场陶瓷区B3-4", "longitude": "113.563021", "latitude": "24.802174"}, {"name": "端州区广合兴建材店", "address": "广东省肇庆市端州区一路集美居装饰材料城东鹏国际生活馆", "longitude": "112.523596", "latitude": "23.096451"}, {"name": "广州市东鹏陶瓷有限责任公司", "address": "广东省广州市天河区车陂路95号-2层", "longitude": "113.396862", "latitude": "23.125795"}]