[{"name": "北京顺华安恒商贸中心", "address": "北京市丰台区正阳大街127号东方玉龙物业1楼，", "phone_number": "13439106562", "longitude": "116.291833", "latitude": "39.854102", "id": 155839, "preview_image": "brands_images/full/124.jpg", "brand_id": 124, "create_time": "NOW()", "official_coord": 1, "region_id_1": 110000, "region_id_2": 110100, "region_id_3": 110106}, {"name": "北京国旺腾达科技有限公司", "address": "北京市海淀区西三环北路101号", "phone_number": "010-57429916/56422055/15321382810", "longitude": "116.31589", "latitude": "39.938854", "id": 155840, "preview_image": "brands_images/full/124.jpg", "brand_id": 124, "create_time": "NOW()", "official_coord": 1, "region_id_1": 110000, "region_id_2": 110100, "region_id_3": 110108}, {"name": "北京鼎鑫博达商贸有限公司（北京腾源四海）", "address": "北京亦庄开发区好景国际创业园1号楼507", "phone_number": "010-87220674", "longitude": "116.506103", "latitude": "39.778883", "id": 155841, "preview_image": "brands_images/full/124.jpg", "brand_id": 124, "create_time": "NOW()", "official_coord": 1, "region_id_1": 110000, "region_id_2": 110100, "region_id_3": 110115}, {"name": "（星网）北京九九康家商贸有限公司", "address": "北京市朝阳区博大路3号院自主城9-113", "phone_number": "010-57269893/010-57269895", "longitude": "116.42404", "latitude": "39.983276", "id": 155842, "preview_image": "brands_images/full/124.jpg", "brand_id": 124, "create_time": "NOW()", "official_coord": 1, "region_id_1": 110000, "region_id_2": 110100, "region_id_3": 110105}, {"name": "深圳市顺丰电子产品售后服务有限公司", "address": "北京市顺义区空港物流园顺航路8号院E库2层；", "phone_number": "9533886/13611181267", "longitude": "116.599259", "latitude": "40.129788", "id": 155843, "preview_image": "brands_images/full/124.jpg", "brand_id": 124, "create_time": "NOW()", "official_coord": 1, "region_id_1": 110000, "region_id_2": 110100, "region_id_3": 110113}, {"name": "北京金景满天家用电器销售中心", "address": "北京市通州区如意园底商12-3", "phone_number": "010-57262729/18911813607", "longitude": "116.67374", "latitude": "39.91717", "id": 155844, "preview_image": "brands_images/full/124.jpg", "brand_id": 124, "create_time": "NOW()", "official_coord": 1, "region_id_1": 110000, "region_id_2": 110100, "region_id_3": 110112}, {"name": "沧州市格调生活净水设备有限公司", "address": "沧州市运河区一世界写字楼A座1218室", "phone_number": "0317-5200200", "longitude": "116.829132", "latitude": "38.311458", "id": 155845, "preview_image": "brands_images/full/124.jpg", "brand_id": 124, "create_time": "NOW()", "official_coord": 1, "region_id_1": 130000, "region_id_2": 130900, "region_id_3": 130903}, {"name": "石家庄市长安区昌安家电维修部", "address": "石家庄市，长安区，棉六小区11-3-102", "phone_number": "0311-85340721/15631132263", "longitude": "114.517437", "latitude": "38.084858", "id": 155846, "preview_image": "brands_images/full/124.jpg", "brand_id": 124, "create_time": "NOW()", "official_coord": 1, "region_id_1": 130000, "region_id_2": 130100, "region_id_3": 130102}, {"name": "石家庄市长安区洛贝家电维修服务部", "address": "石家庄市长安区平安北大街158号紫晶苑3C-1-201", "phone_number": "0311-86030718/86077948", "longitude": "114.506125", "latitude": "38.06126", "id": 155847, "preview_image": "brands_images/full/124.jpg", "brand_id": 124, "create_time": "NOW()", "official_coord": 1, "region_id_1": 130000, "region_id_2": 130500, "region_id_3": 130502}, {"name": "唐山市路北区海之峰家电维修部", "address": "唐山市路北区机北楼39楼3门301", "phone_number": "13733330015", "longitude": "118.177263", "latitude": "39.658002", "id": 155848, "preview_image": "brands_images/full/124.jpg", "brand_id": 124, "create_time": "NOW()", "official_coord": 1, "region_id_1": 130000, "region_id_2": 130200, "region_id_3": 130203}, {"name": "天津市河东区维科鼎城家电维修部", "address": "天津市河东区卓越大厦十经路10-125", "phone_number": "13821000920/022-58651046/13821720380", "longitude": "117.231133", "latitude": "39.130897", "id": 155849, "preview_image": "brands_images/full/124.jpg", "brand_id": 124, "create_time": "NOW()", "official_coord": 1, "region_id_1": 120000, "region_id_2": 120100, "region_id_3": 120102}, {"name": "天津鑫源电器销售有限公司", "address": "天津市河东区成林道110号永宁路太脱拉仓库门口", "phone_number": "15900248118", "longitude": "117.264099", "latitude": "39.13858", "id": 155850, "preview_image": "brands_images/full/124.jpg", "brand_id": 124, "create_time": "NOW()", "official_coord": 1, "region_id_1": 120000, "region_id_2": 120100, "region_id_3": 120102}, {"name": "太原市杏花岭区腾发电器服务部", "address": "太原市杏花岭区解放路与北沙河南沿岸交叉口西50米", "phone_number": "13934574420", "longitude": "112.570329", "latitude": "37.899679", "id": 155851, "preview_image": "brands_images/full/124.jpg", "brand_id": 124, "create_time": "NOW()", "official_coord": 1, "region_id_1": 140000, "region_id_2": 140100, "region_id_3": 140107}, {"name": "太原市小店区科鑫达经营部", "address": "太原市小店区南内环街102号阳光数码港A344号", "phone_number": "0351-7528192/8334500", "longitude": "112.570255", "latitude": "37.844766", "id": 155852, "preview_image": "brands_images/full/124.jpg", "brand_id": 124, "create_time": "NOW()", "official_coord": 1, "region_id_1": 140000, "region_id_2": 140100, "region_id_3": 140105}, {"name": "山西奥强科技有限公司", "address": "山西省大同市魏都大道华林新天地一层", "phone_number": "18603521507", "longitude": "113.295289", "latitude": "40.100328", "id": 155853, "preview_image": "brands_images/full/124.jpg", "brand_id": 124, "create_time": "NOW()", "official_coord": 1, "region_id_1": 140000, "region_id_2": 140200, "region_id_3": 140202}, {"name": "新城区数源电子产品售后服务部", "address": "内蒙古呼和浩特市新华东街富华大厦6楼东鸽电器医院", "phone_number": "13850203330/0471-3818777", "longitude": "111.696808", "latitude": "40.832132", "id": 155854, "preview_image": "brands_images/full/124.jpg", "brand_id": 124, "create_time": "NOW()", "official_coord": 1, "region_id_1": 150000, "region_id_2": 150100, "region_id_3": 150102}, {"name": "上海宏志电器维修有限公司", "address": "上海市虹口区吉祥路108号，", "phone_number": "021-56668284", "longitude": "121.493289", "latitude": "31.270686", "id": 155855, "preview_image": "brands_images/full/124.jpg", "brand_id": 124, "create_time": "NOW()", "official_coord": 1, "region_id_1": 310000, "region_id_2": 310100, "region_id_3": 310109}, {"name": "上海恿幸电子技术有限公司", "address": "上海浦东高科西路1807号", "phone_number": "021-50906740", "longitude": "121.536175", "latitude": "31.193804", "id": 155856, "preview_image": "brands_images/full/124.jpg", "brand_id": 124, "create_time": "NOW()", "official_coord": 1, "region_id_1": 310000, "region_id_2": 310100, "region_id_3": 310115}, {"name": "上海九歆实业有限公司", "address": "上海市普陀区武宁路350号联合大厦2楼213室", "phone_number": "021-62888033", "longitude": "121.426999", "latitude": "31.247878", "id": 155857, "preview_image": "brands_images/full/124.jpg", "brand_id": 124, "create_time": "NOW()", "official_coord": 1, "region_id_1": 310000, "region_id_2": 310100, "region_id_3": 310107}, {"name": "上海雁塞控制设备有限公司", "address": "上海闵行区莲花路288弄23号103室（近南方商城）", "phone_number": "021-61995923、021－60511276", "longitude": "121.40955", "latitude": "31.14353", "id": 155858, "preview_image": "brands_images/full/124.jpg", "brand_id": 124, "create_time": "NOW()", "official_coord": 1, "region_id_1": 310000, "region_id_2": 310100, "region_id_3": 310112}, {"name": "江西嗨森无人机智能科技有限公司", "address": "南昌市高新区紫阳大道3088号泰豪科技广场B栋6层", "phone_number": "0791-88861990/18852634656", "longitude": "115.995763", "latitude": "28.679969", "id": 155859, "preview_image": "brands_images/full/124.jpg", "brand_id": 124, "create_time": "NOW()", "official_coord": 1, "region_id_1": 360000, "region_id_2": 360100, "region_id_3": 360121}, {"name": "杭州雨津电器有限公司", "address": "浙江省杭州市下城区潮王路45号东方豪园一楼西门（保安亭旁）", "phone_number": "0571-86526637", "longitude": "120.169731", "latitude": "30.294895", "id": 155860, "preview_image": "brands_images/full/124.jpg", "brand_id": 124, "create_time": "NOW()", "official_coord": 1, "region_id_1": 330000, "region_id_2": 330100, "region_id_3": 330103}, {"name": "慈溪市浒山飞利家电维修部", "address": "慈溪市浒山街道孙塘路455弄31号", "phone_number": "0574-63029215", "longitude": "121.26134", "latitude": "30.177816", "id": 155861, "preview_image": "brands_images/full/124.jpg", "brand_id": 124, "create_time": "NOW()", "official_coord": 1, "region_id_1": 330000, "region_id_2": 330200, "region_id_3": 330282}, {"name": "绍兴市中晶电子科技有限公司", "address": "越城区中兴北路390号泓城大厦1128室", "phone_number": "0575-85127002/13355859981", "longitude": "120.60042", "latitude": "30.023859", "id": 155862, "preview_image": "brands_images/full/124.jpg", "brand_id": 124, "create_time": "NOW()", "official_coord": 1, "region_id_1": 330000, "region_id_2": 330600, "region_id_3": 330602}, {"name": "宁波市鄞州新河甬城家电维修部", "address": "宁波市江东区惊驾路506号", "phone_number": "0574-87774444", "longitude": "121.595908", "latitude": "29.877239", "id": 155863, "preview_image": "brands_images/full/124.jpg", "brand_id": 124, "create_time": "NOW()", "official_coord": 1, "region_id_1": 330000, "region_id_2": 330200, "region_id_3": 330212}, {"name": "嘉兴同仁物资有限公司", "address": "浙江省嘉兴市秀洲区中山西路566号", "phone_number": "0573-82022666", "longitude": "120.731151", "latitude": "30.764841", "id": 155864, "preview_image": "brands_images/full/124.jpg", "brand_id": 124, "create_time": "NOW()", "official_coord": 1, "region_id_1": 330000, "region_id_2": 330400, "region_id_3": 330411}, {"name": "温州市申凯贸易有限公司", "address": "温州市开源路金石园4-102", "phone_number": "0577-89996900、89996800", "longitude": "120.692386", "latitude": "28.003206", "id": 155865, "preview_image": "brands_images/full/124.jpg", "brand_id": 124, "create_time": "NOW()", "official_coord": 1, "region_id_1": 330000, "region_id_2": 330300, "region_id_3": 330302}, {"name": "台州市力志家电维修有限公司", "address": "台州市广厦路25号", "phone_number": "0576-88895555", "longitude": "121.437166", "latitude": "28.649516", "id": 155866, "preview_image": "brands_images/full/124.jpg", "brand_id": 124, "create_time": "NOW()", "official_coord": 1, "region_id_1": 330000, "region_id_2": 331000, "region_id_3": 331002}, {"name": "南长区泓孚电器维修部", "address": "无锡市春申路五里新村38-1号", "phone_number": "0510-83090521、0510-83027155", "longitude": "120.292533", "latitude": "31.587515", "id": 155867, "preview_image": "brands_images/full/124.jpg", "brand_id": 124, "create_time": "NOW()", "official_coord": 1, "region_id_1": 0, "region_id_2": 0, "region_id_3": 0}, {"name": "江阴市东方电器有限公司", "address": "江阴市环城东路51-3", "phone_number": "0510-86892897", "longitude": "120.284081", "latitude": "31.907427", "id": 155868, "preview_image": "brands_images/full/124.jpg", "brand_id": 124, "create_time": "NOW()", "official_coord": 1, "region_id_1": 320000, "region_id_2": 320200, "region_id_3": 320281}, {"name": "南京春荣电器服务部", "address": "南京市秦淮区龙蟠中路317-2号，达美御园819室", "phone_number": "025-84541736、13016938772", "longitude": "118.806192", "latitude": "32.036271", "id": 155869, "preview_image": "brands_images/full/124.jpg", "brand_id": 124, "create_time": "NOW()", "official_coord": 1, "region_id_1": 320000, "region_id_2": 320100, "region_id_3": 320104}, {"name": "南京市雨花台区灿阳电器维修服务部", "address": "南京市雨花台区玉兰路99号1幢3066室", "phone_number": "15851804177", "longitude": "118.803807", "latitude": "31.98532", "id": 155870, "preview_image": "brands_images/full/124.jpg", "brand_id": 124, "create_time": "NOW()", "official_coord": 1, "region_id_1": 320000, "region_id_2": 320100, "region_id_3": 320114}, {"name": "扬州金鼎家电维修站", "address": "扬州市广陵路皮市街8号-2", "phone_number": "0514-87227999、87226315、87221315、87234322", "longitude": "119.45462", "latitude": "32.394981", "id": 155871, "preview_image": "brands_images/full/124.jpg", "brand_id": 124, "create_time": "NOW()", "official_coord": 1, "region_id_1": 320000, "region_id_2": 321000, "region_id_3": 321002}, {"name": "润州区彭海家电维修服务部", "address": "镇江市润州区御桥巷39号江南茗苑9幢102门面房", "phone_number": "0511-85603186", "longitude": "119.414716", "latitude": "32.201411", "id": 155872, "preview_image": "brands_images/full/124.jpg", "brand_id": 124, "create_time": "NOW()", "official_coord": 1, "region_id_1": 320000, "region_id_2": 321100, "region_id_3": 321111}, {"name": "姑苏区津岭元电器有限公司", "address": "苏州市广济南路288号石路金座大厦11楼11009室", "phone_number": "0512-68550305、15851463142", "longitude": "120.60689", "latitude": "31.317863", "id": 155873, "preview_image": "brands_images/full/124.jpg", "brand_id": 124, "create_time": "NOW()", "official_coord": 1, "region_id_1": 320000, "region_id_2": 320500, "region_id_3": 320508}, {"name": "张家港市保意电器有限公司", "address": "张家港市西门路168号", "phone_number": "0512-58151303", "longitude": "120.539695", "latitude": "31.871435", "id": 155874, "preview_image": "brands_images/full/124.jpg", "brand_id": 124, "create_time": "NOW()", "official_coord": 1, "region_id_1": 320000, "region_id_2": 320500, "region_id_3": 320582}, {"name": "昆山商厦股份有限公司", "address": "昆山市正阳路99号", "phone_number": "0512-57366442、13773109192", "longitude": "120.962931", "latitude": "31.382661", "id": 155875, "preview_image": "brands_images/full/124.jpg", "brand_id": 124, "create_time": "NOW()", "official_coord": 1, "region_id_1": 320000, "region_id_2": 320500, "region_id_3": 320583}, {"name": "常州市钟楼区荷花凯驰家电维修服务部", "address": "常州市芦墅广景苑18号门店", "phone_number": "18994760867、13861048918", "longitude": "119.944114", "latitude": "31.802204", "id": 155876, "preview_image": "brands_images/full/124.jpg", "brand_id": 124, "create_time": "NOW()", "official_coord": 1, "region_id_1": 320000, "region_id_2": 320400, "region_id_3": 320404}, {"name": "徐州市云龙区永信家电维修服务部", "address": "徐州市云龙区津浦东路32号美美家园", "phone_number": "0516-83755377", "longitude": "117.217222", "latitude": "34.259067", "id": 155877, "preview_image": "brands_images/full/124.jpg", "brand_id": 124, "create_time": "NOW()", "official_coord": 1, "region_id_1": 320000, "region_id_2": 320300, "region_id_3": 320303}, {"name": "盐城飞鹤网络科技有限公司", "address": "盐城市海纯东路2号", "phone_number": "13182178197  0515-88559798", "longitude": "120.151375", "latitude": "33.412574", "id": 155878, "preview_image": "brands_images/full/124.jpg", "brand_id": 124, "create_time": "NOW()", "official_coord": 1, "region_id_1": 320000, "region_id_2": 320900, "region_id_3": 320902}, {"name": "泸州市江阳区捷盛家电维修服务中心", "address": "泸州市江阳区阳光路2号18号楼10号", "phone_number": "0830-2289877", "longitude": "105.432493", "latitude": "28.876569", "id": 155879, "preview_image": "brands_images/full/124.jpg", "brand_id": 124, "create_time": "NOW()", "official_coord": 1, "region_id_1": 510000, "region_id_2": 510500, "region_id_3": 510502}, {"name": "贵阳云岩金鑫小家电售后服务部", "address": "贵阳市中华南路91号贵阳万国大厦3楼B10", "phone_number": "13984869588、14785545110", "longitude": "106.720281", "latitude": "26.57831", "id": 155880, "preview_image": "brands_images/full/124.jpg", "brand_id": 124, "create_time": "NOW()", "official_coord": 1, "region_id_1": 520000, "region_id_2": 520100, "region_id_3": 520102}, {"name": "昆明d鹏电子科技有限公司", "address": "人民中路象眼街龙跃大厦9楼G座", "phone_number": "0871-63826081、0871-63826082", "longitude": "102.718057", "latitude": "25.046738", "id": 155881, "preview_image": "brands_images/full/124.jpg", "brand_id": 124, "create_time": "NOW()", "official_coord": 1, "region_id_1": 530000, "region_id_2": 530100, "region_id_3": 530102}, {"name": "四川省南充市名牌家电城维修部", "address": "南充市和平西路56号", "phone_number": "0817-2312345、2335533", "longitude": "106.087297", "latitude": "30.808488", "id": 155882, "preview_image": "brands_images/full/124.jpg", "brand_id": 124, "create_time": "NOW()", "official_coord": 1, "region_id_1": 510000, "region_id_2": 511300, "region_id_3": 511302}, {"name": "德阳市旌阳区南科电器维修部", "address": "德阳市旌阳区屏山街115号", "phone_number": "0838-2531167", "longitude": "104.420755", "latitude": "31.138049", "id": 155883, "preview_image": "brands_images/full/124.jpg", "brand_id": 124, "create_time": "NOW()", "official_coord": 1, "region_id_1": 510000, "region_id_2": 510600, "region_id_3": 510603}, {"name": "绵阳金智融汇科技有限公司", "address": "四川省绵阳市跃进路4号长虹国际城一期北13-1-8号（原长虹厂大门，新营销中心左边上二楼）", "phone_number": "0816-2316868、0816-2302828", "longitude": "104.74904", "latitude": "31.474478", "id": 155884, "preview_image": "brands_images/full/124.jpg", "brand_id": 124, "create_time": "NOW()", "official_coord": 1, "region_id_1": 510000, "region_id_2": 510700, "region_id_3": 510703}, {"name": "成都青羊区世一恒家用电器维修部", "address": "成都市青羊区锦屏南路1号金沙蜜地4楼23号室（金沙车站旁）", "phone_number": "028-87382122,18380224224", "longitude": "104.020036", "latitude": "30.678476", "id": 155885, "preview_image": "brands_images/full/124.jpg", "brand_id": 124, "create_time": "NOW()", "official_coord": 1, "region_id_1": 510000, "region_id_2": 510100, "region_id_3": 510105}, {"name": "成都入世电器服务有限公司 ", "address": "成都市驷马桥东立国际广场B1区13楼33号", "phone_number": "028-87330404、028-82003006", "longitude": "104.102006", "latitude": "30.70881", "id": 155886, "preview_image": "brands_images/full/124.jpg", "brand_id": 124, "create_time": "NOW()", "official_coord": 1, "region_id_1": 510000, "region_id_2": 510100, "region_id_3": 510108}, {"name": "佛山市卓鑫电器有限公司", "address": "佛山市禅城区黎涌上村南街三巷7号", "phone_number": "18576539089", "longitude": "113.114485", "latitude": "22.993898", "id": 155887, "preview_image": "brands_images/full/124.jpg", "brand_id": 124, "create_time": "NOW()", "official_coord": 1, "region_id_1": 440000, "region_id_2": 440600, "region_id_3": 440604}, {"name": "广州市南沙区榄核东郁通讯商行", "address": "广州市海珠区新蛑新161号4号楼B6区208室", "phone_number": "020-84132395", "longitude": "113.327002", "latitude": "23.084019", "id": 155888, "preview_image": "brands_images/full/124.jpg", "brand_id": 124, "create_time": "NOW()", "official_coord": 1, "region_id_1": 440000, "region_id_2": 440100, "region_id_3": 440105}, {"name": "漳州市芗城区信艺家用电器维修店", "address": "漳州市芗城区打锡巷47号工商联7-8号店", "phone_number": "0596-2895800", "longitude": "117.666009", "latitude": "24.513588", "id": 155889, "preview_image": "brands_images/full/124.jpg", "brand_id": 124, "create_time": "NOW()", "official_coord": 1, "region_id_1": 350000, "region_id_2": 350600, "region_id_3": 350602}, {"name": "厦门市思明区佳鸿翔飞家电经营部", "address": "福建厦门市思明区后埭溪路248号之3店面", "phone_number": "0592-5170118", "longitude": "118.112972", "latitude": "24.476403", "id": 155890, "preview_image": "brands_images/full/124.jpg", "brand_id": 124, "create_time": "NOW()", "official_coord": 1, "region_id_1": 350000, "region_id_2": 350200, "region_id_3": 350203}, {"name": "台江区齐心电子商行", "address": "福州市鼓楼区八一七中路41号新兴大厦1103室（南门兜市地税局旁）", "phone_number": "0591-83314013、13950260516", "longitude": "119.315573", "latitude": "26.073059", "id": 155891, "preview_image": "brands_images/full/124.jpg", "brand_id": 124, "create_time": "NOW()", "official_coord": 1, "region_id_1": 350000, "region_id_2": 350100, "region_id_3": 350111}, {"name": "广西承远商贸有限公司", "address": "南宁市青秀区平湖路8号伟业小区14栋1楼15号铺", "phone_number": "0771-3391280、17736613280", "longitude": "108.363873", "latitude": "22.830734", "id": 155892, "preview_image": "brands_images/full/124.jpg", "brand_id": 124, "create_time": "NOW()", "official_coord": 1, "region_id_1": 450000, "region_id_2": 450100, "region_id_3": 450103}, {"name": "南宁南方家电维修中心", "address": "广西南宁市唐山路29号", "phone_number": "0771-3907787", "longitude": "108.330471", "latitude": "22.838446", "id": 155893, "preview_image": "brands_images/full/124.jpg", "brand_id": 124, "create_time": "NOW()", "official_coord": 1, "region_id_1": 450000, "region_id_2": 450100, "region_id_3": 450107}, {"name": "湛江市赤坎区南洛电器维修部", "address": "湛江市赤坎区南桥北路13号", "phone_number": "0759-3352097、18902571789", "longitude": "110.374485", "latitude": "21.273615", "id": 155894, "preview_image": "brands_images/full/124.jpg", "brand_id": 124, "create_time": "NOW()", "official_coord": 1, "region_id_1": 440000, "region_id_2": 440800, "region_id_3": 440802}, {"name": "汕头市永欣智能科技有限公司", "address": "汕头市金砂路127号金怡大厦2907房B", "phone_number": "0754-88698788、88698735", "longitude": "116.697136", "latitude": "23.3642", "id": 155895, "preview_image": "brands_images/full/124.jpg", "brand_id": 124, "create_time": "NOW()", "official_coord": 1, "region_id_1": 440000, "region_id_2": 440500, "region_id_3": 440507}, {"name": "广州中电瑞鹰电子股份有限公司", "address": "广州市天河区广州大道中628号广州国际贸易大厦1楼", "phone_number": "020-87603320、87616958", "longitude": "113.322466", "latitude": "23.138793", "id": 155896, "preview_image": "brands_images/full/124.jpg", "brand_id": 124, "create_time": "NOW()", "official_coord": 1, "region_id_1": 440000, "region_id_2": 440100, "region_id_3": 440106}, {"name": "深圳市中杰家电服务有限公司", "address": "广东省深圳市福田区园岭新村园岭三街37栋108", "phone_number": "0755-89821234", "longitude": "114.107615", "latitude": "22.556667", "id": 155897, "preview_image": "brands_images/full/124.jpg", "brand_id": 124, "create_time": "NOW()", "official_coord": 1, "region_id_1": 440000, "region_id_2": 440300, "region_id_3": 440304}, {"name": "深圳市全家好电器技术开发有限责任公司 ", "address": "深圳龙岗区布吉西环路88号文博宫8-116号", "phone_number": "0755-83340304、83340294", "longitude": "114.109928", "latitude": "22.61095", "id": 155898, "preview_image": "brands_images/full/124.jpg", "brand_id": 124, "create_time": "NOW()", "official_coord": 1, "region_id_1": 440000, "region_id_2": 440300, "region_id_3": 440307}, {"name": "洛阳通汇家电服务有限公司", "address": "洛阳市老城区唐宫路家电市场中区6排3号", "phone_number": "0379-64215126", "longitude": "112.465252", "latitude": "34.688884", "id": 155899, "preview_image": "brands_images/full/124.jpg", "brand_id": 124, "create_time": "NOW()", "official_coord": 1, "region_id_1": 410000, "region_id_2": 410300, "region_id_3": 410302}, {"name": "温县九阳家电服务部", "address": "温县古温大街17号", "phone_number": "0391-6181244", "longitude": "113.091186", "latitude": "34.940909", "id": 155900, "preview_image": "brands_images/full/124.jpg", "brand_id": 124, "create_time": "NOW()", "official_coord": 1, "region_id_1": 410000, "region_id_2": 410800, "region_id_3": 410825}, {"name": "郑州市东鹏电器技术有限公司", "address": "郑州市金水区玉凤路大观国际7号楼103", "phone_number": "0371-65937818", "longitude": "113.716872", "latitude": "34.759789", "id": 155901, "preview_image": "brands_images/full/124.jpg", "brand_id": 124, "create_time": "NOW()", "official_coord": 1, "region_id_1": 410000, "region_id_2": 410100, "region_id_3": 410105}, {"name": "招远市迎宾家电维修部", "address": "招远市金水桥商业街D-65号", "phone_number": "13562565880、0535-8259659", "longitude": "120.404086", "latitude": "37.363143", "id": 155902, "preview_image": "brands_images/full/124.jpg", "brand_id": 124, "create_time": "NOW()", "official_coord": 1, "region_id_1": 370000, "region_id_2": 370600, "region_id_3": 370685}, {"name": "济宁九龙贵和商贸集团有限公司", "address": "济宁市市中区三里营2号三里营立交桥西路南", "phone_number": "0537-2219558、2355678、2219558、2396766", "longitude": "116.613167", "latitude": "35.404102", "id": 155903, "preview_image": "brands_images/full/124.jpg", "brand_id": 124, "create_time": "NOW()", "official_coord": 1, "region_id_1": 370000, "region_id_2": 370800, "region_id_3": 370811}, {"name": "烟台美的饮水设备有限公司（津湖净水）（威海市）", "address": "威海市文化中路50号华安大厦1楼109室", "phone_number": "0631-5327791", "longitude": "122.112747", "latitude": "37.517673", "id": 155904, "preview_image": "brands_images/full/124.jpg", "brand_id": 124, "create_time": "NOW()", "official_coord": 1, "region_id_1": 370000, "region_id_2": 371000, "region_id_3": 371002}, {"name": "泰安市泰山区升平街恒升家电维修部", "address": "山东泰安市升平小区军分区2号楼（下面门市房）", "phone_number": "0538-8539529", "longitude": "117.141634", "latitude": "36.194369", "id": 155905, "preview_image": "brands_images/full/124.jpg", "brand_id": 124, "create_time": "NOW()", "official_coord": 1, "region_id_1": 370000, "region_id_2": 370900, "region_id_3": 370902}, {"name": "滨州市滨城区一鸣家电贸易中心", "address": "滨州市黄河十路渤海九路锦城大厦往西100米路北", "phone_number": "0543-3388900", "longitude": "118.011634", "latitude": "37.404645", "id": 155906, "preview_image": "brands_images/full/124.jpg", "brand_id": 124, "create_time": "NOW()", "official_coord": 1, "region_id_1": 370000, "region_id_2": 371600, "region_id_3": 371602}, {"name": "济南市天桥区东欣家电服务中心", "address": "济南市天桥区生产路湖滨苑5号楼5-5号（鲁能康桥东门）", "phone_number": "0531-86113876", "longitude": "117.019121", "latitude": "36.685941", "id": 155907, "preview_image": "brands_images/full/124.jpg", "brand_id": 124, "create_time": "NOW()", "official_coord": 1, "region_id_1": 370000, "region_id_2": 370100, "region_id_3": 370105}, {"name": "青岛市市北区飞之青家电服务中心", "address": "青岛市北区滨县路59号-5号", "phone_number": "0532-83810178、83832371", "longitude": "120.354772", "latitude": "36.091086", "id": 155908, "preview_image": "brands_images/full/124.jpg", "brand_id": 124, "create_time": "NOW()", "official_coord": 1, "region_id_1": 370000, "region_id_2": 370200, "region_id_3": 370203}, {"name": "张店区柳泉路金联家电维修服务部 ", "address": "山东省淄博市张店区华光路义乌路向南恒兴幼儿园南邻（科沃斯机器人星级服务中心）", "phone_number": "0533-8366285、13625335157", "longitude": "118.022406", "latitude": "36.823846", "id": 155909, "preview_image": "brands_images/full/124.jpg", "brand_id": 124, "create_time": "NOW()", "official_coord": 1, "region_id_1": 370000, "region_id_2": 370300, "region_id_3": 370303}, {"name": "东营宸坤家电技术服务有限公司", "address": "东营市东城金辰美食街34-7（安和南区北门向西50米路南)", "phone_number": "0546 7777919、8888919", "longitude": "118.660649", "latitude": "37.461901", "id": 155910, "preview_image": "brands_images/full/124.jpg", "brand_id": 124, "create_time": "NOW()", "official_coord": 1, "region_id_1": 370000, "region_id_2": 370500, "region_id_3": 370502}, {"name": "城关区南昌路腾鑫电子产品服务驿站", "address": "兰州市城关区南昌路674号", "phone_number": "0931-4968923", "longitude": "103.866375", "latitude": "36.059416", "id": 155911, "preview_image": "brands_images/full/124.jpg", "brand_id": 124, "create_time": "NOW()", "official_coord": 1, "region_id_1": 540000, "region_id_2": 540100, "region_id_3": 540102}, {"name": "重庆市江北区观音桥华强家电维修部", "address": "重庆市江北区华新街区府路2号付4号（西普大厦停车场旁）", "phone_number": "023-67754756、023-67737774", "longitude": "106.542404", "latitude": "29.574411", "id": 155912, "preview_image": "brands_images/full/124.jpg", "brand_id": 124, "create_time": "NOW()", "official_coord": 1, "region_id_1": 330000, "region_id_2": 330200, "region_id_3": 330205}, {"name": "新疆中润林贸易有限公司", "address": "乌鲁木齐市水磨沟区南湖东路北五巷青田一巷（或水磨沟区长青四队俪苑小区对面30米）", "phone_number": "0991-4673950       18199736376", "longitude": "87.632025", "latitude": "43.837133", "id": 155913, "preview_image": "brands_images/full/124.jpg", "brand_id": 124, "create_time": "NOW()", "official_coord": 1, "region_id_1": 650000, "region_id_2": 650100, "region_id_3": 650105}, {"name": "西宁城西索诚电子产品维修部", "address": "青海省西宁市胜利路22号1层2号", "phone_number": "0971-6141099", "longitude": "101.773737", "latitude": "36.6386", "id": 155914, "preview_image": "brands_images/full/124.jpg", "brand_id": 124, "create_time": "NOW()", "official_coord": 1, "region_id_1": 630000, "region_id_2": 630100, "region_id_3": 630104}, {"name": "银川市金凤区世佳家电维修服务部", "address": "银川市穆斯林商贸城东楼4F3-02", "phone_number": "0951-5044341", "longitude": "106.263035", "latitude": "38.49955", "id": 155915, "preview_image": "brands_images/full/124.jpg", "brand_id": 124, "create_time": "NOW()", "official_coord": 1, "region_id_1": 640000, "region_id_2": 640100, "region_id_3": 640104}, {"name": "宝鸡市金台区宏盛家电维修部", "address": "宝鸡市金台区金陵东路45号", "phone_number": "13571786204", "longitude": "107.170252", "latitude": "34.388702", "id": 155916, "preview_image": "brands_images/full/124.jpg", "brand_id": 124, "create_time": "NOW()", "official_coord": 1, "region_id_1": 610000, "region_id_2": 610300, "region_id_3": 610303}, {"name": "西安市碑林区以诺家电服务部 ", "address": "西安市碑林区安西街北口100号4-40102", "phone_number": "029-82294697，，15339206394", "longitude": "108.972038", "latitude": "34.255685", "id": 155917, "preview_image": "brands_images/full/124.jpg", "brand_id": 124, "create_time": "NOW()", "official_coord": 1, "region_id_1": 610000, "region_id_2": 610100, "region_id_3": 610103}, {"name": "西安市新城区建科家电维修中心", "address": "西安市新城区长乐中路龙苑大厦2-1012", "phone_number": "029-82289572", "longitude": "109.011411", "latitude": "34.274883", "id": 155918, "preview_image": "brands_images/full/124.jpg", "brand_id": 124, "create_time": "NOW()", "official_coord": 1, "region_id_1": 150000, "region_id_2": 150100, "region_id_3": 150102}, {"name": "长春市鑫幸家用电器维修部", "address": "延吉市迎宾路3-7号", "phone_number": "15526701769", "longitude": "129.51156", "latitude": "42.908854", "id": 155919, "preview_image": "brands_images/full/124.jpg", "brand_id": 124, "create_time": "NOW()", "official_coord": 1, "region_id_1": 220000, "region_id_2": 222400, "region_id_3": 222401}, {"name": "南关区博远家电售后服务站", "address": "长春市南关区大马路与三道街交汇处金鼎名城B536室", "phone_number": "15543115746", "longitude": "125.350939", "latitude": "43.893909", "id": 155920, "preview_image": "brands_images/full/124.jpg", "brand_id": 124, "create_time": "NOW()", "official_coord": 1, "region_id_1": 220000, "region_id_2": 220100, "region_id_3": 220102}, {"name": "哈尔滨红帆船环保科技有限公司", "address": "哈尔滨道里区安阳路196号", "phone_number": "0451-87126366、55556748", "longitude": "126.589196", "latitude": "45.744601", "id": 155921, "preview_image": "brands_images/full/124.jpg", "brand_id": 124, "create_time": "NOW()", "official_coord": 1, "region_id_1": 230000, "region_id_2": 230100, "region_id_3": 230102}, {"name": "大庆市萨尔图区荣嘉家电维修站", "address": "大庆市萨尔图区冠群步行街31号", "phone_number": "0459-6667766", "longitude": "125.020168", "latitude": "46.609437", "id": 155922, "preview_image": "brands_images/full/124.jpg", "brand_id": 124, "create_time": "NOW()", "official_coord": 1, "region_id_1": 230000, "region_id_2": 230600, "region_id_3": 230602}, {"name": "铁岭市银州区财合家用电器维修部", "address": "铁岭市银州区柴河街惠源11号东区27-7-101", "phone_number": "024-72221626", "longitude": "123.867074", "latitude": "42.308581", "id": 155923, "preview_image": "brands_images/full/124.jpg", "brand_id": 124, "create_time": "NOW()", "official_coord": 1, "region_id_1": 210000, "region_id_2": 211200, "region_id_3": 211202}, {"name": "锦州凌河区常旭家电维修部", "address": "锦州市凌河区国和里81-43号", "phone_number": "0416-3810069", "longitude": "121.152026", "latitude": "41.120401", "id": 155924, "preview_image": "brands_images/full/124.jpg", "brand_id": 124, "create_time": "NOW()", "official_coord": 1, "region_id_1": 210000, "region_id_2": 210700, "region_id_3": 210703}, {"name": "丹东市元宝区沃能电器服务商行", "address": "丹东市元宝区中宝街23号1单元303#（元宝山公园对面）", "phone_number": "18504156807", "longitude": "124.396691", "latitude": "40.151615", "id": 155925, "preview_image": "brands_images/full/124.jpg", "brand_id": 124, "create_time": "NOW()", "official_coord": 1, "region_id_1": 210000, "region_id_2": 210600, "region_id_3": 210602}, {"name": "盘锦市双台子区大伟家电维修部", "address": "盘锦市双台子区艳阳街", "phone_number": "0427-6623154", "longitude": "122.067949", "latitude": "41.195065", "id": 155926, "preview_image": "brands_images/full/124.jpg", "brand_id": 124, "create_time": "NOW()", "official_coord": 1, "region_id_1": 210000, "region_id_2": 211100, "region_id_3": 211102}, {"name": "大连富得电器有限公司", "address": "大连市沙河口区兴工南五街17号2单元7层6号门（福佳新天地E座）", "phone_number": "0411-83708218、0411-83635014", "longitude": "121.593035", "latitude": "38.922578", "id": 155927, "preview_image": "brands_images/full/124.jpg", "brand_id": 124, "create_time": "NOW()", "official_coord": 1, "region_id_1": 210000, "region_id_2": 210200, "region_id_3": 210204}, {"name": "沈阳市和平区鑫宇轩家电维修服务部", "address": "沈阳市和平区绥化西街14号2门，", "phone_number": "024-62102329、22520829", "longitude": "123.429799", "latitude": "41.81886", "id": 155928, "preview_image": "brands_images/full/124.jpg", "brand_id": 124, "create_time": "NOW()", "official_coord": 1, "region_id_1": 120000, "region_id_2": 120100, "region_id_3": 120101}, {"name": "南通市崇川区顺德家电维修部", "address": "南通市崇川区新龙花苑8幢第8门店", "phone_number": "15996666810", "longitude": "120.889888", "latitude": "32.033169", "id": 155929, "preview_image": "brands_images/full/124.jpg", "brand_id": 124, "create_time": "NOW()", "official_coord": 1, "region_id_1": 320000, "region_id_2": 320600, "region_id_3": 320602}, {"name": "合肥健康工贸有限公司", "address": "合肥市合作化北路与清溪路交叉口康居时代家园小区1幢104室", "phone_number": "0551-65139889、13637078955", "longitude": "117.257428", "latitude": "31.879231", "id": 155930, "preview_image": "brands_images/full/124.jpg", "brand_id": 124, "create_time": "NOW()", "official_coord": 1, "region_id_1": 340000, "region_id_2": 340100, "region_id_3": 340104}, {"name": "武汉博源电子工程有限公司", "address": "武汉市江汉路206号世纪大厦17A", "phone_number": "027-82822911、027-82853190", "longitude": "114.293459", "latitude": "30.590848", "id": 155931, "preview_image": "brands_images/full/124.jpg", "brand_id": 124, "create_time": "NOW()", "official_coord": 1, "region_id_1": 420000, "region_id_2": 420100, "region_id_3": 420102}, {"name": "武汉市江岸区富发家电维修部", "address": "武汉市江岸区解放大道1453号（循礼门公交站旁光荣坊内）", "phone_number": "027-85733376、83885173", "longitude": "114.294092", "latitude": "30.595591", "id": 155932, "preview_image": "brands_images/full/124.jpg", "brand_id": 124, "create_time": "NOW()", "official_coord": 1, "region_id_1": 420000, "region_id_2": 420100, "region_id_3": 420102}, {"name": "武汉市汉阳区小峰家用电器维修部", "address": "武汉市汉阳区龙阳大道特8号壹加壹空间1栋1单元917室", "phone_number": "18671759536", "longitude": "114.208317", "latitude": "30.552966", "id": 155933, "preview_image": "brands_images/full/124.jpg", "brand_id": 124, "create_time": "NOW()", "official_coord": 1, "region_id_1": 420000, "region_id_2": 420100, "region_id_3": 420105}, {"name": "长沙市芙蓉区友友电器维修服务部", "address": "长沙市芙蓉区凌霄路古汉国际广场4栋109号门面", "phone_number": "0731-84791369", "longitude": "113.031721", "latitude": "28.209801", "id": 155934, "preview_image": "brands_images/full/124.jpg", "brand_id": 124, "create_time": "NOW()", "official_coord": 1, "region_id_1": 430000, "region_id_2": 430100, "region_id_3": 430102}, {"name": "长沙市天心区菱格家电制冷维修部", "address": "长沙市天心区南湖路44号永宏佳园2栋二单元703室（南湖医院旁）", "phone_number": "0731-85078361、18229747196", "longitude": "112.985768", "latitude": "28.172141", "id": 155935, "preview_image": "brands_images/full/124.jpg", "brand_id": 124, "create_time": "NOW()", "official_coord": 1, "region_id_1": 430000, "region_id_2": 430100, "region_id_3": 430103}, {"name": "北京九九康家商贸有限公司（朝阳区） ", "address": "北京市朝阳区元大都遗址公园5号天利宏市场3029号（地铁5 /10号线惠新西街南口D出口50米），", "phone_number": "010-57269895", "longitude": "116.694893", "latitude": "39.643506", "id": 155936, "preview_image": "brands_images/full/124.jpg", "brand_id": 124, "create_time": "NOW()", "official_coord": 1, "region_id_1": 110000, "region_id_2": 110100, "region_id_3": 110105}, {"name": "深圳顺丰电子产品售后服务有限公司", "address": "深圳市宝安区福永镇第一工业区中信工业园1号楼2楼", "phone_number": "0755-9533886", "longitude": "113.83711", "latitude": "22.692563", "id": 155937, "preview_image": "brands_images/full/124.jpg", "brand_id": 124, "create_time": "NOW()", "official_coord": 1, "region_id_1": 440000, "region_id_2": 440300, "region_id_3": 440306}, {"name": "烟台美的饮水设备有限公司（津湖净水）", "address": "烟台芝罘区通世路15号", "phone_number": "0535-6677095", "longitude": "121.388703", "latitude": "37.530631", "id": 155938, "preview_image": "brands_images/full/124.jpg", "brand_id": 124, "create_time": "NOW()", "official_coord": 1, "region_id_1": 370000, "region_id_2": 370600, "region_id_3": 370602}, {"name": "山东滢滢经贸有限公司", "address": "潍坊市奎文区新华西路1号（新华路与民生街西行400路南50米 米杨净水）", "phone_number": "15315252731", "longitude": "119.151336", "latitude": "36.706657", "id": 155939, "preview_image": "brands_images/full/124.jpg", "brand_id": 124, "create_time": "NOW()", "official_coord": 1, "region_id_1": 370000, "region_id_2": 370700, "region_id_3": 370705}, {"name": "杭州肩吾科技有限公司", "address": "浙江省杭州市江干区秋涛北路130号省家电市场4307号", "phone_number": "0571-85374297", "longitude": "120.20752", "latitude": "30.275793", "id": 155940, "preview_image": "brands_images/full/124.jpg", "brand_id": 124, "create_time": "NOW()", "official_coord": 1, "region_id_1": 330000, "region_id_2": 330100, "region_id_3": 330104}, {"name": "德州市德城区永旭电器维修经营部", "address": "德州市解放北路花园小区沿街门市（德州监狱大门往北100米路东）", "phone_number": "0534-2359057,0534-2181808", "longitude": "116.299252", "latitude": "37.47059", "id": 155941, "preview_image": "brands_images/full/124.jpg", "brand_id": 124, "create_time": "NOW()", "official_coord": 1, "region_id_1": 370000, "region_id_2": 371400, "region_id_3": 371402}, {"name": "温州市瓯海梧田阿雕家电维修服务部", "address": "温州市梧田横塘中路26号", "phone_number": "0577-86006391/18066276006", "longitude": "120.676867", "latitude": "27.982047", "id": 155942, "preview_image": "brands_images/full/124.jpg", "brand_id": 124, "create_time": "NOW()", "official_coord": 1, "region_id_1": 330000, "region_id_2": 330300, "region_id_3": 330304}, {"name": "自贡市汇东新区立信制冷设备维修部", "address": "自贡市汇东路西段汇西苑", "phone_number": "0813-8260428", "longitude": "104.761991", "latitude": "29.338557", "id": 155943, "preview_image": "brands_images/full/124.jpg", "brand_id": 124, "create_time": "NOW()", "official_coord": 1, "region_id_1": 510000, "region_id_2": 510300, "region_id_3": 510302}, {"name": "峨眉山市艾特安装服务有限公司", "address": "四川省乐山市峨眉山市龚海路166号", "phone_number": "0833-5551212", "longitude": "103.525078", "latitude": "29.601561", "id": 155944, "preview_image": "brands_images/full/124.jpg", "brand_id": 124, "create_time": "NOW()", "official_coord": 1, "region_id_1": 510000, "region_id_2": 511100, "region_id_3": 511181}, {"name": "温州军广电器维修服务有限公司", "address": "温州市公园路县学前街48号", "phone_number": "0577-88275252、0577-88229910", "longitude": "120.671648", "latitude": "28.020527", "id": 155945, "preview_image": "brands_images/full/124.jpg", "brand_id": 124, "create_time": "NOW()", "official_coord": 1, "region_id_1": 330000, "region_id_2": 330300, "region_id_3": 330302}, {"name": "大连祥胜经贸有限公司", "address": "大连市甘井子区前程街23A", "phone_number": "13591111034", "longitude": "121.552466", "latitude": "38.931587", "id": 155946, "preview_image": "brands_images/full/124.jpg", "brand_id": 124, "create_time": "NOW()", "official_coord": 1, "region_id_1": 210000, "region_id_2": 210200, "region_id_3": 210211}]