[{"name": "三水简一", "address": "三水区东海蓝湾东泓阁108（左岸公园对面）简一大理石瓷砖", "phone_number": "0757-89815198", "longitude": "112.916095", "latitude": "23.16928"}, {"name": "东莞简一", "address": "东莞市虎门镇小捷蚨路7号金贸家居中心A102铺", "phone_number": "0769-23114628", "longitude": "113709474", "latitude": "22.809281"}, {"name": "东莞简一", "address": "东莞市大朗镇富民中路399号大和国际家居一层A05A05A号铺", "phone_number": "0769-23114628", "longitude": "113.941114", "latitude": "22.932353"}, {"name": "东莞简一", "address": "东莞市东城八一路居品墅装建材商行A008号", "phone_number": "0769-23114628", "longitude": "22.998978", "latitude": "113.814271"}, {"name": "东莞简一", "address": "东莞市莞城罗沙装饰城威尼斯广场A区171号", "phone_number": "0769-23114628", "longitude": "113.777684", "latitude": "23.046076"}, {"name": "东莞简一", "address": "东莞市长安镇横安路高速入口处美汇名家一楼A20-A21 简一大理石瓷砖", "phone_number": "0769-88020918", "longitude": "113.800395", "latitude": "22.809572"}, {"name": "东莞简一", "address": "东莞市塘厦镇林场光辉材料城C区A03、A06号 简一大理石瓷砖", "phone_number": "0769-81000197", "longitude": "114.107276", "latitude": "22.85249"}, {"name": "中山简一", "address": "中山市莲员西路168号富逸装饰广场122-124 简一大理石瓷砖", "phone_number": "0760-88708727", "longitude": "113.37368", "latitude": "22.540451"}, {"name": "从化简一", "address": "从化区从城大道89号美时家居广场A1--A2 简一大理石瓷砖", "phone_number": "020-37988268", "longitude": "113.601434", "latitude": "23.534641"}, {"name": "从化简一", "address": "从化区从城大道89号美时家居广场A9--A10 简一大理石瓷砖", "phone_number": "020-37988068", "longitude": "113.601434", "latitude": "23.534641"}, {"name": "佛山简一", "address": "佛山市禅城区季华一路28号智慧新城T10座2楼展厅 简一大理石瓷砖", "phone_number": "0757-82362989", "longitude": "113.067328", "latitude": "23.014351"}, {"name": "广州简一", "address": "天河区花城大道马会家居首层东区1129-1130 简一大理石瓷砖", "phone_number": "020-87018155", "longitude": "113.353824", "latitude": "23.123585"}, {"name": "广州简一", "address": "花都区龙珠路18号金色华庭9栋首层 简一大理石瓷砖", "phone_number": "020-36884859", "longitude": "113.231855", "latitude": "23.402947"}, {"name": "惠州简一", "address": "惠州市演达二路万饰城B馆一楼101-103铺 简一大理石瓷砖", "phone_number": "0752-8229089", "longitude": "114.42232", "latitude": "23.058563"}, {"name": "惠州简一", "address": "惠东县华侨城平深大道汇湖居装饰城10-11\\/2A10-11号铺 简一大理石瓷砖", "phone_number": "0752-8808993", "longitude": "114.720145", "latitude": "22.976172"}, {"name": "惠州简一", "address": "惠州淡水店：惠阳区人民五路86号", "phone_number": "0752-3373638", "longitude": "114.474682", "latitude": "22.783426"}, {"name": "揭阳简一", "address": "榕城区新阳路玉浦路段", "phone_number": "0663-8733063 13417660988", "longitude": "116.356185", "latitude": "23.559604"}, {"name": "普宁简一", "address": "普宁大道与广达南路交界处往东，好安居建材街1期501～503铺（新创展豪墅建材体验馆）", "phone_number": "0663-2828888", "longitude": "116.15371", "latitude": "23.304749"}, {"name": "梅州简一", "address": "旗舰店（梅州市广梅北路20-2号）", "phone_number": "0753-2528483", "longitude": "116.107819", "latitude": "24.302479"}, {"name": "梅州简一", "address": "江南分店（梅州市江南鸿达路东堤雅筑底商，即：江南加油站侧直入500米）", "phone_number": "0753-2310386 ", "longitude": "116.141152", "latitude": "24.290745"}, {"name": "梅州简一", "address": "兴宁分店（梅州兴宁市曙光路凯旋城底商，即：联康威尔斯酒店侧）", "phone_number": "0753-3266188", "longitude": "115.748326", "latitude": "24.142031"}, {"name": "梅州简一", "address": "丰顺分店（梅州市丰顺县环城路128号，即：火车站西侧300米）", "phone_number": "0753-6618107 ", "longitude": "116.167755", "latitude": "24.658212"}, {"name": "梅州简一", "address": "蕉岭分店（广东省蕉岭县蕉城镇溪峰西南路）", "phone_number": "0753-7183239   ", "longitude": "116.170767", "latitude": "24.657827"}, {"name": "汕头简一", "address": "汕头市龙湖区中山路166号国瑞建材家居博览中心2号馆首层A33号顺诚隆建材", "phone_number": "0754-88655000", "longitude": "116.747857", "latitude": "23.357568"}, {"name": "汕尾简一", "address": "汕尾市海丰县附城三环路（324国道）华富花园首层 ", "phone_number": "0660-6938899", "longitude": "115.343643", "latitude": "22.958268"}, {"name": "河源简一", "address": "河源文昌路与长安东路交汇处御湖爰驶ㄔ笆撞", "phone_number": "0762-3310222", "longitude": "114.717317", "latitude": "23.761042"}, {"name": "河源简一", "address": "和平分店:河源市和平县福和大道与和平大道交汇处", "phone_number": "0762-5612333", "longitude": "114.940506", "latitude": "24.456312"}, {"name": "深圳简一", "address": "福田区八卦四路427栋一二层 简一大理石瓷砖", "phone_number": "0755-25949030\\/4006907908", "longitude": "114.105431", "latitude": "22.568813"}, {"name": "深圳简一", "address": "福田区福强路与沙咀交汇处乐安居一楼153A 简一大理石瓷砖", "phone_number": "0755-83454420", "longitude": "114.043298", "latitude": "22.528793"}, {"name": "深圳简一", "address": "宝安区新湖路华美居A区A1-029号", "phone_number": "0755-28236019", "longitude": "113.88477", "latitude": "22.569735"}, {"name": "深圳简一", "address": "龙岗区龙岗中心城龙翔大道国安居建材二期A243", "phone_number": "0755-28904649", "longitude": "114.242469", "latitude": "22.715927"}, {"name": "深圳简一", "address": "深圳市北环大道10022号浩天装饰生活体验馆", "phone_number": "0755-26982515", "longitude": "113.93453", "latitude": "22.55936"}, {"name": "深圳简一", "address": "观澜居众店（深圳市龙华新区观澜观光路1144号观澜科技大厦居众产业园）", "phone_number": "0755-23769713", "longitude": "114.070626", "latitude": "22.737361"}, {"name": "湛江简一", "address": "湛江市海田国际建材交易中心南门首层A56", "phone_number": "0759-3132226", "longitude": "110.385111", "latitude": "21.282041"}, {"name": "湛江简一", "address": "湛江市盛邦建材广场中门首层A22", "phone_number": "0759-3132225", "longitude": "110.394723", "latitude": "21.24199"}, {"name": "潮州简一", "address": "潮州大道与护堤路交界处春辉建材", "phone_number": "0768-2261122", "longitude": "116.63", "latitude": "23.68"}, {"name": "珠海简一", "address": "珠海市香洲区三台石路31号世邦家居世界建材馆负一楼 简一大理石瓷砖", "phone_number": "0756-8988535", "longitude": "113.538413", "latitude": "22.25987"}, {"name": "茂名简一", "address": "茂名市电白区水东镇海景明珠首层3-6号铺", "phone_number": "0668-5180077", "longitude": "111.016535", "latitude": "21.513019"}, {"name": "茂名简一", "address": "茂名市市民大道亿丰家居生活港", "phone_number": "0668-5881988", "longitude": "110.980178", "latitude": "21.591657"}, {"name": "茂名简一", "address": "茂名化州河西新城区绿景国际花城33栋首层", "phone_number": "0668-7393366", "longitude": "110.630819", "latitude": "21.657043"}, {"name": "阳江简一", "address": "阳江市江城区北环路98号兴达家园宏星楼106商铺", "phone_number": "0662-3290938", "longitude": "111.959326", "latitude": "21.871766"}, {"name": "阳江简一", "address": "阳江市阳西县迎宾北路10号金湖湾商铺B7-9号", "phone_number": "0662-5509388", "longitude": "111.614949", "latitude": "21.76454"}, {"name": "韶关简一", "address": "韶关市前进国际材料城B4座6-9号 简一大理石瓷砖", "phone_number": "0751-8733928", "longitude": "113.564094", "latitude": "24.802449"}, {"name": "韶关简一", "address": "南郊六公里深业家之福家居建材馆 简一大理石瓷砖", "phone_number": "0751-8324788", "longitude": "113.564094", "latitude": "24.802449"}, {"name": "韶关简一", "address": "韶关市南郊六公里深业家之福家居博览中心建材馆一楼简一大理石瓷砖", "phone_number": "0751-8324788", "longitude": "113.590522", "latitude": "24.755611"}, {"name": "顺德简一", "address": "顺德区大良新桂中路星月明轩25-27号铺 简一大理石瓷砖", "phone_number": "0757-22255579", "longitude": "113.262044", "latitude": "22.820648"}, {"name": "北海简一", "address": "北海市海城区北海大道建材市场入口右侧，简一大理石瓷砖", "phone_number": "0779-3206886", "longitude": "109.139144", "latitude": "21.477291"}, {"name": "南宁简一", "address": "南宁市青秀区长湖路55号富安居国际家居建材广场一楼中庭1083号", "phone_number": "0771-2281508\\/4008955169", "longitude": "108.385161", "latitude": "22.830083"}, {"name": "南宁简一", "address": "南宁市西乡塘区秀厢大道99号快环建材市场精品馆29-30号", "phone_number": "0771-3805169", "longitude": "108.351461", "latitude": "22.87016"}, {"name": "柳州简一", "address": "柳州市河西路2-6号柳州家居1号馆1-23\\/2-35简一大理石瓷砖", "phone_number": "0772-8819998", "longitude": "109.39147300", "latitude": "24.32767800"}, {"name": "桂林简一", "address": "桂林市青禾美邦建材市场2楼", "phone_number": "0773-8997289", "longitude": "110.262883", "latitude": "25.267939"}, {"name": "玉林简一", "address": "广西玉林市一环北路158号", "phone_number": "0775-2382602", "longitude": "110.168663", "latitude": "22.655714"}, {"name": "钦州简一", "address": "钦州市钦南区北部湾建材商贸城11栋132-133号", "phone_number": "0777-3891289", "longitude": "108.646947", "latitude": "21.945367"}, {"name": "海口简一", "address": "海口市龙华区南海大道88号万佳装饰广场F座", "phone_number": "0898-66831588", "longitude": "110.328133", "latitude": "20.000256"}, {"name": "海口简一", "address": "海口市龙华区南海大道88号万佳装饰广场B座107", "phone_number": "0898-66831288", "longitude": "110.328712", "latitude": "20.000407"}, {"name": "海口简一", "address": "三亚市河东荔枝沟津海建材城29-34号", "phone_number": "0898-88276028", "longitude": "109.52319", "latitude": "18.308822"}, {"name": "三明简一", "address": "三明市梅列区广源花园负一层", "phone_number": "0598-8888866", "longitude": "117.643107", "latitude": "26.276287"}, {"name": "南平简一", "address": "福建省南平市延平区亿发建材城6号", "phone_number": "0599-8617888", "longitude": "118.188893", "latitude": "26.61857"}, {"name": "厦门简一", "address": "厦门市湖里区金湖路118#吉家家世界B1馆77-78号", "phone_number": "0592-5053329", "longitude": "118.158988", "latitude": "24.515599"}, {"name": "武夷山简一", "address": "武夷山市五里下洲路36_1号东方园二楼简一大理石瓷砖\n", "phone_number": "0599-5177777", "longitude": "118.029634", "latitude": "27.743671"}, {"name": "漳州简一", "address": "漳州市芗城区新浦路东段庆丰大楼一层53号", "phone_number": "0596-2161744", "longitude": "117.683995", "latitude": "24.512525"}, {"name": "福州简一", "address": "福州市连江北路南方建材市场12座17 -18号兴永安建材", "phone_number": "0591-83654574", "longitude": "119.341949", "latitude": "26.091019"}, {"name": "福州简一", "address": "长乐市海峡家居建材市场2号楼一层", "phone_number": "0591-62680739", "longitude": "119.539564", "latitude": "25.929446"}, {"name": "福清简一", "address": "福清市广益家居建材市场7号楼一层", "phone_number": "0591-85535599", "longitude": "119.355315", "latitude": "25.730744"}, {"name": "福鼎简一", "address": "福鼎市滨海大道红星美凯龙城市广场一楼A8019-2", "phone_number": "0593-7777576", "longitude": "120.231156", "latitude": "27.325283"}, {"name": "莆田简一", "address": "莆田市城厢区荔园东路199号喜盈门负一楼", "phone_number": "0594-2285333\n0594-6196666", "longitude": "119.021799", "latitude": "25.423226"}, {"name": "龙岩简一", "address": "龙岩市新罗区体育公园羽毛球馆一层", "phone_number": "13906074365", "longitude": "117.020668", "latitude": "25.079172"}, {"name": "上饶简一", "address": "上饶市江南商贸城E3栋简一大理石瓷砖", "phone_number": "0793-8265050", "longitude": "117.983023", "latitude": "28.471097"}, {"name": "丰城简一", "address": "丰城市紫云大道2栋227号、金马装饰城一期11栋13-14号。", "phone_number": "0795-6807788. 0795-6297788", "longitude": "115.797072", "latitude": "28.192549"}, {"name": "乐平简一", "address": "民电路鸿宇天湖城三期店铺简一大理石瓷砖", "phone_number": "13970397760占志伟", "longitude": "117.151015", "latitude": "28.986774"}, {"name": "九江简一", "address": "长江大道喜盈门(九江)建材家具广场B馆2楼简一大理石瓷砖", "phone_number": "0792-8637711", "longitude": "115.9807", "latitude": "29.707101"}, {"name": "九江简一", "address": "九江简一武宁店：武宁县建材综合大市场精品馆一楼", "phone_number": " 0792-2987879 ", "longitude": "115.130868", "latitude": "29.252223"}, {"name": "九江简一", "address": "九江简一德安店：德安县金带河综合大市场三栋", "phone_number": "0792-4588058", "longitude": "115.76125", "latitude": "29.336562"}, {"name": "南昌简一", "address": "南昌市喜盈门家居建材广场一楼", "phone_number": "0791\\/86752026", "longitude": "115.876488", "latitude": "28.646059"}, {"name": "吉安简一", "address": "四圆建材市场简一大理石瓷砖", "phone_number": "0796-8358288", "longitude": "114.977108", "latitude": "27.120081"}, {"name": "宜春简一", "address": "江西省宜春市袁州区国际商贸城1排简一大理石瓷砖", "phone_number": "13479526789张历", "longitude": "114.408621", "latitude": "27.83845"}, {"name": "抚州简一", "address": "江西省抚州市华美立家11栋楼01-12号", "phone_number": "18607045515华建涛", "longitude": "116.394472", "latitude": "27.96956"}, {"name": "新余简一", "address": "新余市东巴黎家具广场 负一楼55号简一大理石瓷砖", "phone_number": "0790-6423098", "longitude": "114.937655", "latitude": "27.818364"}, {"name": "樟树简一", "address": "江西省樟树市四特大道银河星城简一大理石瓷砖", "phone_number": "0795-7345678", "longitude": "115.552578", "latitude": "28.052509"}, {"name": "萍乡简一", "address": "萍乡市萍安北大道109号简一大理石瓷砖", "phone_number": "0799-6879123", "longitude": "113.88122", "latitude": "27.636789"}, {"name": "赣州简一", "address": "赣州市黄金广场天际华庭简一大理石瓷砖", "phone_number": "0797-8160889", "longitude": "114.940971", "latitude": "25.841755"}, {"name": "鹰潭简一", "address": "龙虎山大道白露桥洞简一大理石瓷砖", "phone_number": "0701-6275666", "longitude": "117.028138", "latitude": "28.238011"}, {"name": "上海简一", "address": "上海徐汇区凯旋路与宜山路交叉口", "phone_number": "021-54362997\\/4009202580", "longitude": "121.435179", "latitude": "31.192074"}, {"name": "上海简一", "address": "上海市普陀区真北红星美凯龙北馆A8120展位", "phone_number": "021-37635835", "longitude": "121.392416", "latitude": "31.244342"}, {"name": "上海简一", "address": "上海市金山区杭州湾大道1858号红星美凯龙D栋（近龙山路）", "phone_number": "021-37288170\\/021-37288171", "longitude": "121.351405", "latitude": "30.754156"}, {"name": "三门简一", "address": "台州市三门县三门装饰城", "phone_number": "0576-89308220", "longitude": "121.426599", "latitude": "29.106086"}, {"name": "东阳简一", "address": "浙江省东阳市中山北路1号（海天大酒店西门斜对面）", "phone_number": "0579-86328899", "longitude": "120.243344", "latitude": "29.297306"}, {"name": "乐清简一", "address": "浙江省乐清市银来大厦一楼金茂家居广场旁", "phone_number": "0577-61511132", "longitude": "120.975695", "latitude": "28.103496"}, {"name": "台州简一", "address": "台州市洪家红星美凯龙", "phone_number": "0576-89815651", "longitude": "121.412344", "latitude": "28.614648"}, {"name": "嘉兴简一", "address": "嘉兴南湖区万好家居C1―C8，（嘉兴万达广场对面）", "phone_number": "0573-82800938", "longitude": "120.709763", "latitude": "30.740115"}, {"name": "嘉善简一", "address": "嘉善县华东建材市场北区4号楼", "phone_number": "0573-84129777", "longitude": "120.91679", "latitude": "30.857061"}, {"name": "宁波简一", "address": "宁波市江东区现代陶瓷城三楼11号", "phone_number": "0574-89115117", "longitude": "121.58221", "latitude": "29.856201"}, {"name": "宁波简一", "address": "浙江省上虞市石狮商贸城建材馆C1072号", "phone_number": "0575-82036518", "longitude": "120.903152", "latitude": "30.049437"}, {"name": "宁波简一", "address": "港隆家居广场二楼", "phone_number": "0574-81877205", "longitude": "121.61137", "latitude": "29.891284"}, {"name": "安吉简一", "address": "安吉县递铺镇迎宾大道638号简一大理石瓷砖", "phone_number": "0572-5607397", "longitude": "119.68798", "latitude": "30.627178"}, {"name": "慈溪简一", "address": "慈溪市逍林镇三北东大街3305号红星美凯龙二楼", "phone_number": "0574-63795189", "longitude": "121.311515", "latitude": "30.172836"}, {"name": "杜桥简一", "address": "杜桥镇东部建材市场", "phone_number": "0576-85668863", "longitude": "121.501545", "latitude": "28.75375"}, {"name": "杭州简一", "address": "临安市钱王大街1270号", "phone_number": "0571-61100303", "longitude": "116.394472", "latitude": "27.96956"}, {"name": "杭州简一", "address": "千岛湖青溪新城装饰市场15幢2楼", "phone_number": "0571-65012626", "longitude": "119.10731", "latitude": "29.601511"}, {"name": "杭州简一", "address": "桐庐县云栖中路643号", "phone_number": "0571-64609900", "longitude": "119.707908", "latitude": "29.795097"}, {"name": "杭州简一", "address": "萧山区南秀路3177号萧东陶瓷市场A66号", "phone_number": "0571-83713888", "longitude": "120.325217", "latitude": "30.15378"}, {"name": "杭州简一", "address": "富阳市金秋大道2号金鑫建材市场1楼", "phone_number": "0571-63376242", "longitude": "119.920874", "latitude": "30.05369"}, {"name": "杭州简一", "address": "古墩路808号新时代家居生活广场一楼D座36号", "phone_number": "0571-88753253", "longitude": "120.10347", "latitude": "30.320687"}, {"name": "杭州简一", "address": "江南大道1088号第六空间国际建材馆1楼", "phone_number": "0571-85104581", "longitude": "120.195805", "latitude": "30.202396"}, {"name": "杭州简一", "address": "德胜东路2888号恒大建材市场B馆二楼2016", "phone_number": "0571-85104881", "longitude": "120.301612", "latitude": "30.3256"}, {"name": "杭州简一", "address": "江干区凤起东路137号佳好佳居饰商城H3042", "phone_number": "0571-86882571", "longitude": "120.207093", "latitude": "30.271772"}, {"name": "桐乡简一", "address": "海宁建材家居城精品馆A105", "phone_number": "0573-87027273", "longitude": "120.713127", "latitude": "30.503258"}, {"name": "桐乡简一", "address": "桐乡市场红星美凯龙8036\\/8037", "phone_number": "0573-88589158", "longitude": "120.57902", "latitude": "30.618877"}, {"name": "武义简一", "address": "武义县宝塔路建材市场正大门简一大理石瓷砖（禄禄建材）", "phone_number": "0579-87627662", "longitude": "119.831335", "latitude": "28.913722"}, {"name": "永康简一", "address": "浙江省永康市九铃西路1082号国际装饰城D区009号", "phone_number": "0579-87296887\n0579-87296897", "longitude": "120.024621", "latitude": "28.913806"}, {"name": "温州简一", "address": "温州大道690号联结福五楼D07.简一大理石瓷砖 ", "phone_number": "0577-89708222", "longitude": "120.724104", "latitude": "27.987514"}, {"name": "温州简一", "address": "浙江省温州市鹿城区半腰桥温州陶瓷品市场特区1号 奥泰建材", "phone_number": "0577-89708222  0577-56961177", "longitude": "120.644024", "latitude": "28.018692"}, {"name": "湖州简一", "address": "湖州市北街277号简一大理石瓷砖", "phone_number": "0572-2130855", "longitude": "120.114333", "latitude": "30.876144"}, {"name": "湖州简一", "address": "德清市武康卢球商贸中心8号楼", "phone_number": "0572-8817333", "longitude": "119.961256", "latitude": "30.535979"}, {"name": "瑞安简一", "address": "浙江省瑞安市陈虬路511-525号（阳和小区15幢1楼）", "phone_number": "0577-65823715", "longitude": "120.657325", "latitude": "27.774305"}, {"name": "绍兴简一", "address": "浙江省绍兴市柯桥区红星美凯龙二楼B8106", "phone_number": "0575-89965869", "longitude": "116.394472", "latitude": "27.96956"}, {"name": "舟山简一", "address": "舟山市临城新区科来华建材广场5号101-109号", "phone_number": "0580-2166206", "longitude": "122.232396", "latitude": "29.979387"}, {"name": "苍南龙港简一店", "address": "龙港站港路龙湖小区第二栋  简一大理石瓷砖", "phone_number": "0577-64297333", "longitude": "120.363662", "latitude": "27.324514"}, {"name": "衢州简一", "address": "衢州上洋灯具市场正大门", "phone_number": "0570-8882677", "longitude": "118.90528", "latitude": "28.925565"}, {"name": "诸暨简一", "address": "诸暨市环城东路276-9号 阳森装饰城", "phone_number": "0575-87225162", "longitude": "120.265536", "latitude": "29.723796"}, {"name": "金华简一", "address": "金华市金东区建才路99号，浙中建材市场A座D层61139-61141号，简一大理石瓷砖", "phone_number": "0579-82080055", "longitude": "119.711003", "latitude": "29.0923"}, {"name": "亳州简一", "address": "安徽亳州市亿都国际商城南大门A1栋－111号", "phone_number": "0558-5838899", "longitude": "115.745928", "latitude": "33.861201"}, {"name": "六安简一", "address": "安徽省六安市顺达市场西大门沿街商铺南侧", "phone_number": "18956422101崇小军", "longitude": "116.489132", "latitude": "31.734069"}, {"name": "合肥简一", "address": "合肥政务新区潜山路与南二环红星美凯龙二店负一", "phone_number": "0551-62260600", "longitude": "117.246672", "latitude": "31.82267"}, {"name": "合肥简一", "address": "合肥四里河红美凯龙直营店二楼", "phone_number": "0551-62260600", "longitude": "117.328159", "latitude": "31.883031"}, {"name": "宿州简一", "address": "安徽省宿州市桥区人民南路与外环路交汇处中豪建材国际博览城北大门东侧", "phone_number": "0557-3959777", "longitude": "116.971831", "latitude": "33.610184"}, {"name": "宿州简一", "address": "光彩城东南角金鹰精品馆", "phone_number": "0557-2516677", "longitude": "116.971831", "latitude": "33.610184"}, {"name": "淮北简一", "address": "淮北市杜集区淮海东路与龙山路交汇处红星凯越广场C馆一楼", "phone_number": "0561-3151588", "longitude": "116.842822", "latitude": "33.984403"}, {"name": "淮南简一", "address": "永安建材大市场商贸城一楼（天桥旁边）", "phone_number": "0554-2793111，0554-2793893", "longitude": "117.034513", "latitude": "32.660199"}, {"name": "芜湖简一", "address": "安徽省芜湖市鸠江区红星美凯龙", "phone_number": "0553-2915919", "longitude": "118.40085", "latitude": "31.374901"}, {"name": "铜陵简一", "address": "铜陵市天山大道铜陵大市场对面红星美凯龙二楼", "phone_number": "0562-2669666", "longitude": "117.845752", "latitude": "30.944327"}, {"name": "马鞍山简一", "address": "马鞍山市雨山区江东大道1480号红星美凯龙家居广场", "phone_number": "0555-2780777\n0555-2780778", "longitude": "116.842822", "latitude": "33.984403"}, {"name": "黄山简一", "address": "黄山市屯溪区展望家居名广场C区19-21", "phone_number": "0559-2526780", "longitude": "118.328634", "latitude": "29.713508"}, {"name": "丹阳简一", "address": "江苏省丹阳市华东建材市场精品1号馆", "phone_number": "0511-86580158", "longitude": "119.556309", "latitude": "31.997486"}, {"name": "南京简一", "address": "南京市金盛国际家居二楼", "phone_number": "", "longitude": "118.782281", "latitude": "32.096426"}, {"name": "南京简一", "address": "河西金陵家居", "phone_number": "025-87716177", "longitude": "118.743215", "latitude": "32.039184"}, {"name": "南京简一", "address": "卡子门红星美凯龙", "phone_number": "025-82266071", "longitude": "118.804945", "latitude": "31.995916"}, {"name": "南通简一", "address": "南通百安谊家国际馆负一楼A98、99、100号", "phone_number": "0513-89157679", "longitude": "120.858693", "latitude": "32.04679"}, {"name": "句容简一", "address": "江苏省镇江市句容市温州商贸城B幢23-24号", "phone_number": "0511-87281911", "longitude": "119.160491", "latitude": "31.946466"}, {"name": "启东简一", "address": "江苏省启东市恒亚国际家具博览中心一楼A18", "phone_number": "0513-83818800", "longitude": "121.566891", "latitude": "31.846269"}, {"name": "天长简一", "address": "安徽省滁州市天长市天润城二楼", "phone_number": "13955077299", "longitude": "119.023836", "latitude": "32.677949"}, {"name": "姜堰简一", "address": "泰州市姜堰区太宇华达家居广场1F01号", "phone_number": "", "longitude": "120.160201", "latitude": "32.487316"}, {"name": "常州简一", "address": "常州万都国际陶瓷城中厅（东南陶瓷）", "phone_number": "0519-81085698", "longitude": "120.01966", "latitude": "31.743194"}, {"name": "常州简一", "address": "常州飞龙东路红星家世界负一楼A8071", "phone_number": "0519-85316980", "longitude": "119.988273", "latitude": "31.793603"}, {"name": "张家港简一", "address": "张家港红星美凯龙建材馆一楼", "phone_number": "0512-56133768", "longitude": "120.558755", "latitude": "31.843991"}, {"name": "徐州简一", "address": "徐州市鼓楼区红星美凯龙三期二楼", "phone_number": "0516-87533526", "longitude": "117.223472", "latitude": "34.314406"}, {"name": "扬中简一", "address": "三茅镇红星国际生活广场2号楼一楼", "phone_number": "0511-88589179", "longitude": "119.814938", "latitude": "32.254693"}, {"name": "扬州简一", "address": "扬州市开发区维扬路106号扬州商场国际家居生活广场2楼西南角2F7-10号", "phone_number": "0514-82890258", "longitude": "119.417533", "latitude": "32.378688"}, {"name": "无锡简一", "address": "红星美凯龙滨湖至尊mall二楼8138号", "phone_number": "0510-85189965", "longitude": "120.296091", "latitude": "31.499133"}, {"name": "无锡简一", "address": "无锡市锡沪路华厦家居港一楼", "phone_number": "0510-81802048\\/400-822-1938", "longitude": "120.348424", "latitude": "31.591818"}, {"name": "江阴简一", "address": "江阴市新金三角建材市场D2馆", "phone_number": "0510-86181440", "longitude": "120.271786", "latitude": "31.856874"}, {"name": "沭阳简一", "address": "江苏省沭阳市浙江商城理想之家一楼", "phone_number": "15205241111", "longitude": "118.801281", "latitude": "34.132305"}, {"name": "泰州简一", "address": "江苏省泰州市海陵区月星家居建材馆1楼A1001", "phone_number": "0523-89999799", "longitude": "119.967984", "latitude": "32.503204"}, {"name": "淮安简一", "address": "江苏淮安市清河区西安路锦绣国际装饰城二期精品馆一楼大厅", "phone_number": "0517-83558168", "longitude": "119.005416", "latitude": "33.596758"}, {"name": "盐城简一", "address": "江苏省盐城市红星美凯龙一楼A8115-A8117", "phone_number": "0515-88122226", "longitude": "120.155569", "latitude": "33.347081"}, {"name": "苏州简一", "address": "苏州市吴中区东方大道好得家装饰城南一楼125-142号", "phone_number": "0512-62700799\\/400-828-1922", "longitude": "120.667888", "latitude": "31.268722"}, {"name": "苏州简一", "address": "苏州市工业园区扬清路1号红星美凯龙二楼A8003-8005-8006", "phone_number": "0512-66590373", "longitude": "120.661813", "latitude": "31.337967"}, {"name": "苏州简一", "address": "苏州市吴江区江陵东路好得家家居广场一楼", "phone_number": "0512-63022595", "longitude": "120.68193", "latitude": "31.189101"}, {"name": "苏州简一", "address": "苏州市吴江区中山南路与云龙西路交汇处东南角红星美凯龙一楼", "phone_number": "0512-62312098", "longitude": "120.638212", "latitude": "31.164647"}, {"name": "苏州简一", "address": "苏州市昆山市周市镇翠薇东路518号红星美凯龙一楼A082", "phone_number": "0512-57866887\\/400-828-1922", "longitude": "121.006981", "latitude": "31.422854"}, {"name": "苏州简一", "address": "苏州市常熟建材市场新区三环东路8号国际装饰城一楼A1008", "phone_number": "0512-52026606", "longitude": "120.806198", "latitude": "31.651512"}, {"name": "连云港简一", "address": "新浦区解放东路139号", "phone_number": "0518-85608618", "longitude": "119.19607", "latitude": "34.619945"}, {"name": "金坛简一", "address": "金坛市金城建材市场19-7-8", "phone_number": "0519-82112699", "longitude": "119.559893", "latitude": "31.749656"}, {"name": "镇江简一", "address": "镇江市润州区天桥路8号月星家居广场一楼A012", "phone_number": "0511-88977696", "longitude": "119.472621", "latitude": "32.198643"}, {"name": "靖江简一", "address": "江苏省靖江市百富绅国际家居港广场A001-A005", "phone_number": "0523-84629848", "longitude": "120.259128", "latitude": "31.983544"}, {"name": "东营简一", "address": "东营东城红星美凯龙一楼大渡河路与莒州路交叉口", "phone_number": "15288885873", "longitude": "118.650216", "latitude": "37.440678"}, {"name": "临沂简一", "address": "山东省临沂市兰山区富尔玛顺和国际建材家居生态城一楼", "phone_number": "0539-8112999", "longitude": "118.3194", "latitude": "35.082701"}, {"name": "单县简一", "address": "单县开发区新县政府对过湖西财富广场毛家饭店南188米", "phone_number": "0530-4630789", "longitude": "115.48", "latitude": "34.34"}, {"name": "威海简一", "address": "山东省威海市经区华夏路18号居然之家一楼简一大理石瓷砖", "phone_number": "0631-5918806", "longitude": "122.143688", "latitude": "37.492126"}, {"name": "威海简一", "address": "山东省威海市环翠区银座家居负一层简一大理石瓷砖", "phone_number": "0631-3688766", "longitude": "122.143688", "latitude": "37.492126"}, {"name": "德州简一", "address": "德州市康博大道金华茶城西门对面", "phone_number": "0534-2795000", "longitude": "116.369921", "latitude": "37.456261"}, {"name": "德州简一大理石瓷砖", "address": "康博大道金华茶城西门对面", "phone_number": "0534-2795000", "longitude": "116.369776", "latitude": "37.455235"}, {"name": "日照简一", "address": "山东省日照市黄海二路观海苑国际家居广场一楼", "phone_number": "0633-8851789", "longitude": "119.538707", "latitude": "35.406167"}, {"name": "济南简一", "address": "山东省济南市天桥区北园大街225号红星美凯龙世博家居生活广场负一层简一大理石瓷砖 ", "phone_number": "0531-55530122", "longitude": "117.052828", "latitude": "36.697026"}, {"name": "济宁简一", "address": "山东省济宁市金宇装饰城B馆FE005号简一陶瓷专卖店", "phone_number": "0537-2215111", "longitude": "116.615533", "latitude": "35.436338"}, {"name": "淄博简一", "address": "山东省淄博市张店区红星美凯龙二楼简一陶瓷", "phone_number": "0533-2716955", "longitude": "118.040443", "latitude": "36.789134"}, {"name": "滕州简一", "address": "山东省滕州市美铭国际建材广场", "phone_number": "0632―5771111", "longitude": "117.201776", "latitude": "35.095674"}, {"name": "滨州简一", "address": "山东省滨州市黄河一路渤海八路交汇处东南角简一大理石瓷砖", "phone_number": "0543-2221126", "longitude": "118.021619", "latitude": "37.373558"}, {"name": "潍坊简一", "address": "山东省潍坊市奎文区北宫街与鸢飞路交叉口向西100米路北", "phone_number": "0536-8210388", "longitude": "119.13034", "latitude": "36.730903"}, {"name": "烟台简一", "address": "山东烟台龙口市东城区五洲国际商贸城居然之家一楼", "phone_number": "0535-3120569", "longitude": "120.51013", "latitude": "37.635272"}, {"name": "烟台简一", "address": "山东省烟台市芝罘区海港路23号海港家饰C区12排1-5", "phone_number": "0535-6741829", "longitude": "121.39166", "latitude": "37.556306"}, {"name": "烟台简一", "address": "山东省烟台市芝罘区黄务立交西南红星美凯龙建材商场二楼中厅", "phone_number": "0535-3407699\\/400-000-9577", "longitude": "121.364554", "latitude": "37.471594"}, {"name": "简一大理石瓷砖", "address": "单县君子路湖西财富广场西区B1-55", "phone_number": "0530-4630789", "longitude": "116.109039", "latitude": "34.780327"}, {"name": "莱州简一", "address": "莱州市云峰路与文泉路交汇处文昌建材市场", "phone_number": "0535-2567717", "longitude": "120.001345", "latitude": "37.190396"}, {"name": "菏泽简一", "address": "山东省菏泽市牡丹区长江路与荷兰路交叉口居然之家一楼简一大理石瓷砖", "phone_number": "0530-7388688", "longitude": "115.42572", "latitude": "35.237186"}, {"name": "青岛简一", "address": "山东市青岛市崂山区辽阳东路9号高科园装饰城一期大厅B31-B39", "phone_number": "0532-68065891", "longitude": "120.442979", "latitude": "36.118026"}, {"name": "青岛简一", "address": "青岛市北区黑龙江路与同德路交叉路口东南角居然之家B馆一楼   ", "phone_number": "0532-80912167", "longitude": "116.394472", "latitude": "27.96956"}, {"name": "青岛简一", "address": "山东市青岛市黄岛区人民东路380号红星美凯龙", "phone_number": "无", "longitude": "120.437383", "latitude": "36.114768"}, {"name": "北京简一", "address": "北京市朝阳区北四环东路居然之家3号馆2层003", "phone_number": "010-84632813", "longitude": "116.44318", "latitude": "39.995848"}, {"name": "北京简一", "address": "北京市朝阳区大羊坊路106号3号馆2层", "phone_number": "010-87366904", "longitude": "116.474318", "latitude": "39.8658"}, {"name": "临汾简一", "address": "山西临汾居然之家西厅1008号", "phone_number": "0357-3218716", "longitude": "111.51483", "latitude": "36.111072"}, {"name": "吕梁简一", "address": "吕梁居然之家店（山西吕梁市离石高速东口东100米田家会居然之家一层）", "phone_number": "0358-3711633", "longitude": "111.206602", "latitude": "37.535012"}, {"name": "吕梁简一", "address": "孝义居然家居店（山西吕梁市孝义振兴街新庄建材城居然家居一层）", "phone_number": "0358-7904568", "longitude": "111.805077", "latitude": "37.156019"}, {"name": "大同简一", "address": "山西省大同市永泰南路居然之家北50米", "phone_number": "0352-2991077", "longitude": "113.310368", "latitude": "40.068999"}, {"name": "太原简一", "address": "太原小店区长风街117号居然之家。", "phone_number": "0351-7535020", "longitude": "112.566834", "latitude": "37.818142"}, {"name": "运城简一", "address": "山西运城禹都市场十三区1号楼7-12号简一大理石瓷砖", "phone_number": "0359-2580587", "longitude": "111.034615", "latitude": "35.063565"}, {"name": "临河简一", "address": "内蒙巴彦淖尔临河红星美凯龙一楼简一大理石瓷砖a8028", "phone_number": "0478-8618151", "longitude": "107.456326", "latitude": "40.775905"}, {"name": "乌海简一", "address": "乌海市凤凰岭西街与建设北路交叉口 月星家居一层B32 简一大理石瓷砖", "phone_number": "0473-2033388", "longitude": "106.818671", "latitude": "39.681409"}, {"name": "兴安盟简一", "address": "内蒙古乌兰浩特市融佳建材市场广汽传祺汽车对面（内蒙古乌兰浩特市北物流2期2-3号）", "phone_number": "0482-8529191", "longitude": "122.012679", "latitude": "46.109256"}, {"name": "包头简一", "address": "包头市昆都仑区民族东路居然之家", "phone_number": "0472-2983917", "longitude": "109.857613", "latitude": "40.689603"}, {"name": "简一大理石瓷砖呼和浩特居然之家新城店", "address": "呼和浩特市新城区东库街居然之家材料馆二楼中梯口简一大理石瓷砖", "phone_number": "0471-2850267", "longitude": "111.700661", "latitude": "40.842033"}, {"name": "简一大理石瓷砖呼和浩特金盛国际家居店", "address": "呼和浩特市南二环金盛国际家居一楼A区门口（暂未开始装修）", "phone_number": "0471-3459899", "longitude": "111.744233", "latitude": "40.808772"}, {"name": "赤峰简一", "address": "内蒙古赤峰市新城区和美建材城A5-01厅", "phone_number": "   18847678222", "longitude": "118.887105", "latitude": "42.240851"}, {"name": "通辽简一", "address": "通辽市民航路与新建大街交汇处众睐陶瓷洁具", "phone_number": "0475-8913111", "longitude": "122.257866", "latitude": "43.611599"}, {"name": "任丘简一", "address": "任丘市红星美凯龙建材馆11号楼   ", "phone_number": "0317-3333433", "longitude": "116.093043", "latitude": "38.698163"}, {"name": "任丘简一", "address": "河北省沧州市任丘市西环建材市场12号楼9号", "phone_number": "0317-3333433 0317-3333533", "longitude": "116.088115", "latitude": "38.706329"}, {"name": "保定简一", "address": "保定市南市区三丰中路南货场站", "phone_number": "0312-2113536", "longitude": "115.488451", "latitude": "38.851623"}, {"name": "保定简一", "address": "保定市乐凯北大街与北二环交叉口北行200米红星美凯龙负一层西厅南侧", "phone_number": "0312-6795565", "longitude": "115.453948", "latitude": "38.928044"}, {"name": "唐山简一", "address": "唐山市高新区南北家园广场一层底商", "phone_number": "0315-3290092", "longitude": "118.182517", "latitude": "39.683382"}, {"name": "唐山简一", "address": "唐山市高新技术开发区建设北路179号居然之家1-0053", "phone_number": "0315-3338090", "longitude": "118.18233", "latitude": "39.693979"}, {"name": "唐山简一", "address": "唐山市路南区新天地购物乐园A-8", "phone_number": "0315-2816561", "longitude": "118.190148", "latitude": "39.626023"}, {"name": "廊坊简一", "address": "香河名家居CBD香河采购中心A馆一层", "phone_number": "0316-7077471", "longitude": "116.994908", "latitude": "39.741529"}, {"name": "廊坊简一", "address": "固安县固安镇朝龙建材城", "phone_number": "0316-6216969", "longitude": "116.327464", "latitude": "39.456687"}, {"name": "廊坊简一", "address": "文安县丰利北路路西", "phone_number": "15832686669", "longitude": "116.475722", "latitude": "38.892056"}, {"name": "廊坊简一", "address": "文安县开发区简一店", "phone_number": "13785621088", "longitude": "116.475753", "latitude": "38.892117"}, {"name": "廊坊简一", "address": "廊坊市广阳区爱民道与新开路交口丽都鑫潮家居生活广场负一层", "phone_number": "0316-2322777", "longitude": "116.725548", "latitude": "39.533998"}, {"name": "徐水简一", "address": "振兴东路尚城小区正对面", "phone_number": "0312-8690008", "longitude": "115.676929", "latitude": "39.018786"}, {"name": "承德简一", "address": "承德市双桥区金龙建材城简一大理石瓷砖", "phone_number": "0314-7599508", "longitude": "117.963771", "latitude": "40.959907"}, {"name": "沧州简一", "address": "河间市诗经路红星美凯龙全球家居生活广场一楼", "phone_number": "0317-5582988", "longitude": "116.095569", "latitude": "38.461699"}, {"name": "沧州简一", "address": "沧州市新华西路颐和装饰城", "phone_number": "0317-3205577", "longitude": "116.844765", "latitude": "38.3197"}, {"name": "石家庄简一", "address": "裕华区裕华东路133号红星美凯龙北商城负一楼B8121号", "phone_number": "0311-67792019", "longitude": "114.541927", "latitude": "38.04206"}, {"name": "秦皇岛简一", "address": "河北省秦皇岛市海港区横断山路金屋大厦辅楼星艺优居馆二楼", "phone_number": "0335-7096720", "longitude": "119.593342", "latitude": "39.936083"}, {"name": "秦皇岛简一", "address": "河北省秦皇岛开发区居然之家", "phone_number": "0335-8359911", "longitude": "119.550414", "latitude": "39.94759"}, {"name": "邢台简一桥东店", "address": "邢台市桥东区亿久建材城D区1号", "phone_number": "0319-3158828", "longitude": "114.526748", "latitude": "37.055112"}, {"name": "邢台简一桥西店", "address": "桥西区中华西大街与滨江路交叉口红星美凯龙负一层中厅", "phone_number": "0319-3066818", "longitude": "E114°26′4.15″", "latitude": "N37°04′14.73″ "}, {"name": "邯郸简一", "address": "丛台区东柳北大街交丛台路红星美凯龙二期 一楼", "phone_number": "153 5400 9988", "longitude": "114.538256", "latitude": "36.621287"}, {"name": "邯郸简一", "address": "邯郸市丛台区东柳北大街与丛台路交口红星美凯龙二期", "phone_number": "15354009988", "longitude": "114.5394750000", "latitude": "36.6230440000"}, {"name": "霸州简一", "address": "河北省霸州市陶瓷市场北区6号", "phone_number": "0316-7230222", "longitude": "116.385813", "latitude": "39.112799"}, {"name": "天津市武清区居然之家定简一大理石瓷砖", "address": "天津市武清区前进道与泉发路交口居然之家 简一大理石瓷砖", "phone_number": "022-22135564(13752178003)", "longitude": "117.051005", "latitude": "39.395859"}, {"name": "天津市简一滨海美凯龙店", "address": "天津市滨海高新区塘沽海洋科技园云山道2857号红星美凯龙滨海商场一层A8019-A8020", "phone_number": "022-65150756", "longitude": "117.6260400000", "latitude": "39.0653900000"}, {"name": "天津简一武清大店", "address": "天津市武清区光明道与泉发路交口集福建材城南三排三号 简一大理石瓷砖", "phone_number": "022-22131477", "longitude": "117.051005", "latitude": "39.395859"}, {"name": "天津简一河西店", "address": "天津市河西区黑牛城道与解放南路交口红星美凯龙1楼A-8103号", "phone_number": "022-88277825", "longitude": "117.237919", "latitude": "39.084844"}, {"name": "天津简一环渤海店", "address": "天津市河西区解放南路473号环渤海采购中心一层30号", "phone_number": "022-58567117", "longitude": "117.242685", "latitude": "39.07639"}, {"name": "佳木斯简一", "address": "红旗路凯联家居博览中心负一楼", "phone_number": "0454-8676848", "longitude": "130.355954", "latitude": "46.801145"}, {"name": "哈尔滨简一", "address": "哈尔滨哈西红星美凯龙二楼B8099室", "phone_number": "0451-85717608", "longitude": "126.578992", "latitude": "45.726341"}, {"name": "哈尔滨简一", "address": "哈尔滨太古街718号道外客运站旁", "phone_number": "0451-87820214\\/400-039-3166", "longitude": "126.649388", "latitude": "45.782768"}, {"name": "大庆简一", "address": "大庆正大方盛一楼", "phone_number": "0459-5819088", "longitude": "125.12884", "latitude": "46.583704"}, {"name": "大庆简一", "address": "大庆萨尔图区正鑫广源陶瓷", "phone_number": "0459-5819088", "longitude": "125.131853", "latitude": "46.596065"}, {"name": "吉林简一", "address": "吉林省吉林市船营区德胜路众安居B座1F-01", "phone_number": "0432-62251111", "longitude": "126.533519", "latitude": "43.839765"}, {"name": "四平简一", "address": "铁东区北一马路与北河交汇处简一大理石瓷砖（总店）", "phone_number": "0434-3395111", "longitude": "124.397852", "latitude": "43.187431"}, {"name": "四平简一", "address": "铁西区家俱大棚东侧简一大理石瓷砖（分店）", "phone_number": "0434-6053668", "longitude": "124.372608", "latitude": "43.185341"}, {"name": "松原简一", "address": "吉林省松原市开发区镜湖北路利发家居广场", "phone_number": "0438-5181111", "longitude": "124.804557", "latitude": "45.14077"}, {"name": "长春简一", "address": "长春欧亚卖场负一层渤海大街37号", "phone_number": "0431-85540333", "longitude": "125.253465", "latitude": "43.849525"}, {"name": "长春简一", "address": "长春红星美凯龙负一层中厅B1080号", "phone_number": "0431-81816579", "longitude": "125.383769", "latitude": "43.913391"}, {"name": "长春简一", "address": "长春吉林大路亚泰桃花苑EF座群楼（晨宇道南）", "phone_number": "0431-87651888", "longitude": "125.386735", "latitude": "43.888045"}, {"name": "丹东简一", "address": "辽宁省丹东市振兴区新开路润豪大厦", "phone_number": "0415-6179999", "longitude": "124.380663", "latitude": "40.121622"}, {"name": "大连简一", "address": "沙河口区五一路幸福家居世界1楼临街5-7号", "phone_number": "0411-84587700", "longitude": "121.584138", "latitude": "38.911994"}, {"name": "朝阳简一", "address": "辽宁省朝阳市友谊大街二段44号", "phone_number": "0421-3828166,266", "longitude": "120.451738", "latitude": "41.589484"}, {"name": "本溪简一", "address": "辽宁省本溪市明山区地工路本溪国际建材城", "phone_number": "024-42537778", "longitude": "123.794203", "latitude": "41.313627"}, {"name": "沈阳简一", "address": "大东区东北陶瓷城2厅南1号", "phone_number": "024-28201515", "longitude": "123.528055", "latitude": "41.845883"}, {"name": "沈阳简一", "address": "铁西区红星美凯龙二楼G-2-027028", "phone_number": "024-85637603", "longitude": "123.389569", "latitude": "41.809983"}, {"name": "盘锦简一", "address": "盘锦红星美凯龙一楼东厅", "phone_number": "0427-2229181", "longitude": "122.0831", "latitude": "41.097338"}, {"name": "营口简一", "address": "华夏陶瓷城4期4号门308-311门市", "phone_number": "0417-2187580", "longitude": "122.290972", "latitude": "40.712763"}, {"name": "葫芦岛简一", "address": "富都家居广场负一楼", "phone_number": "0429-8216789", "longitude": "120.88835", "latitude": "40.744627"}, {"name": "辽阳简一", "address": "欧亚达建材家居世界正门左侧", "phone_number": "0419-3698030", "longitude": "123.366064", "latitude": "41.797534"}, {"name": "锦州简一", "address": "光彩建材市场1号西北门", "phone_number": "0416-3788891", "longitude": "121.148237", "latitude": "41.089693"}, {"name": "鞍山简一", "address": "红星美凯龙二楼2-7-010", "phone_number": "0412-5088550", "longitude": "122.94019", "latitude": "41.148592"}, {"name": "鞍山简一", "address": "永康五金建材城二期20座", "phone_number": "0412-7137633", "longitude": "122.938826", "latitude": "41.141985"}, {"name": "信阳简一", "address": "河南省信阳市南京路国际建材港", "phone_number": "0376-6559588", "longitude": "114.12033", "latitude": "32.129204"}, {"name": "信阳简一", "address": "河南省信阳市羊山新区二十四大街居然之家一楼瓷砖区", "phone_number": "0376-3779799", "longitude": "114.134835", "latitude": "32.132033"}, {"name": "周口简一", "address": "河南省周口市铁路建材城2号楼137-139号", "phone_number": "0394-8918789；0394-7883979", "longitude": "114.670224", "latitude": "33.611252"}, {"name": "商丘简一", "address": "河南省商丘市香君路东段中意建材市场南门向北50米路东", "phone_number": "0370-2550033", "longitude": "115.677173", "latitude": "34.401869"}, {"name": "商丘简一", "address": "河南省商丘市夏邑县建设路邮政储蓄银行对面", "phone_number": "0370-6788166\n0370-6788966", "longitude": "116.14379", "latitude": "34.229692"}, {"name": "洛阳简一", "address": "河南省洛阳市西工区芳林路与九都路交叉口居然之家1-028", "phone_number": "13823450777", "longitude": "112.438534", "latitude": "34.664701"}, {"name": "漯河简一", "address": "河南省漯河市贸易区建材市场", "phone_number": "0395-3567888", "longitude": "114.004985", "latitude": "33.562339"}, {"name": "濮阳简一", "address": "河南省濮阳市黄河东路丽都商业街51号简一大理石瓷砖", "phone_number": "0393-8666611", "longitude": "115.066404", "latitude": "35.779324"}, {"name": "灵宝简一", "address": "河南省三门峡市灵宝市长安路西段函谷大酒店西270米路南简一大理石瓷砖", "phone_number": "0398-2368585", "longitude": "110.873909", "latitude": "34.537609"}, {"name": "焦作简一", "address": "河南省焦作市丰收路与塔南路交叉口简美美家国际家具博览中心一楼", "phone_number": "18137213666杜军校", "longitude": "113.262049", "latitude": "35.214733"}, {"name": "许昌简一", "address": "河南省许昌市文峰路亚欧建材城B区8栋15号", "phone_number": "0374-5785333", "longitude": "113.859981", "latitude": "33.995134"}, {"name": "郑州简一", "address": "河南省郑州市郑东新区商都路西周路南商都装饰文化创意产业园B区1-2号", "phone_number": "0371-66523633", "longitude": "113.760785", "latitude": "34.752515"}, {"name": "郑州简一", "address": "河南省郑州市郑东新区红星美凯龙二期2楼C8079-8081", "phone_number": "0371-55558110", "longitude": "113.735004", "latitude": "34.752092"}, {"name": "郑州简一", "address": "河南省新乡市牧野区平原东路与新七街红星美凯龙负一楼东厅", "phone_number": "0373-6328110", "longitude": "113.956877", "latitude": "35.313051"}, {"name": "郑州简一", "address": "河南省平顶山市建设路与凌云路交叉口向西200米路北", "phone_number": "0375-8868666", "longitude": "113.284995", "latitude": "33.745369"}, {"name": "郑州简一", "address": "河南省鹤壁市新区四季青建材城D座1楼", "phone_number": "18639211686", "longitude": "114.276388", "latitude": "35.753318"}, {"name": "郑州简一", "address": "河南省许昌市禹州市劳动路中段中央特区", "phone_number": "18039919988", "longitude": "113.483804", "latitude": "34.144936"}, {"name": "郑州简一", "address": "河南省郑州市巩义市陇海路110号附18号", "phone_number": "13783550408", "longitude": "113.022363", "latitude": "34.751707"}, {"name": "郑州简一", "address": "河南省济源市济水大道欧凯龙", "phone_number": "13949691835", "longitude": "112.556791", "latitude": "35.102681"}, {"name": "郑州简一", "address": "河南省南阳市卧龙区车站路红星美凯龙B区简一大理石瓷砖", "phone_number": "0377-61815566，15660983333", "longitude": "112.525002", "latitude": "33.011434"}, {"name": "郑州简一", "address": "河南省汝州市朝阳路洗耳路交叉口", "phone_number": "13721862222", "longitude": "112.850653", "latitude": "34.186209"}, {"name": "郑州简一", "address": "河南省新密市青屏大街与平安路交叉口向东150米路南", "phone_number": "15890122221", "longitude": "113.364906", "latitude": "34.545638"}, {"name": "郑州简一", "address": "河南省新乡市长垣县卫华大道与宏力大道宏力新村简一大理石瓷砖", "phone_number": "13233819777", "longitude": "114.672197", "latitude": "35.199718"}, {"name": "项城简一", "address": "河南省项城市湖滨路南段欧蓓莎建材城东大门口", "phone_number": "0394-7700666", "longitude": "114.878327", "latitude": "33.437829"}, {"name": "驻马店简一", "address": "河南省驻马店市中华路橡林建材市场", "phone_number": "0396-2822898", "longitude": "114.021401", "latitude": "32.975576"}, {"name": "驻马店简一", "address": "驻马店市泌阳县大桥路烟草局北20米", "phone_number": "0396-7866666", "longitude": "113.342166", "latitude": "32.730029"}, {"name": "驻马店简一", "address": "驻马店市文明路翡翠城北建材装饰金街", "phone_number": "0396-2898988", "longitude": "114.022444", "latitude": "33.010516"}, {"name": "娄底简一", "address": "娄底市娄星区湘中陶瓷城", "phone_number": "0738-6681188", "longitude": "112.012741", "latitude": "27.770366"}, {"name": "岳阳简一", "address": "湖南省岳阳市太阳桥建材市场简一大厦一楼", "phone_number": "0730-8729168", "longitude": "113.17902", "latitude": "29.366445"}, {"name": "岳阳简一", "address": "湖南省株洲市攸县强远建材市场108号", "phone_number": "0731-24228898", "longitude": "113.3435", "latitude": "27.0061"}, {"name": "常德简一", "address": "湖南省常德市武陵大道953号简一大理石瓷砖", "phone_number": "0736-7811207", "longitude": "111.700607", "latitude": "29.069985"}, {"name": "怀化简一", "address": "湖南省怀化市河西开发区政通路金都陶瓷广场一楼", "phone_number": "0745-2319581", "longitude": "109.951064", "latitude": "27.548889"}, {"name": "株洲简一", "address": "湖南省株洲市石峰区万博龙建材市场6栋146号", "phone_number": "0731-22729882", "longitude": "113.136539", "latitude": "27.861622"}, {"name": "浏阳简一", "address": "湖南省浏阳市北正北路398号家年华建材广场一楼", "phone_number": "0731-83628268", "longitude": "113.623216", "latitude": "28.16238"}, {"name": "澧县简一", "address": "湖南省常德澧县澧州大道花满庭瀚盛美家建材", "phone_number": "0736-3375877", "longitude": "111.747099", "latitude": "29.646554"}, {"name": "衡阳简一", "address": "湖南省衡阳市石鼓区华源大市场B9栋118-120号", "phone_number": "0734-8585116", "longitude": "112.605726", "latitude": "26.927668"}, {"name": "衡阳简一", "address": "湖南省衡阳市蒸湘区船山西路与西二环交汇处红星美凯龙二楼", "phone_number": "0734-8172799", "longitude": "112.56288", "latitude": "26.921012"}, {"name": "邵东简一", "address": "湖南省邵阳市邵东县东家居广场2栋1号", "phone_number": "0739-2712789", "longitude": "111.734644", "latitude": "27.269063"}, {"name": "郴州简一", "address": "湖南省郴州市燕泉建材广场", "phone_number": "0735-5889119", "longitude": "113.023496", "latitude": "25.788283"}, {"name": "长沙简一", "address": "湖南省长沙市芙蓉区万家丽路万家丽家居广场一楼48号", "phone_number": "0731-84112628", "longitude": "113.036173", "latitude": "28.19875"}, {"name": "长沙简一", "address": "湖南省长沙市芙蓉区万家丽路百纳广场一楼", "phone_number": "0731-84710000", "longitude": "113.036821", "latitude": "28.201742"}, {"name": "京山简一", "address": "京山玉丰艺术家居广场A11号简一大理石瓷砖专卖店", "phone_number": "0724-7520992", "longitude": "113.147702", "latitude": "31.032572"}, {"name": "十堰简一", "address": "十堰浙江路红星美凯龙二楼简一大理石瓷砖", "phone_number": "0719-8650118", "longitude": "110.820808", "latitude": "32.640545"}, {"name": "孝感简一", "address": "孝感南大建材城一楼A1-17大理石瓷砖专卖店", "phone_number": "0712-2067287", "longitude": "113.966249", "latitude": "30.904324"}, {"name": "宜昌简一", "address": "宜昌高新区大连路4号金东山家居建材广场陶瓷馆二楼JB2区013\\014\\015号", "phone_number": "0717-6693788", "longitude": "111.331269", "latitude": "30.70734"}, {"name": "恩施简一", "address": "恩施市金桂大道武陵国际装饰建材城C03栋1-4号 简一大理石瓷砖", "phone_number": "0718-8416625", "longitude": "109.50483", "latitude": "30.303716"}, {"name": "恩施简一", "address": "湖北省恩施土家族苗族自治州利川市清源大道78号 简一大理石瓷砖", "phone_number": "0718-7011000", "longitude": "108.950373", "latitude": "30.297787"}, {"name": "松滋简一", "address": "松滋松江阳光城音乐喷泉旁 简一大理石瓷砖专卖店", "phone_number": "0716-6269998", "longitude": "111.773727", "latitude": "30.187658"}, {"name": "武汉简一", "address": "武汉汉口南国大武汉家装广场D座103号", "phone_number": "027-83998786", "longitude": "114.23245", "latitude": "30.593196"}, {"name": "武汉简一", "address": "武汉武昌友谊国际广场3号厅219号", "phone_number": "027-88703909", "longitude": "114.323597", "latitude": "30.562399"}, {"name": "荆州简一", "address": "荆州荆沙大道22号南国大家装 简一大理石瓷砖", "phone_number": "0716-8480000", "longitude": "112.258675", "latitude": "30.341679"}, {"name": "蕲春简一", "address": "湖北省黄冈市蕲春大道建材装饰城皇家一号一楼简一大理石瓷砖", "phone_number": "0713-8978789", "longitude": "114.894981", "latitude": "30.470284"}, {"name": "襄阳简一", "address": "襄阳领袖中原建材城二楼 简一大理石瓷砖专卖店", "phone_number": "0710-3012318", "longitude": "112.15369", "latitude": "32.066926"}, {"name": "随州简一", "address": "曾都区迎宾大道滨湖湾一期107号府河桥头", "phone_number": "0722-3591669", "longitude": "113.394576", "latitude": "31.701971"}, {"name": "黄冈简一", "address": "黄冈市三清国际家居城C1区-41-46简一大理石瓷砖旗舰店", "phone_number": "0713-8678586", "longitude": "114.895053", "latitude": "30.470822"}, {"name": "黄梅简一", "address": "湖北省黄冈市黄梅县建材城门口（人民大道892）", "phone_number": "0713―3635666", "longitude": "115.965462", "latitude": "30.090289"}, {"name": "黄石简一", "address": "黄石月星家居B馆大理石瓷砖专卖店", "phone_number": "0714-6217066", "longitude": "115.04235", "latitude": "30.255258"}, {"name": "黄石简一", "address": "黄石阳新简一大理石瓷砖专卖店", "phone_number": "", "longitude": "115.212497", "latitude": "29.861345"}, {"name": "重庆简一", "address": "南岸区南坪西路58号红星美凯龙一楼A8296-8299简一大理石瓷砖专卖店", "phone_number": "4000232528", "longitude": "106.569106", "latitude": "29.5357"}, {"name": "重庆简一", "address": "渝北区新南路888号红星美凯龙负一楼A8116号简一大理石瓷砖专卖店", "phone_number": "4000232528", "longitude": "106.514842", "latitude": "29.585452"}, {"name": "重庆简一", "address": "九龙坪区迎宾大道11号红星美凯龙二楼C8052简一大理石瓷砖专卖店", "phone_number": "4000232528", "longitude": "106.470059", "latitude": "29.517108"}, {"name": "乐山简一", "address": "乐山市柏杨西路凯旋城800号 简一大理石瓷砖", "phone_number": "0833-2407666", "longitude": "103.736327", "latitude": "29.603019"}, {"name": "南充简一", "address": "南充市光彩大市场北区四栋150-152号(耀目路正大门左侧20米) 简一大理石瓷砖", "phone_number": "0817-3631777", "longitude": "106.078823", "latitude": "30.762476"}, {"name": "宜宾简一丽雅龙城服务中心", "address": "宜宾市大地坡丽雅龙城15栋2单元102号 简一大理石瓷砖", "phone_number": "0831-2397678", "longitude": "104.622786", "latitude": "28.753331"}, {"name": "宜宾简一营销中心", "address": "宜宾市南岸西区海韵家美建材城2楼1-2号 简一大理石瓷砖", "phone_number": "0831-2201661", "longitude": "104.635219", "latitude": "28.753758"}, {"name": "德阳简一", "address": "德阳市旌阳区恒大建材城15栋 简一大理石瓷砖", "phone_number": "0838-2232661", "longitude": "104.371655", "latitude": "31.133633"}, {"name": "成都简一", "address": "成华区川陕立交外侧城北富森美家居建材馆红枫厅2F-2067 简一大理石瓷砖", "phone_number": "028-61157079", "longitude": "104.11526", "latitude": "30.7265"}, {"name": "成都简一", "address": "高新区都会路99号城南富森美家居2号店建材馆2F-239号 简一大理石瓷砖 ", "phone_number": "028-61559566", "longitude": "104.071445", "latitude": "30.607976"}, {"name": "攀枝花简一", "address": "攀枝花市博美家居广场负1楼", "phone_number": "0812-2255111", "longitude": "101.708975", "latitude": "26.5668"}, {"name": "攀枝花简一", "address": "攀枝花市仁和区四十九公里同乐家居博览中心1楼10号", "phone_number": "0812-2517189", "longitude": "101.736121", "latitude": "26.514399"}, {"name": "眉山简一", "address": "眉山市金鑫东街二段308号", "phone_number": "028-3810 8787", "longitude": "103.857151", "latitude": "30.053636"}, {"name": "绵阳简一", "address": "绵阳市万达广场旁加鑫名人酒店1-1简一大理石瓷砖", "phone_number": "0816-2355306", "longitude": "104.725814", "latitude": "31.459233"}, {"name": "都江堰简一", "address": "都江堰市乐佳建材广场-F1楼", "phone_number": "028-87281040", "longitude": "103.66932", "latitude": "30.990232"}, {"name": "昆明简一", "address": "云南省昆明市西山区大商汇国际建材城D区60栋8--10号", "phone_number": "0871-68229999 0871-68259999", "longitude": "102.715861", "latitude": "24.989566"}, {"name": "普洱简一", "address": "云南省普洱市思茅区大昆曼建材城3栋6-7号", "phone_number": "0879-2889268", "longitude": "100.969128", "latitude": "22.761374"}, {"name": "曲靖简一", "address": "曲靖市麒麟区闽南建材城一期D区E1-E3 简一大理石瓷砖", "phone_number": "0874-8872558  8988808", "longitude": "103.822627", "latitude": "25.519208"}, {"name": "腾冲简一", "address": "云南省腾冲市大商汇8栋 简一大理石瓷砖", "phone_number": "0875-5198777", "longitude": "98.513259", "latitude": "25.028607"}, {"name": "蒙自简一", "address": "云南省蒙自市滇南大商汇二号门主干道 简一大理石瓷砖", "phone_number": "", "longitude": "103.385411", "latitude": "23.365241"}, {"name": "西双版纳简一", "address": "景洪市曼弄枫国际家居商城20栋22-26号", "phone_number": "0691-2222444", "longitude": "100.806324", "latitude": "21.978821"}, {"name": "仁怀简一", "address": "仁怀市国酒大道香榭花都后大门1-7门面 简一大理石瓷砖", "phone_number": "0852-22238555", "longitude": "106.408058", "latitude": "27.793664"}, {"name": "兴义简一", "address": "兴义市桔山办金州体育城大商汇B2组团B2栋2-1号 简一大理石瓷砖", "phone_number": "0859-3239116     0859-3239336", "longitude": "104.5450", "latitude": "25.652"}, {"name": "凯里简一", "address": "凯里市鸭塘街道新峰红星美凯龙家居广场洽谈区简一大理石瓷砖", "phone_number": "0855-8311168", "longitude": "107.927566", "latitude": "26.546253"}, {"name": "安顺简一", "address": "安顺市西秀区龙青路天瀑阳光商业街1号铺简一大理石瓷砖专卖店", "phone_number": "0851-33644111", "longitude": "105.963264", "latitude": "26.250027"}, {"name": "贵阳简一", "address": "贵阳市南明区油炸街红星美凯1楼8188简一大理石瓷砖", "phone_number": "0851-85763778", "longitude": "106.739094", "latitude": "26.565063"}, {"name": "遵义简一", "address": "遵义市外环路百合苑1号 简一大理石瓷砖", "phone_number": "0851-27575777", "longitude": "106.939298", "latitude": "27.685438"}, {"name": "铜仁简一 ", "address": "贵州省铜仁市碧江区滨江大道万丰国际商贸城27栋 简一大理石瓷砖", "phone_number": "0855-8311168", "longitude": "109.190943", "latitude": "27.728044"}, {"name": "安康简一", "address": "陕西省安康市高新区高新大道天贸城八区 简一大理石瓷砖", "phone_number": "17729157288高明亮", "longitude": "108.970119", "latitude": "32.719111"}, {"name": "宝鸡简一", "address": "宝鸡市金台大道23号居然之家一楼中厅 简一大理石瓷砖", "phone_number": "0917-3500329", "longitude": "107.18288", "latitude": "34.36446"}, {"name": "府谷简一", "address": "府谷县百安美居一楼大厅", "phone_number": "吕存积18072062666", "longitude": "111.067640", "latitude": "39.028060"}, {"name": "延安简一", "address": "陕西延安市居然之家一楼5号 简一大理石瓷砖", "phone_number": "0911-8891077", "longitude": "109.502722", "latitude": "36.621847"}, {"name": "榆林简一", "address": "陕西省榆林市上郡南路居然之家A馆中厅 简一大理石瓷砖", "phone_number": "15619917999焦拥民", "longitude": "109.786443", "latitude": "38.238301"}, {"name": "西安简一", "address": "西安市北二环太华路立交大明宫钻石店一层 简一大理石瓷砖", "phone_number": "029-89378881\\/4006029669", "longitude": "108.978696", "latitude": "34.315465"}, {"name": "西安简一", "address": "西安市南二环太白路立交红星美凯龙1层 简一大理石瓷砖", "phone_number": "029-62991090", "longitude": "108.931477", "latitude": "34.240182"}, {"name": "西安简一", "address": "西安市含光路大明宫建材家居城负一层 简一大理石瓷砖", "phone_number": "029-88763095", "longitude": "108.937122", "latitude": "34.217046"}, {"name": "西安简一", "address": "西安市咸阳文林西路居然之家一楼 简一大理石瓷砖", "phone_number": "029-33115723", "longitude": "108.693619", "latitude": "34.355412"}, {"name": "西安简一", "address": "西安市含光路南大明宫建材家居城负一层简一大理石瓷砖店 简一大理石瓷砖", "phone_number": "029-88763095", "longitude": "108.937143", "latitude": "34.216366"}, {"name": "西安简一", "address": "西安咸阳文林西路居然之家简一大理石瓷砖店 简一大理石瓷砖", "phone_number": "029-33115723", "longitude": "108.693619", "latitude": "34.355412"}, {"name": "西安简一", "address": "西安市灞桥区大明宫建材家居东三环店简一大理石瓷砖店 简一大理石瓷砖", "phone_number": "029-83527848", "longitude": "109.056756", "latitude": "34.270645"}, {"name": "西宁简一", "address": "西宁市城北区海湖大道99号万佳嘉博园JM1-39 简一大理石瓷砖", "phone_number": "0971-4124999", "longitude": "101.754094", "latitude": "36.673048"}, {"name": "临夏简一", "address": "甘肃省临夏市光华东路5号小什字延伸段 简一大理石瓷砖", "phone_number": "18993897667，0930-6218221", "longitude": "103.222113", "latitude": "35.605048"}, {"name": "兰州简一", "address": "雁北路居然之家1号厅1-02 简一大理石瓷砖", "phone_number": "0931-8501906", "longitude": "103.913053", "latitude": "36.068738"}, {"name": "兰州简一", "address": "红星美凯龙二楼 简一大理石瓷砖", "phone_number": "0931-7358888", "longitude": "103.906966", "latitude": "36.05574"}, {"name": "嘉峪关简一", "address": "甘肃省嘉峪关市恒基美居国际瓷砖卫浴馆1F116-117号 简一大理石瓷砖", "phone_number": "0937-5979811", "longitude": "98.286112", "latitude": "39.773979"}, {"name": "天水简一", "address": "甘肃省天水市麦积区桥南家居建材城3号馆 简一大理石瓷砖", "phone_number": "13919647999林锐庆", "longitude": "105.89999", "latitude": "34.557449"}, {"name": "庆阳简一", "address": "庆阳市西峰区陇东建材市场陶瓷北二区二楼 简一大理石瓷砖", "phone_number": "0934-4183777", "longitude": "107.642083", "latitude": "35.729186"}, {"name": "张掖简一", "address": "张掖市张火公路新国际商贸城一排一号 简一大理石瓷砖", "phone_number": "0936-8859744", "longitude": "100.488694", "latitude": "38.960168"}, {"name": "武威简一", "address": "甘肃武威市万嘉国际建材广场 简一大理石瓷砖", "phone_number": "0935-2164444", "longitude": "102.601528", "latitude": "37.95026"}, {"name": "中卫简一", "address": "中卫市东大街中浩建材城精品馆简一大理石瓷砖旗舰店", "phone_number": "0955-8767955", "longitude": "105.206871", "latitude": "37.514914"}, {"name": "吴忠简一", "address": "宁夏吴忠市居然之家二期3号楼 简一大理石瓷砖", "phone_number": "0953-6511165", "longitude": "106.199698", "latitude": "38.003728"}, {"name": "银川简一", "address": "宁夏银川市新华东街月星家居建材城一楼a068 简一大理石瓷砖", "phone_number": "0951-6190268", "longitude": "106.307718", "latitude": "38.464102"}, {"name": "银川简一", "address": "宁夏银川市新华东街金茂家居港金茂店d6-8 简一大理石瓷砖", "phone_number": "0951-4089090", "longitude": "106.314411", "latitude": "38.459836"}, {"name": "银川简一", "address": "内蒙左旗百安居左旗店 简一大理石瓷砖", "phone_number": "0483-3998066", "longitude": "116.394472", "latitude": "27.96956"}, {"name": "乌鲁木齐简一", "address": "乌鲁木齐市新市区苏州路美居物流园B座一层3区0397号（简一大理石瓷砖店）", "phone_number": "0991-5186666", "longitude": "87.585556", "latitude": "43.867992"}, {"name": "乌鲁木齐简一", "address": "乌鲁木齐市新市区苏州路美居物流园B座负一层0034-0036简一大理石瓷砖店", "phone_number": "0991-6692371", "longitude": "87.585556", "latitude": "43.867992"}, {"name": "乌鲁木齐简一", "address": "新疆克拉玛依市万佳建材市场五点梅建材L&D陶瓷、简一大理石瓷砖店", "phone_number": "0990-6966196", "longitude": "84.867885", "latitude": "45.599051"}, {"name": "库尔勒简一", "address": "新疆库尔勒市红星美凯龙二楼8016-8017 简一大理石瓷砖", "phone_number": "18997600007", "longitude": "86.266154", "latitude": "41.714783"}, {"name": "石河子简一", "address": "石河子市312国道旁温州国际商贸城h栋简一大理石瓷砖", "phone_number": "0993-2668880", "longitude": "86.075487", "latitude": "44.32902"}, {"name": "潮州简一", "address": "潮州大道与护提路交界处春晖建材", "phone_number": "0768-2261122", "longitude": "116.638319", "latitude": "23.685445"}, {"name": "荆门简一", "address": "湖北省荆门市掇刀区湖北省荆门市掇刀区象山大道荆门大家装", "phone_number": "", "longitude": "N30°59′18.70″ ", "latitude": "E112°10′56.86″"}]