[{"latitude": 39.996768, "longitude": 116.443614, "name": "\u5c45\u7136\u4e4b\u5bb6\u5317\u56db\u73af\u5e97", "address": "\u5317\u4eac\u5e02\u671d\u9633\u533a\u5317\u56db\u73af\u4e1c\u8def65\u53f7\u5c45\u7136\u4e4b\u5bb62\u5c42\u9676\u74f7\u53853-2-026", "phone_number": "010-84632920"}, {"latitude": 39.895325, "longitude": 116.494402, "name": "\u7ea2\u661f\u7f8e\u51ef\u9f99\u4e1c\u56db\u73af\u5e97", "address": "\u5317\u4eac\u5e02\u671d\u9633\u533a\u4e1c\u56db\u73af\u4e2d\u8def193\u53f7\u7ea2\u661f\u7f8e\u51ef\u9f99\u5efa\u6750\u9986B6258", "phone_number": "010-87951250"}, {"latitude": 39.869768, "longitude": 116.467777, "name": "\u5c45\u7136\u4e4b\u5bb6\u5341\u91cc\u6cb3\u5e97", "address": "\u5317\u4eac\u5e02\u671d\u9633\u533a\u5341\u516b\u91cc\u5e97\u5927\u7f8a\u574a\u8def\u5c45\u7136\u4e4b\u5bb63\u53f7\u53853-2-003", "phone_number": "010-87366204"}, {"latitude": 39.964161, "longitude": 116.292035, "name": "\u5c45\u7136\u4e4b\u5bb6\u91d1\u6e90\u5e97", "address": "\u5317\u4eac\u5e02\u6d77\u6dc0\u533a\u4e16\u7eaa\u91d1\u6e90\u5c45\u7136\u4e4b\u5bb6\u88c5\u9970\u6750\u6599\u99862-1080", "phone_number": "010-88873050"}, {"latitude": 39.853259, "longitude": 116.349764, "name": "\u5c45\u7136\u4e4b\u5bb6\u7389\u6cc9\u8425\u5e97", "address": "\u5317\u4eac\u5e02\u4e30\u53f0\u533a\u5357\u4e09\u73af58\u53f7\u5c45\u7136\u4e4b\u5bb61-017", "phone_number": "010-83678058"}, {"latitude": 31.165705, "longitude": 121.566392, "name": "\u4e0a\u6d77\u6d66\u4e1c\u5e97", "address": "\u4e0a\u6d77\u5e02\u6d66\u4e1c\u65b0\u533a\u6caa\u5357\u8def2178\u53f7\u7ea2\u661f\u7f8e\u51ef\u9f99\u4e8c\u697cB8099", "phone_number": "021-20257532 021-20257531"}, {"latitude": 31.24358, "longitude": 121.391258, "name": "\u4e0a\u6d77\u771f\u5317\u5e97", "address": "\u4e0a\u6d77\u5e02\u666e\u9640\u533a\u771f\u5317\u8def1208\u53f7\u7ea2\u661f\u7f8e\u51ef\u9f99\u5357\u9986\u4e00\u697cA8161", "phone_number": "021-32510298 021-32510292"}, {"latitude": 31.192749, "longitude": 121.435411, "name": "\u4e0a\u6d77\u5b9c\u5c71\u5e97", "address": "\u4e0a\u6d77\u5e02\u5f90\u6c47\u533a\u5b9c\u5c71\u8def407\u53f7\u559c\u76c8\u95e8\u56fd\u9645\u5efa\u6750\u54c1\u724c\u4e2d\u5fc3\u8d1f\u4e00\u5c42B008\u5385", "phone_number": "021-31593362"}, {"latitude": 45.767441, "longitude": 126.606815, "name": "\u5c45\u7136\u4e4b\u5bb6\u7231\u5efa\u5e97", "address": "\u54c8\u5c14\u6ee8\u5e02\u9053\u91cc\u533a\u7231\u5efa\u8def17\u53f7\u5c45\u7136\u4e4b\u5bb61-040", "phone_number": "0451-86385325"}, {"latitude": 39.084899, "longitude": 117.237569, "name": "\u5929\u6d25\u7ea2\u661f\u5e97", "address": "\u5929\u6d25\u5e02\u6cb3\u897f\u533a\u7ea2\u661f\u7f8e\u51ef\u9f99A8301-8302", "phone_number": "022-88277282 88277253"}, {"latitude": 39.074822, "longitude": 117.240857, "name": "\u5929\u6d25\u5c45\u7136\u5e97", "address": "\u5929\u6d25\u5e02\u6cb3\u897f\u533a\u89e3\u653e\u5357\u8def\u5c45\u7136\u4e4b\u5bb6\u8d1f\u4e00\u5c42", "phone_number": "022-88259505 15302195070"}, {"latitude": 38.02575, "longitude": 114.540322, "name": "\u77f3\u5bb6\u5e84\u6000\u7279\u5e97", "address": "\u77f3\u5bb6\u5e84\u5e02\u88d5\u534e\u533a\u5357\u4f53\u80b2\u5357\u5927\u8857\u6000\u7279\u9676\u74f7\u535a\u89c8\u4e2d\u5fc3\u4e8c\u5c42213", "phone_number": "0311-66698800"}, {"latitude": 38.062772, "longitude": 114.551445, "name": "\u77f3\u5bb6\u5e84\u7ea2\u661f\u5e97", "address": "\u77f3\u5bb6\u5e84\u5e02\u548c\u5e73\u8def\u4e1c\u8def289\u53f7\u7ea2\u661f\u7f8e\u51ef\u9f99\u8d1f\u4e00\u5c42D8083", "phone_number": "15130081993"}, {"latitude": 36.118041, "longitude": 120.442187, "name": "\u9752\u5c9b\u597d\u4e00\u5bb6\u5e97", "address": "\u9752\u5c9b\u5e02\u5d02\u5c71\u533a\u8fbd\u9633\u4e1c\u8def9\u53f7\u597d\u4e00\u5bb6\u56fd\u9645\u5bb6\u5c45\u5e7f\u573a\u4e8c\u671f\u4e00\u5c42B-19", "phone_number": "0532-88918219"}, {"latitude": 36.122812, "longitude": 120.40755, "name": "\u9752\u5c9b\u5c45\u7136\u5e97", "address": "\u9752\u5c9b\u5e02\u5e02\u5317\u533a\u540c\u5fb7\u8def8\u53f7\u5c45\u7136\u4e4b\u5bb6B\u9986\u4e00\u697c025", "phone_number": "0532-8091132"}, {"latitude": 37.471594, "longitude": 121.364551, "name": "\u70df\u53f0\u7ea2\u661f\u5e97", "address": "\u70df\u53f0\u5e02\u829d\u7f58\u533a\u673a\u573a\u8def\u9ec4\u52a1\u7acb\u4ea4\u6865\u897f\u5357\u7ea2\u661f\u7f8e\u51ef\u9f99", "phone_number": "0535-3407502"}, {"latitude": 37.559569, "longitude": 121.392242, "name": "\u70df\u53f0\u6d77\u6e2f\u5bb6\u9970\u5e97", "address": "\u70df\u53f0\u5e02\u829d\u7f58\u533a\u6d77\u6e2f\u5bb6\u9970C\u533a15\u63924-5", "phone_number": "0535-6742464"}, {"latitude": 39.936087, "longitude": 119.593343, "name": "\u79e6\u7687\u5c9b\u7ea2\u661f\u5e97", "address": "\u79e6\u7687\u5c9b\u5e02\u6d77\u6e2f\u533a\u6cb3\u5317\u5927\u8857358\u53f7\u7ea2\u661f\u7f8e\u51ef\u9f99\u8d1f1\u5c42", "phone_number": "0335-3190030"}, {"latitude": 36.623033, "longitude": 114.539962, "name": "\u90af\u90f8\u7ea2\u661f\u5e97", "address": "\u90af\u90f8\u5e02\u4e1b\u53f0\u8def\u4e0e\u4e1c\u67f3\u5927\u8857\u4ea4\u53c9\u53e3\u7ea2\u661f\u7f8e\u51ef\u9f99\u4e8c\u5c42\u5357\u5385", "phone_number": "0310-3179128"}, {"latitude": 39.694415, "longitude": 118.183748, "name": "\u5510\u5c71\u5c45\u7136\u5e97", "address": "\u5510\u5c71\u5e02\u5efa\u8bbe\u8def\u5317\u53e3\u5c45\u7136\u4e4b\u5bb61-53", "phone_number": "0315-3853603"}, {"latitude": 40.922089, "longitude": 117.959002, "name": "\u627f\u5fb7\u5c45\u7136\u5e97", "address": "\u627f\u5fb7\u5e02\u5f00\u53d1\u533a\u96f9\u795e\u5e99\u5c45\u7136\u4e4b\u5bb6\u4e00\u5c42", "phone_number": "0314-5890169"}, {"latitude": 36.691263, "longitude": 117.027096, "name": "\u6d4e\u5357\u94f6\u5ea7\u5e97", "address": "\u6d4e\u5357\u5e02\u5929\u6865\u533a\u5317\u56ed\u5927\u8857419\u53f7\u94f6\u5ea7\u5bb6\u5c45\u4e2d\u5fc3\u535a\u89c8\u5e97\u4e1c\u5385\u4e00\u5c42", "phone_number": "0531-5559499"}, {"latitude": 36.697749, "longitude": 117.053096, "name": "\u6d4e\u5357\u7ea2\u661f\u7f8e\u51ef\u9f99\u5e97", "address": "\u6d4e\u5357\u5929\u6865\u533a\u5317\u56ed\u5927\u8857225\u53f7\u7ea2\u661f\u7f8e\u51ef\u9f99\u4e2d\u5385\u8d1f\u4e00\u5c42", "phone_number": "0531-58055906"}, {"latitude": 35.073151, "longitude": 118.320071, "name": "\u4e34\u6c82\u6021\u666f\u4e3d\u5bb6\u5e97", "address": "\u4e34\u6c82\u5e02\u5170\u5c71\u533a\u89e3\u653e\u8def\u4e0e\u8499\u5c71\u5927\u9053\u4ea4\u6c47\u5904\u897f\u4e8c\u767e\u7c73\u6021\u666f\u4e3d\u5bb6\u56fd\u9645\u5efa\u6750\u5bb6\u5c45\u5e7f\u573a\u4e00\u697c\u4e1c\u4fa7\u6cbf\u8857", "phone_number": "0539-8330885"}, {"latitude": 37.451536, "longitude": 118.537745, "name": "\u4e1c\u8425\u661f\u51ef\u5bb6\u5c45", "address": "\u4e1c\u8425\u5e02\u897f\u57ce\u533a\u9ec4\u6cb3\u8def\u661f\u51ef\u5168\u7403\u5bb6\u5c45\u751f\u6d3b\u5e7f\u573a\u4e00\u697c\u4e2d\u5385", "phone_number": "0546-8970089"}, {"latitude": 35.438822, "longitude": 116.606104, "name": "\u6d4e\u5b81\u91d1\u5b87\u5e97", "address": "\u6d4e\u5b81\u5e02\u4efb\u57ce\u533a\u91d1\u5b87\u5efa\u6750\u5e02\u573aB\u9986", "phone_number": "0537-5159137"}, {"latitude": 36.741814, "longitude": 119.13378, "name": "\u6f4d\u574a\u5c45\u7136\u4e4b\u5bb6", "address": "\u6f4d\u574a\u5e02\u9e22\u98de\u8def\u7389\u6e05\u8857\u8def\u53e3\u5c45\u7136\u4e4b\u5bb6\u4e00\u697c", "phone_number": "0536-2228118"}, {"latitude": 41.810012, "longitude": 123.387675, "name": "\u6c88\u9633\u94c1\u897f\u7ea2\u661f\u7f8e\u51ef\u9f99", "address": "\u6c88\u9633\u5e02\u94c1\u897f\u533a\u5317\u4e8c\u8def\u5174\u534e\u8857\u7ea2\u661f\u7f8e\u51ef\u9f99\u4e8c\u697cG2-002", "phone_number": "024-85637809"}, {"latitude": 43.913756, "longitude": 125.31957, "name": "\u957f\u6625\u5c45\u7136\u4e4b\u5bb6\u592a\u9633\u5e97", "address": "\u957f\u6625\u5e02\u5bbd\u57ce\u533a\u592a\u9633\u5bb6\u5c45A\u5ea72\u697cD\u533a5\u53f7", "phone_number": "0431-82782121"}, {"latitude": 43.859471, "longitude": 125.385373, "name": "\u957f\u6625\u8d5b\u5fb7\u5c45\u7136\u4e4b\u5bb6", "address": "\u957f\u6625\u5e02\u7ecf\u6d4e\u5f00\u53d1\u533a\u4ed9\u53f0\u5927\u88571228\u53f7\u8d5b\u5fb7\u5e7f\u573a\u5c45\u7136\u8d5b\u5fb7\u5e97", "phone_number": "0431-81129107"}, {"latitude": 38.922441, "longitude": 121.610027, "name": "\u5927\u8fde\u4e94\u4e00\u5e7f\u573a\u5e97", "address": "\u5927\u8fde\u5e02\u6c99\u6cb3\u53e3\u533a\u4e94\u4e00\u5e7f\u573a\u5927\u4e16\u754c\u5bb6\u5c45\u5e7f\u573a\u4e09\u697c", "phone_number": "0411-83684605"}, {"latitude": 41.144978, "longitude": 122.941542, "name": "\u978d\u5c71\u5341\u91cc\u6cb3\u9676\u74f7\u57ce\u5e97", "address": "\u978d\u5c71\u5e02\u5343\u5c71\u533a\u5343\u5c71\u897f\u8def59\u53f7\u5341\u91cc\u6cb3\u9676\u74f7\u57ce\u4e94\u697c", "phone_number": "0412-7299777"}, {"latitude": 42.237804, "longitude": 118.887119, "name": "\u8d64\u5cf0\u7ea2\u661f\u7f8e\u51ef\u9f99", "address": "\u8d64\u5cf0\u5e02\u65b0\u57ce\u533a\u4e34\u6f62\u5927\u8857\u7ea2\u661f\u7f8e\u51ef\u9f99\u897f\u5385\u4e8c\u5c42C8806", "phone_number": "0476-3995778"}, {"latitude": 40.744273, "longitude": 120.885636, "name": "\u846b\u82a6\u5c9b\u5bcc\u90fd\u5bb6\u5c45\u5e7f\u573a\u5e97", "address": "\u846b\u82a6\u5c9b\u5e02\u9f99\u6e2f\u533a\u4e2d\u65fa\u4e4b\u5bb6\u95e8\u5e02", "phone_number": "0429-2294555"}, {"latitude": 43.658087, "longitude": 122.228635, "name": "\u901a\u8fbd\u5c45\u7136\u5e97", "address": "\u901a\u8fbd\u5e02\u65b0\u57ce\u533a\u521b\u4e1a\u5927\u9053\u8def\u4e1c\u5c45\u7136\u4e4b\u5bb61\u53f7\u95e8\u4e00\u697c007\u5ba4", "phone_number": "0475-6190111"}, {"latitude": 40.133508, "longitude": 124.405402, "name": "\u4e39\u4e1c\u5927\u660c\u56fd\u9645\u5e97", "address": "\u4e39\u4e1c\u5e02\u632f\u5174\u533a\u5174\u516d\u8857\u57ce\u5efa\u5c0f\u533a41\u53f7\u697c11\u53f7\u95e8\u5e02", "phone_number": "0415-3155288"}, {"latitude": 41.12924, "longitude": 122.042354, "name": "\u76d8\u9526\u5c45\u7136\u4e4b\u5bb6\u5e97", "address": "\u76d8\u9526\u5e02\u5174\u9686\u53f0\u533a\u5c45\u7136\u4e4b\u5bb61\u53f7\u9986\uff08290\uff09", "phone_number": "0427-2333335"}, {"latitude": 43.839946, "longitude": 126.533396, "name": "\u5409\u6797\u5e02\u4f17\u5b89\u5c45\u5bb6\u5c45\u5e7f\u573a\u5e97", "address": "\u5409\u6797\u5e02\u8239\u8425\u533a\u5fb7\u80dc\u8def\u4f17\u5b89\u5c45A\u5ea72\u697c", "phone_number": "0432-66660188"}, {"latitude": 42.900948, "longitude": 129.515156, "name": "\u5ef6\u5409\u4e50\u4f70\u5bb6\u5c45\u5e97", "address": "\u5ef6\u5409\u5e02\u6cb3\u5357\u4e50\u4f70\u5bb6\u5c45\u4e00\u697c", "phone_number": "0433-2813960"}, {"latitude": 28.198803, "longitude": 113.036094, "name": "\u4e07\u5bb6\u4e3d\u5e97", "address": "\u957f\u6c99\u5e02\u4e07\u5bb6\u4e3d\u5bb6\u5c45\u5efa\u6750\u5e7f\u573a\u4e00\u697c", "phone_number": "0731-83570976"}, {"latitude": 28.13881, "longitude": 113.041709, "name": "\u957f\u6c99\u559c\u76c8\u95e8\u5e97", "address": "\u957f\u6c99\u559c\u76c8\u95e8\u5efa\u6750\u5bb6\u5c45\u5e7f\u573a\u4e09\u697c", "phone_number": "0731-89900623"}, {"latitude": 28.11132, "longitude": 113.020114, "name": "\u957f\u6c99\u7ea2\u661f\u7f8e\u51ef\u9f99", "address": "\u957f\u6c99\u5e02\u96e8\u82b1\u533a\u97f6\u5c71\u5357\u8def\u7ea2\u661f\u7f8e\u51ef\u9f99\u5efa\u6750\u9986\u4e00\u697c\u4e2d\u5385", "phone_number": "0731-82899076"}, {"latitude": 25.843758, "longitude": 114.91516, "name": "\u8d63\u5dde\u5927\u91d1\u8c37\u5efa\u6750", "address": "\u8d63\u5dde\u5e02\u7ecf\u6d4e\u6280\u672f\u5f00\u53d1\u533a\u91d1\u4e1c\u8def\u7cbe\u54c1\u5efa\u675029\u680b\u5927\u91d1\u8c37\u5bb6\u5c45\u751f\u6d3b\u827a\u672f\u9986\u4e8c\u697c", "phone_number": "0797-8376363"}, {"latitude": 30.607097, "longitude": 104.071026, "name": "\u5357\u95e8\u5bcc\u68ee\u65d7\u8230\u5e97", "address": "\u6210\u90fd\u5e02\u9ad8\u65b0\u533a\u90fd\u4f1a\u8def99\u53f7\u5bcc\u68ee\u7f8e\u5bb6\u5c45\u5357\u95e8\u5efa\u6750MALL\u4e8c\u697cB225\u3001B226\u53f7", "phone_number": "028-62989803"}, {"latitude": 30.608648, "longitude": 104.071047, "name": "\u5bcc\u68ee\u7f8e\u5bb6\u5c45\u57ce\u5317\u8fdb\u53e3\u9986\u4e13\u5356\u5e97", "address": "\u6210\u90fd\u9ad8\u65b0\u533a\u90fd\u4f1a\u8def99\u53f7\uff0c\u5bcc\u68ee\u7f8e\u5bb6\u5c45\u5efa\u6750mall\u4e8c\u697cB225\u3001226\u53f7\uff08\u5357\u5bcc\u68ee\uff09", "phone_number": "028-62989802"}, {"latitude": 23.013973, "longitude": 113.350358, "name": "\u5409\u76db\u4f1f\u90a6\u5e97", "address": "\u5e7f\u5dde\u5e02\u756a\u79ba\u533a\u8fce\u5bbe\u8def\u4e07\u535a\u4e2d\u5fc3\u5409\u76db\u4f1f\u90a6\u5efa\u6750\u9986A1002\u94fa", "phone_number": "020-34767860"}, {"latitude": 23.12433, "longitude": 113.353157, "name": "\u5e7f\u5dde\u9a6c\u4f1a\u5e97", "address": "\u5e7f\u5dde\u5e02\u5929\u6cb3\u533a\u73e0\u6c5f\u65b0\u57ce\u82b1\u57ce\u5927\u9053\u4e1c\u9a6c\u4f1a\u5bb6\u5c45\u4e1c\u533a1106-1107\u53f7", "phone_number": "020-87018217"}, {"latitude": 32.047605, "longitude": 112.148268, "name": "\u8944\u9633\u5929\u4e3d\u5bb6\u5c45\u5e97", "address": "\u8944\u9633\u5e02\u524d\u8fdb\u8def9\u53f7\u5929\u4e3d\u56fd\u9645\u5bb6\u5c45\u535a\u89c8\u4e2d\u5fc3", "phone_number": "0710-3287001"}, {"latitude": 28.64571, "longitude": 115.877186, "name": "\u5357\u660c\u559c\u76c8\u95e8\u5e97", "address": "\u6c5f\u897f\u7701\u5357\u660c\u5e02\u897f\u6e56\u533a\u629a\u751f\u8def\u559c\u76c8\u95e8\u5efa\u6750\u5e7f\u573a\u4e00\u697c1250\u30011260", "phone_number": "0791-86752086"}, {"latitude": 27.24708, "longitude": 111.5169, "name": "\u90b5\u9633\u5e97", "address": "\u90b5\u9633\u5e02\u6e58\u6842\u9ed4\u5efa\u6750\u57ce\u4e8c\u671fB\u533a\u4e00\u680b", "phone_number": "0739-5192626"}, {"latitude": 30.592329, "longitude": 114.232696, "name": "\u6b66\u6c49\u5357\u56fd\u5927\u5bb6\u88c5\u5e97", "address": "\u6b66\u6c49\u5e02\u785a\u53e3\u533a\u89e3\u653e\u5927\u9053201\u53f7\u6c49\u897f\u4e00\u53f7\u5357\u56fd\u5927\u6b66\u6c49\u5bb6\u88c5U\u5ea7\u4e09\u697c", "phone_number": "027-83999818"}, {"latitude": 30.613713, "longitude": 114.259163, "name": "\u6b66\u6c49\u5c45\u7136\u4e4b\u5bb6\u6c49\u53e3\u5e97", "address": "\u6b66\u6c49\u5e02\u6c5f\u6c49\u533a\u5e38\u9752\u8def284\u53f7\u5c45\u7136\u4e4b\u5bb6B1070", "phone_number": "027-59701786"}, {"latitude": 30.707197, "longitude": 111.331655, "name": "\u5b9c\u660c\u5e97", "address": "\u5b9c\u660c\u5e02\u91d1\u4e1c\u5c71\u5efa\u6750\u5e7f\u573a\u9676\u74f7\u9986", "phone_number": "0717-6309555"}, {"latitude": 27.862762, "longitude": 113.137605, "name": "\u4e07\u535a\u73d1\u5e97", "address": "\u682a\u6d32\u5e02\u77f3\u5cf0\u533a\u4e07\u535a\u73d1\u5bb6\u5c45\u5efa\u6750\u5e7f\u573a2\u697c1\u53f7", "phone_number": "0731-22881345"}, {"latitude": 29.562917, "longitude": 106.530918, "name": "\u91cd\u5e86\u5c45\u7136\u4e4b\u5bb6\u91d1\u6e90\u5e97", "address": "\u91cd\u5e86\u6c5f\u5317\u533a\u5317\u6ee8\u8def368\u53f7\u91d1\u6e90\u5c45\u7136\u4e4b\u5bb6\u4e00\u5c42CK-1005", "phone_number": "023-86063362"}, {"latitude": 29.069654, "longitude": 111.69776, "name": "\u5e38\u5fb7\u5e97", "address": "\u6e56\u5357\u7701\u5e38\u5fb7\u5e02\u6b66\u9675\u533a\u6b66\u9675\u5927\u9053866\u53f7\u534e\u5e9c\u5929\u5730\u95e8\u9762", "phone_number": "0736-7168219"}, {"latitude": 22.570112, "longitude": 114.102556, "name": "\u516b\u5366\u5cad\u5e97", "address": "\u6df1\u5733\u5e02\u798f\u7530\u533a\u516b\u5366\u56db\u8def\u5e86\u5b89\u822a\u7a7a\u5927\u53a61\u697c", "phone_number": "0755-25922102"}, {"latitude": 22.574212, "longitude": 114.116064, "name": "\u767e\u5229\u739b\u4e00\u671f", "address": "\u6df1\u5733\u5e02\u7f57\u6e56\u533a\u68a8\u56ed\u8def\u56fd\u9645\u53a8\u536b\u4e2d\u5fc3\u4e00\u671f1015\u94fa", "phone_number": "0755-82409799"}, {"latitude": 26.09022, "longitude": 119.342623, "name": "\u5357\u65b9\u5efa\u6750\u5e02\u573a", "address": "\u798f\u5dde\u5e02\u8fde\u6c5f\u5317\u8def\u5357\u65b9\u5efa\u6750\u5e02\u573a5-18IMOLA\u9676\u74f7", "phone_number": "0591-83518866"}, {"latitude": 26.092461, "longitude": 119.34321, "name": "\u559c\u76c8\u95e8", "address": "\u798f\u5dde\u5e02\u664b\u5b89\u533a\u559c\u76c8\u95e8\u5efa\u6750\u5bb6\u5177\u5e7f\u573a\u4e00\u697c1147", "phone_number": "0591-83661068"}, {"latitude": 25.734578, "longitude": 119.378948, "name": "\u798f\u6e05", "address": "\u798f\u6e05\u6e05\u8363\u5927\u9053\u81ea\u6765\u6c34\u5382\u659c\u5bf9\u9762\u610f\u5927\u5229IMOLA\u9676\u74f7", "phone_number": "0591-86959999"}, {"latitude": 24.931439, "longitude": 118.661803, "name": "\u559c\u76c8\u95e8", "address": "\u6cc9\u5dde\u5e02\u4e30\u6cfd\u533a\u4e1c\u8f85\u8def\u559c\u76c8\u95e8\u5efa\u6750\u5bb6\u5177\u5e7f\u573a\u8d1f\u4e00\u5c420316#", "phone_number": "0595-28599966"}, {"latitude": 24.513266, "longitude": 118.160643, "name": "\u5409\u5bb6\u5bb6\u4e16\u754c", "address": "\u53a6\u95e8\u5e02\u6e56\u91cc\u533a\u91d1\u6e56\u8def118\u53f7\u5409\u5bb6\u5bb6\u4e16\u754cB\u99861\u697c58\u53f7", "phone_number": "0592-5796868"}, {"latitude": 25.788289, "longitude": 113.023495, "name": "\u71d5\u6cc9\u5e7f\u573a\u5e97", "address": "\u90f4\u5dde\u5e02\u71d5\u6cc9\u5e7f\u573a5\u680b101-103", "phone_number": "0735-8889009"}, {"latitude": 29.688176, "longitude": 115.986574, "name": "\u4e5d\u6c5f21\u4e16\u7eaa\u5e97", "address": "\u4e5d\u6c5f\u5e02\u957f\u6c5f\u5927\u9053669\u53f7\u559c\u76c8\u95e8\u5efa\u6750B\u9986\u4e8c\u697c", "phone_number": "0792-8617777"}, {"latitude": 34.750446, "longitude": 113.731713, "name": "\u7ea2\u661f\u7f8e\u51ef\u9f99", "address": "\u90d1\u5dde\u7ea2\u661f\u7f8e\u51ef\u9f99\u4e8c\u697cC8038", "phone_number": "0371-60139365"}, {"latitude": 34.755412, "longitude": 113.741458, "name": "\u5c45\u7136\u4e4b\u5bb6", "address": "\u90d1\u5dde\u5c45\u7136\u4e4b\u5bb6\u4e00\u5c421-043", "phone_number": "0371-60189365"}, {"latitude": 36.088512, "longitude": 103.77516, "name": "\u6708\u661f\u5bb6\u5c45", "address": "\u7518\u8083\u7701\u5170\u5dde\u5e02\u4e03\u91cc\u6cb3\u533a\u5357\u6ee8\u6cb3\u8def651\u53f7 \u6708\u661f\u5bb6\u5c45", "phone_number": "13919195757"}, {"latitude": 36.0686, "longitude": 103.912936, "name": "\u5170\u5dde\u5c45\u7136\u4e4b\u5bb6", "address": "\u5170\u5dde\u5e02\u5317\u9762\u6ee9\u6587\u7406\u5b66\u9662\u5411\u4e1c500\u7c73 \u5c45\u7136\u4e4b\u5bb6", "phone_number": "0931-8301000"}, {"latitude": 36.676073, "longitude": 101.772162, "name": "\u897f\u5b81\u671d\u9633\u56fd\u9645\u5efa\u6750\u57ce", "address": "\u897f\u5b81\u5e02\u57ce\u5317\u533a\u671d\u9633\u56fd\u9645\u5efa\u6750\u57ce33\u680b\u4e8c\u697c", "phone_number": "0971-4393655"}, {"latitude": 43.877745, "longitude": 87.618207, "name": "\u4e4c\u9c81\u6728\u9f50\u6c60\u5b9d\u56fd\u9645\u5bb6\u5c45\u9986", "address": "\u4e4c\u9c81\u6728\u9f50\u6c34\u78e8\u6c9f\u533a\u7eff\u57ce\u767e\u5408\u4e09\u671f\u95e8\u9762\u6c60\u5b9d\u56fd\u9645\u5bb6\u5c45", "phone_number": "0991-3777555 0991-3777444"}, {"latitude": 43.87547, "longitude": 87.58925, "name": "\u514b\u62c9\u739b\u4f9d\u5e02\u5c45\u7136\u4e4b\u5bb6", "address": "\u4e4c\u9c81\u6728\u9f50\u514b\u62c9\u739b\u4f9d\u5e02\u80dc\u5229\u8def26\u53f7\u5c45\u7136\u4e4b\u5bb61\u53f7\u99861\u697c11\u53f7", "phone_number": "0990-7558211"}, {"latitude": 43.870996, "longitude": 87.588697, "name": "\u7f8e\u5c45\u7269\u6d41\u56ed", "address": "\u4e4c\u9c81\u6728\u9f50\u7f8e\u5c45\u7269\u6d41\u56edB\u5ea7\u4e00\u5c42", "phone_number": "0991-6646444"}, {"latitude": 35.311797, "longitude": 113.956865, "name": "\u65b0\u4e61\u7ea2\u661f\u7f8e\u51ef\u9f99", "address": "\u65b0\u4e61\u5e02\u5e73\u539f\u8def\u65b0\u4e03\u8857\u7ea2\u661f\u7f8e\u51ef\u9f99\u8d1f\u4e00\u697c", "phone_number": "0373-6328866"}, {"latitude": 38.463996, "longitude": 106.308257, "name": "\u6708\u661f\u5bb6\u5c45", "address": "\u94f6\u5ddd\u5e02\u5174\u5e86\u533a\u65b0\u534e\u4e1c\u8857\u6708\u661f\u5bb6\u5c45AA010", "phone_number": "0951-5195703"}, {"latitude": 34.314289, "longitude": 108.978625, "name": "\u897f\u5b89\u5927\u660e\u5bab\u94bb\u77f3\u5e97", "address": "\u897f\u5b89\u5e02\u592a\u534e\u8def\u5317\u5927\u660e\u5bab\u94bb\u77f3\u5e971\u697cC\u533a06\u53f7", "phone_number": "029-88119950"}, {"latitude": 34.201245, "longitude": 108.969837, "name": "\u66f2\u6c5f\u5e97", "address": "\u9655\u897f\u7701\u897f\u5b89\u5e02\u66f2\u6c5f\u65b0\u533a\u96c1\u5854\u5357\u8def\u7d2b\u8587\u6c38\u548c\u574a\u4e1c\u95e8\u4e34\u8857\u5546\u94fa\"\u5927\u5b85\u4f1a\u6240\u201d,\uff08\u519c\u884c\u5357200\u7c73\uff09 IMOLA\u9676\u74f7", "phone_number": "029-85365582"}, {"latitude": 40.065479, "longitude": 113.309151, "name": "\u5927\u540c\u73ab\u7470\u82b1\u90fd\u5e97", "address": "\u5927\u540c\u5e02\u6c38\u6cf0\u5357\u8def\u73ab\u7470\u82b1\u90fd\u5916\u56f46\u53f7\u5546\u94fa", "phone_number": "0352-2991833"}, {"latitude": 40.067292, "longitude": 113.310141, "name": "\u5927\u540c\u5c45\u7136\u4e4b\u5bb6\u8fdb\u53e3\u9986\u5e97", "address": "\u5927\u540c\u5e02\u6c38\u6cf0\u5357\u8def\u5c45\u7136\u4e4b\u5bb6\u8fdb\u53e3\u9986\u5916\u56f4", "phone_number": "0352-2079333"}, {"latitude": 31.466298, "longitude": 104.656866, "name": "\u7ef5\u9633\u9ad8\u65b0\u5b9c\u5bb6\u7f8e\u5e97", "address": "\u7ef5\u9633\u5e02\u6c38\u5174\u9547\u7ef5\u5174\u4e2d\u8def195\u53f7\u5b9c\u5bb6\u7f8e\u56fd\u9645\u5bb6\u5c45\u5e7f\u573a\u8d1f\u4e00\u697c", "phone_number": "0816-2765388"}, {"latitude": 35.081733, "longitude": 111.030795, "name": "\u5c45\u7136\u4e4b\u5bb6\u5e97", "address": "\u5c71\u897f\u8fd0\u57ce\u79b9\u90fd\u5f00\u53d1\u533a\u5c45\u7136\u4e4b\u5bb61\u697c1063", "phone_number": "0369-2584888"}, {"latitude": 36.221692, "longitude": 113.133071, "name": "\u5c45\u7136\u4e4b\u5bb6\u5e97", "address": "\u957f\u6cbb\u5e02\u82f1\u96c4\u5317\u8def198#\u5c45\u7136\u4e4b\u5bb6\u4e00\u5c42\u4e2d\u5385", "phone_number": "0355-3069060"}, {"latitude": 37.865302, "longitude": 112.487408, "name": "\u5c45\u7136\u4e4b\u5bb6\u5e97", "address": "\u5c71\u897f\u7701\u592a\u539f\u5e02\u8fce\u6cfd\u897f\u5927\u8857\u5c45\u7136\u4e4b\u5bb6\u88c5\u9970\u6750\u6599\u99862019\u53f7", "phone_number": "0351-6566607"}, {"latitude": 26.565152, "longitude": 106.73914, "name": "\u7ea2\u661f\u7f8e\u51ef\u9f99\u5e97", "address": "\u8d35\u5dde\u7701\u8d35\u9633\u5e02\u5357\u660e\u533a\u7ea2\u661f\u7f8e\u51ef\u9f99\u4e8c\u671f\u4e00\u697cA2-8107", "phone_number": "0851-5527555"}, {"latitude": 25.000479, "longitude": 102.69017, "name": "\u6606\u660e\u7ea2\u661f\u7f8e\u51ef\u9f99\u5e97", "address": "\u6606\u660e\u5e02\u5e7f\u798f\u8def318\u53f7\u7ea2\u661f\u7f8e\u51ef\u9f99\u4e00\u697cA8203-1/3", "phone_number": "0871-64607680"}, {"latitude": 24.988708, "longitude": 102.713838, "name": "\u6606\u660e\u5927\u5546\u6c47\u5efa\u6750\u57ce", "address": "\u6606\u660e\u5e02\u5927\u5546\u6c47\u9676\u74f7\u57ceA\u533a13\u680b1\u53f7", "phone_number": "0871-63928188"}, {"latitude": 40.689655, "longitude": 109.857543, "name": "\u5c45\u7136\u4e4b\u5bb6", "address": "\u5305\u5934\u6c11\u65cf\u4e1c\u8def\u5c45\u7136\u4e4b\u5bb6\u4e00\u697c1-1-013IMOLA\u9676\u74f7", "phone_number": "0472-2983977"}, {"latitude": 40.844108, "longitude": 111.700611, "name": "\u547c\u548c\u6d69\u7279\u5c45\u7136\u4e4b\u5bb6", "address": "\u547c\u548c\u6d69\u7279\u5e02\u65b0\u57ce\u533a\u4e1c\u5e93\u8857\u5c45\u7136\u4e4b\u5bb6\u4e8c\u697c1-2-002", "phone_number": "0471-2850296"}, {"latitude": 28.018605, "longitude": 120.642663, "name": "\u6e29\u5dde\u9676\u74f7\u54c1\u5e02\u573a", "address": "\u6e29\u5dde\u5e02\u9e7f\u57ce\u533a\u632f\u74ef\u8def\u91d1\u5c71\u5927\u697c4\u5e621\u53f7\uff08\u9e7f\u57ce\u8def\u9676\u74f7\u54c1\u5e02\u573a\u5185\uff09", "phone_number": "0577-88728111"}, {"latitude": 28.643957, "longitude": 121.431402, "name": "\u53f0\u5dde\u540d\u5178\u56fd\u9645", "address": "\u53f0\u5dde\u5e02\u6912\u6c5f\u533a\u5f00\u53d1\u5927\u9053630\u53f7", "phone_number": "0576-88677888"}, {"latitude": 28.615485, "longitude": 121.412171, "name": "\u53f0\u5dde\u7ea2\u661f\u7f8e\u51ef\u9f992\u5e97", "address": "\u53f0\u5dde\u5e02\u6912\u6c5f\u6d2a\u5bb6\u7ea2\u661f\u7f8e\u51ef\u9f99", "phone_number": "0576-89815666"}, {"latitude": 29.091447, "longitude": 119.707596, "name": "\u91d1\u534e\u65b0\u6d59\u4e2d\u5efa\u6750\u5e02\u573a", "address": "\u91d1\u534e\u5e02\u91d1\u4e1c\u533a\u65b0\u6d59\u4e2d\u5efa\u6750\u5e02\u573aA\u533a3\u53f7", "phone_number": "0579-82985633"}, {"latitude": 29.302438, "longitude": 120.026174, "name": "\u4e49\u4e4c\u9f99\u56de\u56fd\u9645\u5bb6\u5c45\u57ce\u5e97", "address": "\u4e49\u4e4c\u5e02\u9f99\u56de\u56fd\u9645\u5bb6\u5177\u57ce\u5e97\u4e8c\u533a\u4e00\u697cE1-3\u53f7\uff0810\u53f7\u95e8\u8fdb\uff09", "phone_number": "0579-81589050"}, {"latitude": 29.84583, "longitude": 121.601851, "name": "\u5b81\u6ce2\u7ea2\u661f\u7f8e\u51ef\u9f99", "address": "\u5b81\u6ce2\u5e02\u911e\u5dde\u533a\u7ea2\u661f\u7f8e\u51ef\u9f99\u9676\u74f7\u7cbe\u54c1\u8857\u4e8c\u697cB8051", "phone_number": "15958810842"}, {"latitude": 30.172836, "longitude": 121.311515, "name": "\u6148\u6eaa\u7ea2\u661f\u7f8e\u51ef\u9f99", "address": "\u6148\u6eaa\u5e02\u4e09\u5317\u4e1c\u5927\u8857\u7ea2\u661f\u7f8e\u51ef\u9f99\u4e8c\u697cB8118", "phone_number": "0574-63795255"}, {"latitude": 30.202396, "longitude": 120.195805, "name": "\u676d\u5dde\u5927\u90fd\u6c47", "address": "\u676d\u5dde\u5e02\u6ee8\u6c5f\u533a\u7b2c\u516d\u7a7a\u95f4\u5927\u90fd\u4f1a\u56fd\u9645\u5efa\u6750\u9986C1-17", "phone_number": "0571-86081711"}, {"latitude": 30.320568, "longitude": 120.103063, "name": "\u65b0\u65f6\u4ee3\u5bb6\u5c45\u751f\u6d3b\u5e7f\u573a", "address": "\u53e4\u58a9\u8def808\u53f7\u65b0\u65f6\u4ee3\u5bb6\u5c45\u751f\u6d3b\u5e7f\u573aE\u5ea71\u697c10\u53f7", "phone_number": "0571-88101995"}, {"latitude": 30.782584, "longitude": 120.748457, "name": "\u5609\u5174\u5efa\u6750\u9676\u74f7\u54c1\u5e02\u573a", "address": "\u5609\u5174\u5e02\u5357\u6e56\u533a\u5e02\u573a\u8def631\u53f7\u5609\u5174\u5efa\u9676\u5e02\u573a\u4e09\u697c", "phone_number": "0573-82758477"}, {"latitude": 30.504032, "longitude": 120.713263, "name": "\u6d77\u5b81\u6c38\u660e\u56fd\u9645\u5efa\u6750", "address": "\u6d77\u5b81\u5e02\u519c\u4e30\u8def455\u53f7\u6c38\u660e\u56fd\u9645\u5efa\u6750\u4e8c\u697c", "phone_number": "0573-87216818"}, {"latitude": 30.846294, "longitude": 120.080755, "name": "\u7ea2\u661f\u7f8e\u51ef\u9f99", "address": "\u6e56\u5dde\u5e02\u4e8c\u73af\u897f\u8def\u7ea2\u661f\u7f8e\u51ef\u9f99\u5168\u7403\u5bb6\u5c45\u751f\u6d3b\u5e7f\u573a", "phone_number": "0572-2710290"}, {"latitude": 29.758983, "longitude": 120.265413, "name": "\u57f9\u82d7\u88c5\u9970", "address": "\u6d59\u6c5f\u7701\u8bf8\u66a8\u5e02\u80b2\u82f1\u8def98\u53f7\uff08\u5927\u5b66\u57ce\u4e1c\u95e8\u5bf9\u9762\uff09 \u57f9\u82d7\u56fd\u9645\u5bb6\u5c45\u88c5\u9970\u5e7f\u573a", "phone_number": "0575-87323371"}, {"latitude": 30.026723, "longitude": 120.577016, "name": "\u7ea2\u661f\u7f8e\u51ef\u9f99", "address": "\u7ecd\u5174\u5e02\u4e8c\u73af\u5317\u8def80\u53f7\u7ea2\u661f\u7f8e\u51ef\u9f99\u4e8c\u697c", "phone_number": "0575-85353209"}, {"latitude": 29.981418, "longitude": 122.234118, "name": "\u821f\u5c71\u7ea2\u661f\u7f8e\u51ef\u9f99", "address": "\u821f\u5c71\u5e02\u4e34\u57ce\u65b0\u533a\u7ea2\u661f\u7f8e\u51ef\u9f99\u4e00\u697cA8003", "phone_number": "0580-2166585"}, {"latitude": 31.822583, "longitude": 117.245496, "name": "\u7ea2\u661f\u7f8e\u51ef\u9f99", "address": "\u5408\u80a5\u5357\u4e8c\u73af\u4e0e\u6f5c\u5c71\u8def\u4ea4\u53c9\u53e3\u653f\u52a1\u533a\u7ea2\u661f\u7f8e\u51ef\u9f99\u8d1f\u4e00\u697c\u4e2d\u5385", "phone_number": "0553-63521193"}, {"latitude": 31.983343, "longitude": 120.259096, "name": "\u6708\u661f\u5bb6\u5c45", "address": "\u9756\u6c5f\u6708\u661f\u56fd\u9645\u5efa\u6750\u5bb6\u5c45\u6e2fA021", "phone_number": "0523-84123000"}, {"latitude": 31.59152, "longitude": 120.347298, "name": "\u534e\u53a6\u5bb6\u5c45\u6e2f", "address": "\u65e0\u9521\u5e02\u5d07\u5b89\u533a\u9521\u6caa\u4e1c\u8def1\u53f7\u534e\u53a6\u5bb6\u5c45\u6e2f\u4e00\u697cA070", "phone_number": "0510-88881128"}, {"latitude": 31.499347, "longitude": 120.295631, "name": "\u6ee8\u6e56\u7ea2\u661f\u7f8e\u51ef\u9f99", "address": "\u65e0\u9521\u5e02\u4e94\u6e56\u5927\u9053116\u53f7\u7ea2\u661f\u7f8e\u51ef\u9f99\u4e00\u697c\u56fd\u9645\u9986", "phone_number": "0510-88250893"}, {"latitude": 31.913817, "longitude": 120.381079, "name": "\u7eee\u5c71\u8def\u5e97", "address": "\u6c5f\u9634\u5e02\u7eee\u5c71\u8def296\u53f7", "phone_number": "0510\u4e0086038560"}, {"latitude": 31.273085, "longitude": 120.584532, "name": "\u7ea2\u661f\u7f8e\u51ef\u9f99", "address": "\u82cf\u5dde\u5e02\u9ad8\u65b0\u533a\u6a2a\u746d\u7ea2\u661f\u7f8e\u51ef\u9f99\u4e00\u697c", "phone_number": "0512-62398545"}, {"latitude": 31.365388, "longitude": 119.84655, "name": "\u5b9c\u5174\u72ec\u7acb\u5e97", "address": "\u65e0\u9521\u5e02\u5b9c\u5174\u5e02\u5b9c\u57ce\u8857\u9053\u4e34\u6eaa\u8def18\u53f7", "phone_number": "0510-81781981"}, {"latitude": 33.349705, "longitude": 120.158611, "name": "\u76d0\u57ce\u7ea2\u661f\u7f8e\u51ef\u9f99", "address": "\u76d0\u57ce\u5e02\u4e16\u7eaa\u5927\u9053165\u53f7\u7ea2\u661f\u7f8e\u51ef\u9f99\u4e8c\u671f\u4e00\u697cIMOLA\u9676\u74f7", "phone_number": "0515-87010717"}, {"latitude": 31.667529, "longitude": 118.512587, "name": "\u7ea2\u661f\u7f8e\u51ef\u9f99", "address": "\u9a6c\u978d\u5c71\u5e02\u96e8\u5c71\u533a\u96e8\u5c71\u8def\u7ea2\u661f\u7f8e\u51ef\u9f99\u897f\u5385\u4e8c\u697c\u7535\u68af\u6276\u624b\u65c1", "phone_number": "0555-2316666"}, {"latitude": 31.374041, "longitude": 118.404575, "name": "\u829c\u6e56\u5c45\u7136\u4e4b\u5bb6", "address": "\u829c\u6e56\u5e02\u5c45\u7136\u4e4b\u5bb6\u5efa\u6750\u9986\u4e00\u53f7\u72ec\u7acb\u5e97", "phone_number": "0553-2960998"}, {"latitude": 32.374427, "longitude": 119.39469, "name": "\u626c\u5dde\u7ea2\u661f\u7f8e\u51ef\u9f99", "address": "\u626c\u5dde\u5e02\u848b\u738b\u9547\u7ea2\u65d7\u5927\u88571\u53f7\u7ea2\u661f\u7f8e\u51ef\u9f99A\u5ea72\u697c", "phone_number": "0514-87942126"}, {"latitude": 32.046661, "longitude": 120.858057, "name": "\u5357\u901a\u767e\u5b89\u8c0a\u5bb6", "address": "\u5357\u901a\u5e02\u6e2f\u95f8\u533a\u6fe0\u897f\u8def288\u53f7\u767e\u5b89\u8c0a\u5bb6\u56fd\u9645\u9986A016(\u8d1f\u4e00\u697c)", "phone_number": "0513-81510670"}, {"latitude": 34.257963, "longitude": 117.231709, "name": "\u5f90\u5dde\u5347\u8f89\u88c5\u9970\u57ce", "address": "\u6c5f\u82cf\u7701\u5f90\u5dde\u5e02\u4e91\u9f99\u533a\u4e09\u73af\u4e1c\u8def\u5347\u8f89\u88c5\u9970\u57ce\u65b0\u4e03\u5385\u4e00\u697c", "phone_number": "0516-83566867"}, {"latitude": 31.836441, "longitude": 120.553357, "name": "\u4fdd\u610f\u5efa\u6750\u57ce", "address": "\u6c5f\u82cf\u7701\u5f20\u5bb6\u6e2f\u5e02\u4e5d\u5dde\u88c5\u9970\u57ce\u5357\u9996 \u4fdd\u610f\u5efa\u6750\u57ce\u6709\u9650\u516c\u53f8", "phone_number": "0512-56991618"}, {"latitude": 33.59659, "longitude": 119.004941, "name": "\u9526\u7ee3\u56fd\u9645\u88c5\u9970\u57ce", "address": "\u6dee\u5b89\u5e02\u6e05\u6cb3\u533a\u897f\u5b89\u8def48\u53f7\u9526\u7ee3\u56fd\u9645\u88c5\u9970\u57ce\u4e8c\u671f\u4e00\u697c\u4e2d\u5385", "phone_number": "0517-83902988"}, {"latitude": 32.422735, "longitude": 120.56618, "name": "\u7ea2\u661f\u7f8e\u51ef\u9f99", "address": "\u6c5f\u82cf\u7701\u5982\u768b\u5e02\u6d77\u6d0b\u5317\u8def469\u53f7\u7ea2\u661f\u7f8e\u51ef\u9f991\u697c1\u53f7", "phone_number": "0513-87816988"}, {"latitude": 31.794639, "longitude": 119.989347, "name": "\u5e38\u5dde\u7ea2\u661f\u7f8e\u51ef\u9f99", "address": "\u5e38\u5dde\u98de\u9f99\u4e1c\u8def72\u53f7\u7ea2\u661f\u5bb6\u4e16\u754c\u4e00\u697c8068-80", "phone_number": "0519-85358028"}, {"latitude": 31.994621, "longitude": 118.806415, "name": "\u5361\u5b50\u95e8\u7ea2\u661f\u7f8e\u51ef\u9f99", "address": "\u5357\u4eac\u5e02\u79e6\u6dee\u533a\u5361\u5b50\u95e8\u5927\u885729\u53f7\u7ea2\u661f\u7f8e\u51ef\u9f99\u4e00\u697c\u5357\u5385\u8fdb\u53e3\u533a", "phone_number": "025-83361668\u202c"}, {"latitude": 32.015054, "longitude": 118.741852, "name": "\u6b27\u6d32\u57ce\u7ea2\u661f\u7f8e\u51ef\u9f99", "address": "\u5357\u4eac\u5e02\u5efa\u90ba\u533a\u68a6\u90fd\u5927\u885780\u53f7\u7ea2\u661f\u7f8e\u51ef\u9f99\u81f3\u5c0amall\u76846\u53f7\u697c2\u697c8008", "phone_number": "025-85622909"}, {"latitude": 40.228383, "longitude": 122.141875, "name": "\u8425\u53e3\u7ea2\u661f\u7f8e\u51ef\u9f99", "address": "\u8425\u53e3\u5e02\u9c85\u9c7c\u5708\u533a\u7ea2\u661f\u7f8e\u51ef\u9f99\u4e00\u53e3\u5357\u95e8", "phone_number": "0417-6787022"}, {"latitude": 25.454276, "longitude": 119.031445, "name": "\u8386\u7530\u7ea2\u661f\u7f8e\u51ef\u9f99", "address": "\u8386\u7530\u5e02\u8354\u57ce\u533a\u4e1c\u5733\u8def\u7ea2\u661f\u7f8e\u51ef\u9f99\u4e8c\u697cB8115-B8116", "phone_number": "0594-2735580"}, {"latitude": 34.413134, "longitude": 115.663797, "name": "\u5546\u4e18\u5e97", "address": "\u5546\u4e18\u5e02\u4e2d\u610f\u5efa\u6750\u5e02\u573a\u5317\u5927\u95e8\u897f\u4fa7", "phone_number": "0370-2579888"}, {"latitude": 28.103058, "longitude": 120.975823, "name": "\u4e50\u6e05\u94f6\u6765\u5927\u53a6", "address": "\u4e50\u6e05\u5e02\u7ecf\u8d38\u5e7f\u573a \u94f6\u6765\u5927\u53a6B\u5e621-2\u697c\uff08\u5343\u5e06\u897f\u8def\u4e0e\u4e39\u971e\u8def\u4ea4\u53c9\u53e3\uff09", "phone_number": "0577-61537088 0577-61539088"}, {"latitude": 29.292953, "longitude": 120.211097, "name": "\u4e1c\u9633\u56fd\u9645\u5efa\u6750\u57ce", "address": "\u4e1c\u9633\u56fd\u9645\u5efa\u6750\u57ceB9-110", "phone_number": "0579-86662679"}, {"latitude": 32.196323, "longitude": 119.998659, "name": "\u6cf0\u5174\u7ea2\u661f\u7f8e\u51ef\u9f99", "address": "\u6cf0\u5174\u5e02\u5e38\u6cf0\u8def9\u53f7\u7ea2\u661f\u7f8e\u51ef\u9f99", "phone_number": "0523-87885858"}, {"latitude": 31.651886, "longitude": 120.802823, "name": "\u5e38\u719f\u91d1\u5bb6\u56ed\u5efa\u6750\u5e02\u573a", "address": "\u5e38\u719f\u5e02\u88c5\u9970\u5efa\u6750\u5e02\u573a\u4e00\u533a11\u5e6201\u4e0004\u53f7\u91d1\u5bb6\u56ed\u5efa\u9676\u5bb6\u5c45\u5e7f\u573a", "phone_number": "0512\u4e0052344388"}, {"latitude": 34.582339, "longitude": 119.218738, "name": "\u8fde\u4e91\u6e2f\u5174\u9686\u88c5\u9970", "address": "\u8fde\u4e91\u6e2f\u5e02\u6d77\u5dde\u533a\u701b\u6d32\u5357\u8def1\u53f7\u5174\u9686\u88c5\u9970\u57ce3\u53f7\u697c\u4e00\u5c427-10\u53f7", "phone_number": "18136572968"}, {"latitude": 31.822041, "longitude": 117.246408, "name": "\u5408\u80a5\u7ea2\u661f\u7f8e\u51ef\u9f99", "address": "\u5408\u80a5\u56db\u91cc\u6cb3\u8def\u4e0e\u6f5c\u5c71\u8def\u4ea4\u53e3\u7ea2\u661f\u7f8e\u51ef\u9f99\u4e8c\u697c", "phone_number": "0551-62895266"}, {"latitude": 30.314758, "longitude": 109.500999, "name": "\u6069\u65bd\u7ea2\u661f\u5e97", "address": "\u6069\u65bd\u571f\u5bb6\u65cf\u82d7\u65cf\u81ea\u6cbb\u5dde\u6069\u65bd\u5e02\u91d1\u6842\u5927\u9053\u7ea2\u661f\u7f8e\u51ef\u9f99\u5bb6\u5c45\u5e7f\u573a\u8d1f\u4e00\u5c42\u4e2d\u5385", "phone_number": "0718-8716156"}]