[{"title": "松溪-易贤良", "address": "福建南平松溪枣园巷16号", "jindu": "118.790523", "weidu": "27.535418", "address2": "地址：福建南平松溪枣园巷16号", "phone_number": "13328619522", "longitude": "118.790523", "latitude": "27.535418"}, {"title": "上杭-郭文生", "address": "福建龙岩上杭振兴路163号", "jindu": "116.429997", "weidu": "25.059993", "address2": "地址：福建龙岩上杭振兴路163号", "phone_number": "13062205788", "longitude": "116.429997", "latitude": "25.059993"}, {"title": "仙游-蒋爱军", "address": "仙游县天怡财富城书院南街259号", "jindu": "118.710636", "weidu": "25.352632", "address2": "地址：仙游县天怡财富城书院南街259号", "phone_number": "13860909908", "longitude": "118.710636", "latitude": "25.352632"}, {"title": "漳浦-柯黎", "address": "福建省漳浦县长德商贸城7幢28号", "jindu": "117.649552", "weidu": "24.110695", "address2": "地址：福建省漳浦县长德商贸城7幢28号", "phone_number": "15059611886", "longitude": "117.649552", "latitude": "24.110695"}, {"title": "福清-许德煊", "address": "福建省福清市福塘路清辉小区36号科翔壁纸店", "jindu": "119.544293", "weidu": "26.216886", "address2": "地址：福建省福清市福塘路清辉小区36号科翔壁纸店", "phone_number": "13906918271", "longitude": "119.544293", "latitude": "26.216886"}, {"title": "福鼎-潘其晃", "address": "福建省福鼎市太姥大道291-293", "jindu": "120.222321", "weidu": "27.317769", "address2": "地址：福建省福鼎市太姥大道291-293", "phone_number": "13062177281（18559358060）", "longitude": "120.222321", "latitude": "27.317769"}, {"title": "吉林-岳宏福", "address": "吉林省吉林市江湾路森鼎家居购物广场A座二楼C区21号展位", "jindu": "126.5830120000", "weidu": "43.8471200000", "address2": "地址：吉林省吉林市江湾路森鼎家居购物广场A座二楼C区21号展位", "phone_number": "13944621122", "longitude": "126.5830120000", "latitude": "43.8471200000"}, {"title": "海伦-尤道雅", "address": "黑龙江省海伦市南二道街雷炎小学西侧科翔壁纸", "jindu": "126.965161", "weidu": "47.463655", "address2": "地址：黑龙江省海伦市南二道街雷炎小学西侧科翔壁纸", "phone_number": "13945551529", "longitude": "126.965161", "latitude": "47.463655"}, {"title": "道外区-黄彦芳", "address": "哈尔滨市道外区中马路副66-2号", "jindu": "126.641651", "weidu": "45.78137", "address2": "地址：哈尔滨市道外区中马路副66-2号", "phone_number": "18946082416", "longitude": "126.641651", "latitude": "45.78137"}, {"title": "道里区-于磊", "address": "黑龙江省哈尔滨市道里区顾新路98号新大发品牌装饰材料城AA2-02号", "jindu": "126.6092680000", "weidu": "45.7424390000", "address2": "地址：黑龙江省哈尔滨市道里区顾新路98号新大发品牌装饰材料城AA2-02号", "phone_number": "15663639098", "longitude": "126.6092680000", "latitude": "45.7424390000"}, {"title": "上海-游守源", "address": "上海市宝山区沪太路4332号C区3260", "jindu": "121.404518", "weidu": "31.346581", "address2": "地址：上海市宝山区沪太路4332号C区3260", "phone_number": "13761319025", "longitude": "121.404518", "latitude": "31.346581"}, {"title": "上海-李孝成", "address": "上海川南奉公路6155号", "jindu": "121.783944", "weidu": "31.033199", "address2": "地址：上海川南奉公路6155号", "phone_number": "13052092899", "longitude": "121.783944", "latitude": "31.033199"}, {"title": "青浦-丁丽", "address": "上海市青浦区嘉松中路4451弄九星建材市场8号3幢225（二楼墙纸区）", "jindu": "121.229556", "weidu": "31.194177", "address2": "地址：上海市青浦区嘉松中路4451弄九星建材市场8号3幢225（二楼墙纸区）", "phone_number": "17321391706 ", "longitude": "121.229556", "latitude": "31.194177"}, {"title": "宝山-王应旺", "address": "上海市宝山区宝杨路2231号美饰家建材市场M区6号", "jindu": "121.460695", "weidu": "31.389017", "address2": "地址：上海市宝山区宝杨路2231号美饰家建材市场M区6号", "phone_number": "15921218443", "longitude": "121.460695", "latitude": "31.389017"}, {"title": "崇明-李国梁", "address": "上海市崇明县利民路220号（和谐家居建材市场B区8-9号", "jindu": "121.4058320000", "weidu": "31.6508320000", "address2": "地址：上海市崇明县利民路220号（和谐家居建材市场B区8-9号", "phone_number": "021-69629312", "longitude": "121.4058320000", "latitude": "31.6508320000"}, {"title": "浦东-袁晓梅", "address": "上海市浦东新区南六公路699弄2支弄3幢188-189号", "jindu": "121.7140730000", "weidu": "31.0784700000", "address2": "地址：上海市浦东新区南六公路699弄2支弄3幢188-189号", "phone_number": "021-68246317", "longitude": "121.7140730000", "latitude": "31.0784700000"}, {"title": "连云港-李秀", "address": "江苏省连云港市赣榆区，青口镇奥邦建材市场18号楼112-117", "jindu": "119.110839", "weidu": "34.834212", "address2": "地址：江苏省连云港市赣榆区，青口镇奥邦建材市场18号楼112-117", "phone_number": "18121616781、18361846913", "longitude": "119.110839", "latitude": "34.834212"}, {"title": "沛县-张颖", "address": "江苏徐州沛县金凤凰装饰城17号2-3厅", "jindu": "116.930842", "weidu": "34.755518", "address2": "地址：江苏徐州沛县金凤凰装饰城17号2-3厅", "phone_number": "18251619988", "longitude": "116.930842", "latitude": "34.755518"}, {"title": "扬州张斌", "address": "江苏省扬州市红星美凯龙A座四楼墙纸区", "jindu": "119.393779", "weidu": "32.373778", "address2": "地址：江苏省扬州市红星美凯龙A座四楼墙纸区", "phone_number": "13773555345", "longitude": "119.393779", "latitude": "32.373778"}, {"title": "板桥-王芳", "address": "江苏省南京市板桥红太阳B8区1栋3楼121号", "jindu": "118.677017", "weidu": "31.945669", "address2": "地址：江苏省南京市板桥红太阳B8区1栋3楼121号", "phone_number": "13675194081", "longitude": "118.677017", "latitude": "31.945669"}, {"title": "高淳-傅朝敏", "address": "江苏省南京市高淳县淳溪镇北岭路29路02幢-2", "jindu": "118.892091", "weidu": "31.338937", "address2": "地址：江苏省南京市高淳县淳溪镇北岭路29路02幢-2", "phone_number": "13851471110", "longitude": "118.892091", "latitude": "31.338937"}, {"title": "溧水-甘小清", "address": "江苏省南京市溧水青年路顾家欧亚达10号楼", "jindu": "119.051362", "weidu": "31.657923", "address2": "地址：江苏省南京市溧水青年路顾家欧亚达10号楼", "phone_number": "13770801270", "longitude": "119.051362", "latitude": "31.657923"}, {"title": "盐城-陆辉", "address": "江苏省盐城市大丰区人民北路57号欧蓓莎家居建材广场二楼东首", "jindu": "120.467205", "weidu": "33.217291", "address2": "地址：江苏省盐城市大丰区人民北路57号欧蓓莎家居建材广场二楼东首", "phone_number": "15365703850", "longitude": "120.467205", "latitude": "33.217291"}, {"title": "徐州-孙诚", "address": "江苏省徐州市红星美凯龙三期建材广场19-1号", "jindu": "120.576687", "weidu": "30.028278", "address2": "地址：江苏省徐州市红星美凯龙三期建材广场19-1号", "phone_number": "18952117081", "longitude": "120.576687", "latitude": "30.028278"}, {"title": "海安-许旭惠", "address": "江苏省海安市东洲国际商贸城", "jindu": "120.488171", "weidu": "32.562385", "address2": "地址：江苏省海安市东洲国际商贸城", "phone_number": "15162700807", "longitude": "120.488171", "latitude": "32.562385"}, {"title": "仪征-刘学峰", "address": "江苏省仪征市金阳光帝业城建材馆三楼", "jindu": "112.435245", "weidu": "34.661285", "address2": "地址：江苏省仪征市金阳光帝业城建材馆三楼", "phone_number": "18083761520", "longitude": "112.435245", "latitude": "34.661285"}, {"title": "淮安-唐善进", "address": "江苏省洪泽县东十道苏源九号门面房", "jindu": "118.873211", "weidu": "33.296429", "address2": "地址：江苏省洪泽县东十道苏源九号门面房", "phone_number": "13852361308", "longitude": "118.873211", "latitude": "33.296429"}, {"title": "泗阳-丁玉荣", "address": "江苏省泗阳县格林贝斯B区五楼   科翔壁纸", "jindu": "118.721416", "weidu": "33.715585", "address2": "地址：江苏省泗阳县格林贝斯B区五楼   科翔壁纸", "phone_number": "0527-89687019", "longitude": "118.721416", "latitude": "33.715585"}, {"title": "溧阳市-唐治尊", "address": "江苏省溧阳市边界市场D区二楼1号", "jindu": "119.505461", "weidu": "31.427322", "address2": "地址：江苏省溧阳市边界市场D区二楼1号", "phone_number": "13961170080", "longitude": "119.505461", "latitude": "31.427322"}, {"title": "淮安-石海燕", "address": "江苏省淮安锦绣二期4楼4077", "jindu": "119.005577", "weidu": "33.598119", "address2": "地址：江苏省淮安锦绣二期4楼4077", "phone_number": "0517-89336618", "longitude": "119.005577", "latitude": "33.598119"}, {"title": "宝应-王均连", "address": "江苏省宝应县安宜东路280号，科翔壁纸", "jindu": "119.353702", "weidu": "33.244102", "address2": "地址：江苏省宝应县安宜东路280号，科翔壁纸", "phone_number": "0514-88982880", "longitude": "119.353702", "latitude": "33.244102"}, {"title": "震泽-周伟祥", "address": "江苏省吴江市震泽镇震新南路988号迈拓家居广场", "jindu": "120.521808", "weidu": "30.912807", "address2": "地址：江苏省吴江市震泽镇震新南路988号迈拓家居广场", "phone_number": "0512-63772668", "longitude": "120.521808", "latitude": "30.912807"}, {"title": "盖州-王丹", "address": "辽宁省盖州市二线交通岗南200米", "jindu": "122.361788", "weidu": "40.407297", "address2": "地址：辽宁省盖州市二线交通岗南200米", "phone_number": "13841783366", "longitude": "122.361788", "latitude": "40.407297"}, {"title": "旅顺-金恒", "address": "辽宁省大连市旅顺开发区隆腾五金建材批发市场", "jindu": "121.159656", "weidu": "38.784242", "address2": "地址：辽宁省大连市旅顺开发区隆腾五金建材批发市场", "phone_number": "15640993359", "longitude": "121.159656", "latitude": "38.784242"}, {"title": "台安-冯晓慧", "address": "辽宁省鞍山市台安县党校北50米", "jindu": "122.445122", "weidu": "41.391034", "address2": "地址：辽宁省鞍山市台安县党校北50米", "phone_number": "13464347345", "longitude": "122.445122", "latitude": "41.391034"}, {"title": "盘锦-黄晓娟", "address": "辽宁省盘锦市兴隆台乔家汇美南门", "jindu": "122.069552", "weidu": "41.149173", "address2": "地址：辽宁省盘锦市兴隆台乔家汇美南门", "phone_number": "15542796366", "longitude": "122.069552", "latitude": "41.149173"}, {"title": "大连-都玮", "address": "辽宁省大连市沙河口区幸福家居一楼底商", "jindu": "121.585173", "weidu": "38.911037", "address2": "地址：辽宁省大连市沙河口区幸福家居一楼底商", "phone_number": "13840836155", "longitude": "121.585173", "latitude": "38.911037"}, {"title": "凌源-吕文红", "address": "辽宁省凌源市北街浩天2号门市", "jindu": "119.064678", "weidu": "41.036167", "address2": "地址：辽宁省凌源市北街浩天2号门市", "phone_number": "15566642717", "longitude": "119.064678", "latitude": "41.036167"}, {"title": "东港-何崇凯", "address": "辽宁省东港市医药公司南行30米科翔壁纸", "jindu": "124.154582", "weidu": "39.884135", "address2": "地址：辽宁省东港市医药公司南行30米科翔壁纸", "phone_number": "15114135835", "longitude": "124.154582", "latitude": "39.884135"}, {"title": "沈阳-宋颖", "address": "辽宁省沈阳市维华家具城一楼1B-35", "jindu": "123.366845", "weidu": "41.796457", "address2": "地址：辽宁省沈阳市维华家具城一楼1B-35", "phone_number": "18840048056", "longitude": "123.366845", "latitude": "41.796457"}, {"title": "本溪-马平", "address": "辽宁省本溪市消防明兴一号楼门市", "jindu": "123.782760", "weidu": "41.306056", "address2": "地址：辽宁省本溪市消防明兴一号楼门市", "phone_number": "13941455623", "longitude": "123.782760", "latitude": "41.306056"}, {"title": "应山-邓珍", "address": "湖北省随州市应山西门大帮路卡美姿3d墙艺", "jindu": "113.828432", "weidu": "31.621337", "address2": "地址：湖北省随州市应山西门大帮路卡美姿3d墙艺", "phone_number": "15377298686", "longitude": "113.828432", "latitude": "31.621337"}, {"title": "随州-凡繁", "address": "湖北省随州市红星国际广场大二层10街34A――36A", "jindu": "113.413209", "weidu": "31.723532", "address2": "地址：湖北省随州市红星国际广场大二层10街34A――36A", "phone_number": "18672226799", "longitude": "113.413209", "latitude": "31.723532"}, {"title": "枣阳-朱林峰", "address": "湖北省枣阳市书香苑中段科翔软装馆 ", "jindu": "112.767687", "weidu": "32.131357", "address2": "地址：湖北省枣阳市书香苑中段科翔软装馆 ", "phone_number": "13635800823", "longitude": "112.767687", "latitude": "32.131357"}, {"title": "团风-童金枝", "address": "湖北省黄冈市团风县钢材大市场", "jindu": "114.891943", "weidu": "30.646626", "address2": "地址：湖北省黄冈市团风县钢材大市场", "phone_number": "13409861758", "longitude": "114.891943", "latitude": "30.646626"}, {"title": "房县-栗保红", "address": "湖北省十堰市房县建设路15号", "jindu": "110.751648", "weidu": "32.061797", "address2": "地址：湖北省十堰市房县建设路15号", "phone_number": "18772787710", "longitude": "110.751648", "latitude": "32.061797"}, {"title": "英山县-黄健", "address": "湖北省黄冈市英山县朝阳路晨阳水漆", "jindu": "115.696052", "weidu": "30.738508", "address2": "地址：湖北省黄冈市英山县朝阳路晨阳水漆", "phone_number": "17771368445", "longitude": "115.696052", "latitude": "30.738508"}, {"title": "红安县-张超", "address": "湖北省黄冈市红安县同泰路新世纪家居广场4栋", "jindu": "114.582671", "weidu": "31.050796", "address2": "地址：湖北省黄冈市红安县同泰路新世纪家居广场4栋", "phone_number": "18627045879", "longitude": "114.582671", "latitude": "31.050796"}, {"title": "武穴-程细富", "address": "湖北省武穴市万居乐建材城中心转盘处和心布艺生活馆", "jindu": "115.581397", "weidu": "29.856469", "address2": "地址：湖北省武穴市万居乐建材城中心转盘处和心布艺生活馆", "phone_number": "13409828640", "longitude": "115.581397", "latitude": "29.856469"}, {"title": "武汉-孙亚平", "address": "湖北省武汉市汉口北五洲建材城精品街5栋1号", "jindu": "114.392308", "weidu": "30.723554", "address2": "地址：湖北省武汉市汉口北五洲建材城精品街5栋1号", "phone_number": "027-82910311", "longitude": "114.392308", "latitude": "30.723554"}, {"title": "咸丰-付光武", "address": "湖北咸丰海玉建材城3楼科翔壁纸", "jindu": "109.146311", "weidu": "29.671085", "address2": "地址：湖北咸丰海玉建材城3楼科翔壁纸", "phone_number": "1867853020", "longitude": "109.146311", "latitude": "29.671085"}, {"title": "仙桃-吴浩", "address": "湖北省仙桃恒迪建材市场二期9栋1楼123-124号", "jindu": "113.432787", "weidu": "30.360964", "address2": "地址：湖北省仙桃恒迪建材市场二期9栋1楼123-124号", "phone_number": "13872979038", "longitude": "113.432787", "latitude": "30.360964"}, {"title": "孝昌-袁爱平", "address": "湖北省孝感市孝昌县古城大道170号(全友家居对面)", "jindu": "113.986694", "weidu": "31.264467", "address2": "地址：湖北省孝感市孝昌县古城大道170号(全友家居对面)", "phone_number": "15571241118", "longitude": "113.986694", "latitude": "31.264467"}, {"title": "竹溪-程如意", "address": "湖北省十堰市竹溪县建设路693号好风景二店", "jindu": "109.719323", "weidu": "32.317974", "address2": "地址：湖北省十堰市竹溪县建设路693号好风景二店", "phone_number": "13339858666", "longitude": "109.719323", "latitude": "32.317974"}, {"title": "汉川-项章荣", "address": "湖北省汉川市建材大市场6幢20号", "jindu": "113.835038", "weidu": "30.672189", "address2": "地址：湖北省汉川市建材大市场6幢20号", "phone_number": "13035170222", "longitude": "113.835038", "latitude": "30.672189"}, {"title": "建始-刘红玉", "address": "湖北省建始县工业园区73号", "jindu": "109.728687", "weidu": "30.607935", "address2": "地址：湖北省建始县工业园区73号", "phone_number": "18372532888", "longitude": "109.728687", "latitude": "30.607935"}, {"title": "武汉-马雪松", "address": "湖北省武汉市家装广场F座103号", "jindu": "114.329131", "weidu": "30.560417", "address2": "地址：湖北省武汉市家装广场F座103号", "phone_number": "13667233573", "longitude": "114.329131", "latitude": "30.560417"}, {"title": "天门-邵加佳", "address": "湖北省天门市仁信国际家居建材生活馆2楼", "jindu": "113.172549", "weidu": "30.669711", "address2": "地址：湖北省天门市仁信国际家居建材生活馆2楼", "phone_number": "18007222266", "longitude": "113.172549", "latitude": "30.669711"}, {"title": "襄阳-胡波", "address": "湖北省襄阳市新世纪家具广场35幢216", "jindu": "112.175693", "weidu": "32.09562", "address2": "地址：湖北省襄阳市新世纪家具广场35幢216", "phone_number": "18671955691", "longitude": "112.175693", "latitude": "32.09562"}, {"title": "松滋-龙常松", "address": "湖北省松滋县三岔路", "jindu": "111.6962050000", "weidu": "30.1052240000", "address2": "地址：湖北省松滋县三岔路", "phone_number": "0716-6225938", "longitude": "111.6962050000", "latitude": "30.1052240000"}, {"title": "江夏区-李永志", "address": "湖北省武汉市江夏区富丽园建材大市场49-50#", "jindu": "114.3297090000", "weidu": "30.3655730000", "address2": "地址：湖北省武汉市江夏区富丽园建材大市场49-50#", "phone_number": "027-81825909", "longitude": "114.3297090000", "latitude": "30.3655730000"}, {"title": "荆州-徐业文", "address": "湖北省荆州市蓝特商贸城202号", "jindu": "112.241853", "weidu": "30.324223", "address2": "地址：湖北省荆州市蓝特商贸城202号", "phone_number": "0716-8517106", "longitude": "112.241853", "latitude": "30.324223"}, {"title": "潜江-赵瑞", "address": "湖北省潜江市建材市场四通路28号", "jindu": "112.866885", "weidu": "30.421708", "address2": "地址：湖北省潜江市建材市场四通路28号", "phone_number": "0728-6952390", "longitude": "112.866885", "latitude": "30.421708"}, {"title": "荆门-蔡雅琴", "address": "湖北省荆门市掇刀区蓝城明珠", "jindu": "112.213576", "weidu": "30.979346", "address2": "地址：湖北省荆门市掇刀区蓝城明珠", "phone_number": "0724-8880005", "longitude": "112.213576", "latitude": "30.979346"}, {"title": "京山县-张桃林", "address": "湖北省荆门市京山县中公路科翔壁纸", "jindu": "113.200788", "weidu": "31.323192", "address2": "地址：湖北省荆门市京山县中公路科翔壁纸", "phone_number": "15327503600", "longitude": "113.200788", "latitude": "31.323192"}, {"title": "钟祥-陈明", "address": "湖北省钟祥市家居广场4栋3楼", "jindu": "112.576771", "weidu": "31.178929", "address2": "地址：湖北省钟祥市家居广场4栋3楼", "phone_number": "0724-4266209", "longitude": "112.576771", "latitude": "31.178929"}, {"title": "十堰-田忠", "address": "湖北省十堰市浙江路红星美凯龙科翔壁纸专卖店", "jindu": "109.73531", "weidu": "32.32016", "address2": "地址：湖北省十堰市浙江路红星美凯龙科翔壁纸专卖店", "phone_number": "0719-8015880", "longitude": "109.73531", "latitude": "32.32016"}, {"title": "利川-代玉三", "address": "湖北省利川吉美佳市场2楼", "jindu": "108.948382", "weidu": "30.30084", "address2": "地址：湖北省利川吉美佳市场2楼", "phone_number": "0718-7262366", "longitude": "108.948382", "latitude": "30.30084"}, {"title": "秭归县-望靖宇", "address": "湖北省宜昌市秭归县新泰建材家居市场", "jindu": "110.986118", "weidu": "30.818208", "address2": "地址：湖北省宜昌市秭归县新泰建材家居市场", "phone_number": "18672661715", "longitude": "110.986118", "latitude": "30.818208"}, {"title": "宜昌-胡艳萍", "address": "湖北省宜昌市伍家岗金都批发市场A1栋", "jindu": "111.373995", "weidu": "30.636451", "address2": "地址：湖北省宜昌市伍家岗金都批发市场A1栋", "phone_number": "0717-6260569", "longitude": "111.373995", "latitude": "30.636451"}, {"title": "阳新-从云霞", "address": "湖北省阳新县古商城6-15，6-16号", "jindu": "115.222791", "weidu": "29.838792", "address2": "地址：湖北省阳新县古商城6-15，6-16号", "phone_number": "0714-7334677", "longitude": "115.222791", "latitude": "29.838792"}, {"title": "黄州-孔智勇", "address": "湖北省黄冈市黄州区三清国际建材城A2-38", "jindu": "114.896085", "weidu": "30.470636", "address2": "地址：湖北省黄冈市黄州区三清国际建材城A2-38", "phone_number": "0713-8678098", "longitude": "114.896085", "latitude": "30.470636"}, {"title": "蕲春-张烁", "address": "湖北省蕲春县漕河镇万丰路99号", "jindu": "115.435774", "weidu": "30.244558", "address2": "地址：湖北省蕲春县漕河镇万丰路99号", "phone_number": "0713-7182772", "longitude": "115.435774", "latitude": "30.244558"}, {"title": "麻城-牟丹", "address": "湖北省麻城市火车北站金通湾建材大市场A0320店面", "jindu": "114.992046", "weidu": "31.192623", "address2": "地址：湖北省麻城市火车北站金通湾建材大市场A0320店面", "phone_number": "0713-2790586", "longitude": "114.992046", "latitude": "31.192623"}, {"title": "云梦县-周想玲", "address": "湖北省孝感市云梦县城北居安之家建材城", "jindu": "113.735063", "weidu": "31.058956", "address2": "地址：湖北省孝感市云梦县城北居安之家建材城", "phone_number": "15098069553", "longitude": "113.735063", "latitude": "31.058956"}, {"title": "孝昌-万品金", "address": "湖北省孝昌县发展路263号", "jindu": "113.991661", "weidu": "31.325104", "address2": "地址：湖北省孝昌县发展路263号", "phone_number": "0712-2948555", "longitude": "113.991661", "latitude": "31.325104"}, {"title": "保康县-刘远军", "address": "湖北省保康县创和名城建材市场2栋104-105号", "jindu": "111.263291", "weidu": "31.890711", "address2": "地址：湖北省保康县创和名城建材市场2栋104-105号", "phone_number": "0710-5821688", "longitude": "111.263291", "latitude": "31.890711"}, {"title": "南漳-鲍必瑾", "address": "湖北省南漳县利美金凤广场-易之家整体家居体验馆", "jindu": "111.862565", "weidu": "31.770159", "address2": "地址：湖北省南漳县利美金凤广场-易之家整体家居体验馆", "phone_number": "0710-5267426", "longitude": "111.862565", "latitude": "31.770159"}, {"title": "黄陂-董刚", "address": "湖北省武汉市黄陂区双凤大道610#", "jindu": "114.37879", "weidu": "30.882919", "address2": "地址：湖北省武汉市黄陂区双凤大道610#", "phone_number": "027-61007714", "longitude": "114.37879", "latitude": "30.882919"}, {"title": "武昌-王小李", "address": "湖北省武汉市武昌区雄楚大道陈家湾龙阳康家建材广场二楼科翔专卖", "jindu": "114.373551", "weidu": "30.513184", "address2": "地址：湖北省武汉市武昌区雄楚大道陈家湾龙阳康家建材广场二楼科翔专卖", "phone_number": "027-87383350", "longitude": "114.373551", "latitude": "30.513184"}, {"title": "汉阳-阮元林", "address": "湖北省武汉市汉阳区桥机横路建材市场3-19号", "jindu": "114.265384", "weidu": "30.535847", "address2": "地址：湖北省武汉市汉阳区桥机横路建材市场3-19号", "phone_number": "027-84641701", "longitude": "114.265384", "latitude": "30.535847"}, {"title": "玉田-刘成龙", "address": "河北省唐山市玉田县建材一条街科翔壁纸", "jindu": "117.75719", "weidu": "39.894803", "address2": "地址：河北省唐山市玉田县建材一条街科翔壁纸", "phone_number": "18631587686", "longitude": "117.75719", "latitude": "39.894803"}, {"title": "高碑店-齐江磊", "address": "河北省高碑店市时方装饰建材城和平东路海洋三期东北路南", "jindu": "115.890845", "weidu": "39.338442", "address2": "地址：河北省高碑店市时方装饰建材城和平东路海洋三期东北路南", "phone_number": "13833033131", "longitude": "115.890845", "latitude": "39.338442"}, {"title": "涿州-李爽", "address": "河北省涿州市华阳路华阳公寓西侧", "jindu": "116.014023", "weidu": "39.500843", "address2": "地址：河北省涿州市华阳路华阳公寓西侧", "phone_number": "15130307851", "longitude": "116.014023", "latitude": "39.500843"}, {"title": "徐水-宋颖", "address": "徐水县南关路口南行50米路西", "jindu": "115.662537", "weidu": "39.020994", "address2": "地址：徐水县南关路口南行50米路西", "phone_number": "13731666992", "longitude": "115.662537", "latitude": "39.020994"}, {"title": "武安-马富成", "address": "河北省武安市建材市场富城装饰门市部", "jindu": "114.173527", "weidu": "36.691158", "address2": "地址：河北省武安市建材市场富城装饰门市部", "phone_number": "15097676178", "longitude": "114.173527", "latitude": "36.691158"}, {"title": "古冶县-李强", "address": "河北省唐山市古冶县古冶区博聚建材市场", "jindu": "118.187036", "weidu": "39.636673", "address2": "地址：河北省唐山市古冶县古冶区博聚建材市场", "phone_number": "18617527132", "longitude": "118.187036", "latitude": "39.636673"}, {"title": "宁晋县-李光军", "address": "河北省邢台市宁晋县吉祥路292号", "jindu": "114.920239", "weidu": "37.630039", "address2": "地址：河北省邢台市宁晋县吉祥路292号", "phone_number": "18731919653", "longitude": "114.920239", "latitude": "37.630039"}, {"title": "石家庄-王夏立", "address": "河北省石家庄市裕华东路133号红星美凯龙方北商场三楼E8006", "jindu": "114.542177", "weidu": "38.042054", "address2": "地址：河北省石家庄市裕华东路133号红星美凯龙方北商场三楼E8006", "phone_number": "18032838286", "longitude": "114.542177", "latitude": "38.042054"}, {"title": "泊头-赵长龙", "address": "河北省泊头市林都建材市场东三门科翔壁纸", "jindu": "116.552716", "weidu": "38.081265", "address2": "地址：河北省泊头市林都建材市场东三门科翔壁纸", "phone_number": "13373075179", "longitude": "116.552716", "latitude": "38.081265"}, {"title": "霸州-程静田", "address": "河北省霸州市益津市场北棚10-11号永兴装饰", "jindu": "116.397032", "weidu": "39.115913", "address2": "地址：河北省霸州市益津市场北棚10-11号永兴装饰", "phone_number": "13932632675", "longitude": "116.397032", "latitude": "39.115913"}, {"title": "沧州-王福宇", "address": "河北省沧州市新华区居然之家四楼", "jindu": "116.900808", "weidu": "38.293463", "address2": "地址：河北省沧州市新华区居然之家四楼", "phone_number": "13131775691", "longitude": "116.900808", "latitude": "38.293463"}, {"title": "邯郸-李莉", "address": "河北省涉县滨河建材市场C1区", "jindu": "36.561580", "weidu": "113.663840", "address2": "地址：河北省涉县滨河建材市场C1区", "phone_number": "15832075102", "longitude": "36.561580", "latitude": "113.663840"}, {"title": "昌黎-常青", "address": "河北省秦皇岛市昌黎县建材城C区01号", "jindu": "119.175971", "weidu": "39.706109", "address2": "地址：河北省秦皇岛市昌黎县建材城C区01号", "phone_number": "0335-2885230", "longitude": "119.175971", "latitude": "39.706109"}, {"title": "秦皇岛-李晓艳", "address": "河北秦皇岛市海港区和平大街338号华运建材城壁纸厅北1号", "jindu": "119.569036", "weidu": "39.939306", "address2": "地址：河北秦皇岛市海港区和平大街338号华运建材城壁纸厅北1号", "phone_number": "0335-3600696", "longitude": "119.569036", "latitude": "39.939306"}, {"title": "青县-孙志展", "address": "河北省沧州市青县会川路与乾宁街交口", "jindu": "116.820744", "weidu": "38.577819", "address2": "地址：河北省沧州市青县会川路与乾宁街交口", "phone_number": "0317-4128372", "longitude": "116.820744", "latitude": "38.577819"}, {"title": "遵化-赵荟敏", "address": "河北省遵化市贸易城中心广场西行100米路北", "jindu": "117.964833", "weidu": "40.209693", "address2": "地址：河北省遵化市贸易城中心广场西行100米路北", "phone_number": "0315-8270123", "longitude": "117.964833", "latitude": "40.209693"}, {"title": "唐山-王文军", "address": "河北省唐山路南万博源建材城3层12号", "jindu": "118.206475", "weidu": "39.601225", "address2": "地址：河北省唐山路南万博源建材城3层12号", "phone_number": "0315-6323653", "longitude": "118.206475", "latitude": "39.601225"}, {"title": "保定-付汉鹏", "address": "河北省保定市大自然建材城A区2号鑫永华壁纸", "jindu": "115.544829", "weidu": "38.855127", "address2": "地址：河北省保定市大自然建材城A区2号鑫永华壁纸", "phone_number": "0312-5095232", "longitude": "115.544829", "latitude": "38.855127"}, {"title": "无极-司志涛", "address": "河北省无极县贸易北街汇诚建材家居广场", "jindu": "114.969577", "weidu": "38.188239", "address2": "地址：河北省无极县贸易北街汇诚建材家居广场", "phone_number": "0311-69017090", "longitude": "114.969577", "latitude": "38.188239"}, {"title": "辛集-张丽媛", "address": "河北省辛集市束鹿大街东段建材市场", "jindu": "115.253531", "weidu": "37.931692", "address2": "地址：河北省辛集市束鹿大街东段建材市场", "phone_number": "0311-83250383", "longitude": "115.253531", "latitude": "37.931692"}, {"title": "永年-闫召", "address": "河北省永年县海城国际建材广场4楼电梯口", "jindu": "114.501463", "weidu": "36.774039", "address2": "地址：河北省永年县海城国际建材广场4楼电梯口", "phone_number": "0310-5137548", "longitude": "114.501463", "latitude": "36.774039"}, {"title": "邯郸-刘俊发", "address": "河北省魏县天龙建材西大门北", "jindu": "114.9360000000", "weidu": "36.2505680000", "address2": "地址：河北省魏县天龙建材西大门北", "phone_number": "15031082323", "longitude": "114.9360000000", "latitude": "36.2505680000"}, {"title": "庆元-吴远平", "address": "浙江省庆元县横城南路文昌苑1号（聚丰佳园大门对面）", "jindu": "119.077618", "weidu": "27.621567", "address2": "地址：浙江省庆元县横城南路文昌苑1号（聚丰佳园大门对面）", "phone_number": "13735962998", "longitude": "119.077618", "latitude": "27.621567"}, {"title": "奉化-宋士强", "address": "宁波市奉化区大成东路1599号南海・锦地国际建材家饰商场三楼C西18号科翔壁纸", "jindu": "121.582666", "weidu": "29.852883", "address2": "地址：宁波市奉化区大成东路1599号南海・锦地国际建材家饰商场三楼C西18号科翔壁纸", "phone_number": "15824507340", "longitude": "121.582666", "latitude": "29.852883"}, {"title": "龙游-王臧", "address": "浙江衢州龙游县国际家居建材城17-213", "jindu": "119.239304", "weidu": "29.03954", "address2": "地址：浙江衢州龙游县国际家居建材城17-213", "phone_number": "15257027682", "longitude": "119.239304", "latitude": "29.03954"}, {"title": "温岭-罗丹霞", "address": "浙江台州温岭天岭装饰城C2-20-22", "jindu": "121.394095", "weidu": "28.412266", "address2": "地址：浙江台州温岭天岭装饰城C2-20-22", "phone_number": "13362688558", "longitude": "121.394095", "latitude": "28.412266"}, {"title": "德清-姜凯", "address": "浙江湖州德清武康舞阳街307-309", "jindu": "120.005324", "weidu": "30.543141", "address2": "地址：浙江湖州德清武康舞阳街307-309", "phone_number": "13336859399", "longitude": "120.005324", "latitude": "30.543141"}, {"title": "柯桥-鲁建苗", "address": "浙江绍兴柯桥华润建材市场F1-107", "jindu": "120.51419", "weidu": "30.10006", "address2": "地址：浙江绍兴柯桥华润建材市场F1-107", "phone_number": "15384172729", "longitude": "120.51419", "latitude": "30.10006"}, {"title": "杭州-陈荣", "address": "浙江省杭州市秋涛北路120号佳好佳一楼B116科翔壁纸", "jindu": "120.207369", "weidu": "30.272317", "address2": "地址：浙江省杭州市秋涛北路120号佳好佳一楼B116科翔壁纸", "phone_number": "13735806911", "longitude": "120.207369", "latitude": "30.272317"}, {"title": "海盐-黄文超", "address": "浙江省嘉兴市海盐县港龙装饰城7排北26-28号", "jindu": "120.942842", "weidu": "30.548449", "address2": "地址：浙江省嘉兴市海盐县港龙装饰城7排北26-28号", "phone_number": "18969332252", "longitude": "120.942842", "latitude": "30.548449"}, {"title": "嵊州-徐安君", "address": "浙江省绍兴市嵊州市仙湖路338号", "jindu": "120.837514", "weidu": "29.557797", "address2": "地址：浙江省绍兴市嵊州市仙湖路338号", "phone_number": "13587355007", "longitude": "120.837514", "latitude": "29.557797"}, {"title": "衢州市-谢水英", "address": "浙江省衢州市上洋恒滔五金市场二区7-8号店面", "jindu": "118.907813", "weidu": "28.928071", "address2": "地址：浙江省衢州市上洋恒滔五金市场二区7-8号店面", "phone_number": "13625709858", "longitude": "118.907813", "latitude": "28.928071"}, {"title": "临安-阮月仙", "address": "临安市临安商城16栋116号", "jindu": "119.707802", "weidu": "30.225741", "address2": "地址：临安市临安商城16栋116号", "phone_number": "13372571168", "longitude": "119.707802", "latitude": "30.225741"}, {"title": "萧山-廖峰云", "address": "浙江省萧山商城南路877号宏盾建材市场E-B69（汇宇家私东500米十字路口）", "jindu": "120.29811", "weidu": "30.152549", "address2": "地址：浙江省萧山商城南路877号宏盾建材市场E-B69（汇宇家私东500米十字路口）", "phone_number": "13819481683", "longitude": "120.29811", "latitude": "30.152549"}, {"title": "江山-周雅珍", "address": "浙江省江山市万商城综合馆二楼　", "jindu": "118.618536", "weidu": "28.724969", "address2": "地址：浙江省江山市万商城综合馆二楼　", "phone_number": "13732510683", "longitude": "118.618536", "latitude": "28.724969"}, {"title": "北仓-俞满兴", "address": "浙江省宁波市北仑区凤洋一路695号-697号科翔壁纸专卖店", "jindu": "121.841486", "weidu": "29.93157", "address2": "地址：浙江省宁波市北仑区凤洋一路695号-697号科翔壁纸专卖店", "phone_number": "0574-86960393 ", "longitude": "121.841486", "latitude": "29.93157"}, {"title": "杭州-许月仙", "address": "浙江省杭州市秋涛北路120号佳好佳商城一楼壁纸区B116号", "jindu": "120.207569", "weidu": "30.272617", "address2": "地址：浙江省杭州市秋涛北路120号佳好佳商城一楼壁纸区B116号", "phone_number": "0571-28028199", "longitude": "120.207569", "latitude": "30.272617"}, {"title": "兰溪-邓素娟", "address": "浙江省金华市兰溪市振新路93号", "jindu": "119.456372", "weidu": "29.215917", "address2": "地址：浙江省金华市兰溪市振新路93号", "phone_number": "13967905120", "longitude": "119.456372", "latitude": "29.215917"}, {"title": "绍兴-蒋晓裕", "address": "浙江省上虞市石狮精品建材馆C4079", "jindu": "120.903999", "weidu": "30.049852", "address2": "地址：浙江省上虞市石狮精品建材馆C4079", "phone_number": "0575-82039391", "longitude": "120.903999", "latitude": "30.049852"}, {"title": "鹤城-包志光", "address": "浙江省丽水市青田县鹤城镇油竹宫塘小区10幢8号", "jindu": "120.323585", "weidu": "28.106531", "address2": "地址：浙江省丽水市青田县鹤城镇油竹宫塘小区10幢8号", "phone_number": "0578-6656668", "longitude": "120.323585", "latitude": "28.106531"}, {"title": "仙居-朱冰之", "address": "浙江省仙居县省耕路231号", "jindu": "120.738001", "weidu": "28.856608", "address2": "地址：浙江省仙居县省耕路231号", "phone_number": "0576-87783365", "longitude": "120.738001", "latitude": "28.856608"}, {"title": "三门-陈泽杰", "address": "浙江省三门县三港建材市场A区42-43号", "jindu": "121.398163", "weidu": "29.104548", "address2": "地址：浙江省三门县三港建材市场A区42-43号", "phone_number": "0576-83232108", "longitude": "121.398163", "latitude": "29.104548"}, {"title": "宁波-胡丹琳", "address": "浙江省宁波市江东区现代商城1号楼1层（太阳能区25号）", "jindu": "121.580685", "weidu": "29.853045", "address2": "地址：浙江省宁波市江东区现代商城1号楼1层（太阳能区25号）", "phone_number": "0574-81857337", "longitude": "121.580685", "latitude": "29.853045"}, {"title": "北仑-王昌健", "address": "浙江省宁波市北仑小港江南公路1666号华生国际家居广场A馆三楼3028-2科翔壁纸", "jindu": "121.692273", "weidu": "29.85097", "address2": "地址：浙江省宁波市北仑小港江南公路1666号华生国际家居广场A馆三楼3028-2科翔壁纸", "phone_number": "0574-55866198", "longitude": "121.692273", "latitude": "29.85097"}, {"title": "海宁-夏祖龙", "address": "浙江省海宁市塘南西路72号", "jindu": "120.69366", "weidu": "30.523186", "address2": "地址：浙江省海宁市塘南西路72号", "phone_number": "0573-89235568", "longitude": "120.69366", "latitude": "30.523186"}, {"title": "建德-储健", "address": "浙江省建德市新安江严州大道秀水华庭29号", "jindu": "119.307525", "weidu": "29.490098", "address2": "地址：浙江省建德市新安江严州大道秀水华庭29号", "phone_number": "0571-64780957", "longitude": "119.307525", "latitude": "29.490098"}, {"title": "富阳-蒋秋琴", "address": "浙江省富阳市迎宾北路8号金辉建材市场门口", "jindu": "119.957674", "weidu": "30.066779", "address2": "地址：浙江省富阳市迎宾北路8号金辉建材市场门口", "phone_number": "0571-63371756", "longitude": "119.957674", "latitude": "30.066779"}, {"title": "丰都-易永奎", "address": "重庆丰都装饰城对面商业一路313号", "jindu": "107.739874", "weidu": "29.875824", "address2": "地址：重庆丰都装饰城对面商业一路313号", "phone_number": "13452541999", "longitude": "107.739874", "latitude": "29.875824"}, {"title": "涪陵区-代永刚", "address": "重庆涪陵汽车客运总站豪刻之家", "jindu": "107.569906", "weidu": "29.535201", "address2": "地址：重庆涪陵汽车客运总站豪刻之家", "phone_number": "13012306722", "longitude": "107.569906", "latitude": "29.535201"}, {"title": "开县-刘传明", "address": "重庆开县三号桥田园街170号", "jindu": "108.416842", "weidu": "31.174951", "address2": "地址：重庆开县三号桥田园街170号", "phone_number": "17723061166", "longitude": "108.416842", "latitude": "31.174951"}, {"title": "梁平-杨辉", "address": "重庆市梁平县亿联建材家居", "jindu": "107.799973", "weidu": "30.680598", "address2": "地址：重庆市梁平县亿联建材家居", "phone_number": "13983550351", "longitude": "107.799973", "latitude": "30.680598"}, {"title": "重庆-代懿", "address": "重庆市渝北区两路凯歌路6号附9号门市", "jindu": "106.6225400000", "weidu": "29.7031010000", "address2": "地址：重庆市渝北区两路凯歌路6号附9号门市", "phone_number": "023-67259670", "longitude": "106.6225400000", "latitude": "29.7031010000"}, {"title": "石柱-冉小军", "address": "重庆市石柱昊维建材城", "jindu": "108.1231520000", "weidu": "29.9970610000", "address2": "地址：重庆市石柱昊维建材城", "phone_number": "023-85006566", "longitude": "108.1231520000", "latitude": "29.9970610000"}, {"title": "巫山-吴崇", "address": "重庆市巫山县巫峡路32号附1号1-9门市", "jindu": "109.8866170000", "weidu": "31.0858030000", "address2": "地址：重庆市巫山县巫峡路32号附1号1-9门市", "phone_number": "023-85529311", "longitude": "109.8866170000", "latitude": "31.0858030000"}, {"title": "安县-郑茂纹", "address": "四川省绵阳市安县前进综合市场9--1", "jindu": "104.550913", "weidu": "31.544913", "address2": "地址：四川省绵阳市安县前进综合市场9--1", "phone_number": "18608092875", "longitude": "104.550913", "latitude": "31.544913"}, {"title": "德昌-舒涛", "address": "四川省凉山州德昌县新班车站时代地标112号门", "jindu": "102.194572", "weidu": "27.404483", "address2": "地址：四川省凉山州德昌县新班车站时代地标112号门", "phone_number": "18280659990", "longitude": "102.194572", "latitude": "27.404483"}, {"title": "富顺-黄小平", "address": "四川省自贡市富顺县瑞祥商贸城建材馆3楼24单元--1号", "jindu": "104.957456", "weidu": "29.187181", "address2": "地址：四川省自贡市富顺县瑞祥商贸城建材馆3楼24单元--1号", "phone_number": "18181559110", "longitude": "104.957456", "latitude": "29.187181"}, {"title": "岳池县-康卫林", "address": "四川省广安市岳池县亿联建材城15栋2楼", "jindu": "106.46574", "weidu": "30.547429", "address2": "地址：四川省广安市岳池县亿联建材城15栋2楼", "phone_number": "15982631331", "longitude": "106.46574", "latitude": "30.547429"}, {"title": "自贡-罗明芳", "address": " 四川省自贡市马吃水建材市场后门科翔壁纸", "jindu": "104.761868", "weidu": "29.331439", "address2": "地址： 四川省自贡市马吃水建材市场后门科翔壁纸", "phone_number": "18398737381", "longitude": "104.761868", "latitude": "29.331439"}, {"title": "犍为-余超", "address": "四川省乐山市犍为县新盛路121号", "jindu": "103.960785", "weidu": "29.207607", "address2": "地址：四川省乐山市犍为县新盛路121号", "phone_number": "15752360006", "longitude": "103.960785", "latitude": "29.207607"}, {"title": "宜宾-杨毅", "address": "四川省宜宾市正和博美装饰城4楼电梯口", "jindu": "104.636676", "weidu": "28.755273", "address2": "地址：四川省宜宾市正和博美装饰城4楼电梯口", "phone_number": "13350188989", "longitude": "104.636676", "latitude": "28.755273"}, {"title": "绵竹-尹欢", "address": "四川省绵竹市苏兴街106号", "jindu": "104.210472", "weidu": "31.348585", "address2": "地址：四川省绵竹市苏兴街106号", "phone_number": "13881098858", "longitude": "104.210472", "latitude": "31.348585"}, {"title": "成都-王昶友", "address": "四川省成都市府河市场二交易D座2-4号", "jindu": "104.068862", "weidu": "30.69826", "address2": "地址：四川省成都市府河市场二交易D座2-4号", "phone_number": "18780052179", "longitude": "104.068862", "latitude": "30.69826"}, {"title": "峨眉山-杨志强", "address": "四川省乐山市峨眉山市彩博建材市场5楼电梯旁", "jindu": "103.447858", "weidu": "29.584531", "address2": "地址：四川省乐山市峨眉山市彩博建材市场5楼电梯旁", "phone_number": "15308051120", "longitude": "103.447858", "latitude": "29.584531"}, {"title": "梓潼县-黄远江", "address": "四川省绵阳市梓潼县海达利8-16号科翔壁纸", "jindu": "105.169001", "weidu": "31.633993", "address2": "地址：四川省绵阳市梓潼县海达利8-16号科翔壁纸", "phone_number": "18981131601", "longitude": "105.169001", "latitude": "31.633993"}, {"title": "南充市-汪婷荣", "address": "四川省南充市嘉陵区光彩大市场一区十七幢22.24号", "jindu": "106.078853", "weidu": "30.762461", "address2": "地址：四川省南充市嘉陵区光彩大市场一区十七幢22.24号", "phone_number": "18161463932", "longitude": "106.078853", "latitude": "30.762461"}, {"title": "邻水-张华", "address": "四川省广安市邻水县恒源建材市场大门口右转10米", "jindu": "106.941758", "weidu": "30.332827", "address2": "地址：四川省广安市邻水县恒源建材市场大门口右转10米", "phone_number": "0826-3655108", "longitude": "106.941758", "latitude": "30.332827"}, {"title": "巴中-蔡朴昌", "address": "四川省巴中市新时代小区科翔壁纸", "jindu": "106.772035", "weidu": "31.853634", "address2": "地址：四川省巴中市新时代小区科翔壁纸", "phone_number": "0827-3131918", "longitude": "106.772035", "latitude": "31.853634"}, {"title": "平昌-李鹏赫", "address": "四川省巴中市平昌县新华街西段哈佛墙艺工程部", "jindu": "107.103395", "weidu": "31.576884", "address2": "地址：四川省巴中市平昌县新华街西段哈佛墙艺工程部", "phone_number": "0827-6260603", "longitude": "107.103395", "latitude": "31.576884"}, {"title": "柏溪-邓玲", "address": "四川省宜宾市柏溪镇翠柏大道469号", "jindu": "104.553296", "weidu": "28.706085", "address2": "地址：四川省宜宾市柏溪镇翠柏大道469号", "phone_number": "0831-5505505", "longitude": "104.553296", "latitude": "28.706085"}, {"title": "资阳-张小霞", "address": "四川省资阳市天宇市场红盾路56号", "jindu": "104.637755", "weidu": "30.144802", "address2": "地址：四川省资阳市天宇市场红盾路56号", "phone_number": "028-26555841", "longitude": "104.637755", "latitude": "30.144802"}, {"title": "眉山-刘俊英", "address": "四川省眉山市一环东路兰奇苑172号", "jindu": "103.848722", "weidu": "30.057324", "address2": "地址：四川省眉山市一环东路兰奇苑172号", "phone_number": "028-38222998", "longitude": "103.848722", "latitude": "30.057324"}, {"title": "中江-游光胜", "address": "四川省中江县凯江镇凯丰路42号科翔壁纸专卖店", "jindu": "104.686116", "weidu": "31.052691", "address2": "地址：四川省中江县凯江镇凯丰路42号科翔壁纸专卖店", "phone_number": "0838-7132417", "longitude": "104.686116", "latitude": "31.052691"}, {"title": "什邡-陈太强", "address": "四川省什邡市凯信建材城5―13号", "jindu": "104.160052", "weidu": "31.143619", "address2": "地址：四川省什邡市凯信建材城5―13号", "phone_number": "0838-5990886", "longitude": "104.160052", "latitude": "31.143619"}, {"title": "广元-黎炳华", "address": "四川省广元市苴国路民政公寓楼下", "jindu": "105.857277", "weidu": "32.43522", "address2": "地址：四川省广元市苴国路民政公寓楼下", "phone_number": "0839-3362388", "longitude": "105.857277", "latitude": "32.43522"}, {"title": "广汉-谢雪梅", "address": "四川广汉市西湖东段13号文沁园小区对面 科翔壁纸专卖店", "jindu": "120.100549", "weidu": "30.319157", "address2": "地址：四川广汉市西湖东段13号文沁园小区对面 科翔壁纸专卖店", "phone_number": "18981010348", "longitude": "120.100549", "latitude": "30.319157"}, {"title": "金堂-周婧", "address": "四川省成都市金堂县新博新美家居商场3楼电梯口左手尽头", "jindu": "104.424762", "weidu": "30.86088", "address2": "地址：四川省成都市金堂县新博新美家居商场3楼电梯口左手尽头", "phone_number": "028-84988225", "longitude": "104.424762", "latitude": "30.86088"}, {"title": "西乡-张寿富", "address": "陕西省汉中市西乡县梅苑路东关世纪新城", "jindu": "107.766614", "weidu": "32.983101", "address2": "地址：陕西省汉中市西乡县梅苑路东关世纪新城", "phone_number": "15029866837", "longitude": "107.766614", "latitude": "32.983101"}, {"title": "城固-高景如", "address": "陕西省汉中市城固县朝阳路西段世纪广场转盘向西100米", "jindu": "107.326678", "weidu": "33.154974", "address2": "地址：陕西省汉中市城固县朝阳路西段世纪广场转盘向西100米", "phone_number": "13399266119", "longitude": "107.326678", "latitude": "33.154974"}, {"title": "扶风-高海燕", "address": "陕西省宝鸡市扶风县新区美家美建材市场中排4-7号", "jindu": "107.902218", "weidu": "34.388487", "address2": "地址：陕西省宝鸡市扶风县新区美家美建材市场中排4-7号", "phone_number": "15389323000", "longitude": "107.902218", "latitude": "34.388487"}, {"title": "勉县-张培坤", "address": "陕西省汉中市勉县三国广场涟水园十字向西30米", "jindu": "106.695685", "weidu": "33.15882", "address2": "地址：陕西省汉中市勉县三国广场涟水园十字向西30米", "phone_number": "15809169250", "longitude": "106.695685", "latitude": "33.15882"}, {"title": "西安-任阿文", "address": "陕西省西安市大未央区大明宫建材家居三桥店负一层", "jindu": "108.987538", "weidu": "34.378724", "address2": "地址：陕西省西安市大未央区大明宫建材家居三桥店负一层", "phone_number": "18182631150", "longitude": "108.987538", "latitude": "34.378724"}, {"title": "宝鸡-李莉", "address": "陕西省宝鸡市金台区冠森大世界建材城东区二楼科翔壁纸专卖店", "jindu": "107.194054", "weidu": "34.364725", "address2": "地址：陕西省宝鸡市金台区冠森大世界建材城东区二楼科翔壁纸专卖店", "phone_number": "15191712012", "longitude": "107.194054", "latitude": "34.364725"}, {"title": "宝鸡-冯爱霞", "address": "陕西省宝鸡市金台区新冠森国际家居生活馆二楼壁纸区西区023号", "jindu": "107.263847", "weidu": "34.367466", "address2": "地址：陕西省宝鸡市金台区新冠森国际家居生活馆二楼壁纸区西区023号", "phone_number": "13152238996", "longitude": "107.263847", "latitude": "34.367466"}, {"title": "汉阴-卢家山", "address": "陕西省汉阴县凤凰大道汽车站对面", "jindu": "108.508256", "weidu": "32.894494", "address2": "地址：陕西省汉阴县凤凰大道汽车站对面", "phone_number": "15929526083", "longitude": "108.508256", "latitude": "32.894494"}, {"title": "安康-汪鹏", "address": "安康市高新区天贸城6区一层壁纸专区", "jindu": "109.038045", "weidu": "32.70437", "address2": "地址：安康市高新区天贸城6区一层壁纸专区", "phone_number": "18992556789", "longitude": "109.038045", "latitude": "32.70437"}, {"title": "安康-汪鹏", "address": "安康市汉滨区兴华永昌建材市场1排1号", "jindu": "108.896243", "weidu": "32.814464", "address2": "地址：安康市汉滨区兴华永昌建材市场1排1号", "phone_number": "18992556789", "longitude": "108.896243", "latitude": "32.814464"}, {"title": "西安-张晓超", "address": "西安市太华北路百花门业科翔壁纸专卖店", "jindu": "108.978186", "weidu": "34.335231", "address2": "地址：西安市太华北路百花门业科翔壁纸专卖店", "phone_number": "15389421288", "longitude": "108.978186", "latitude": "34.335231"}, {"title": "凤翔-马丽莉", "address": "陕西省宝鸡市凤翔县冠森建材5号楼", "jindu": "107.422123", "weidu": "34.526103", "address2": "地址：陕西省宝鸡市凤翔县冠森建材5号楼", "phone_number": "18292711976", "longitude": "107.422123", "latitude": "34.526103"}, {"title": "西安-帅立强", "address": "陕西省西安市未央区辛家庙红星美凯龙", "jindu": "109.001563", "weidu": "34.321903", "address2": "地址：陕西省西安市未央区辛家庙红星美凯龙", "phone_number": "13152037618", "longitude": "109.001563", "latitude": "34.321903"}, {"title": "榆林-于成龙", "address": "陕西省榆林市靖边县长城建材市场43号", "jindu": "108.803698", "weidu": "37.602092", "address2": "地址：陕西省榆林市靖边县长城建材市场43号", "phone_number": "13325416669", "longitude": "108.803698", "latitude": "37.602092"}, {"title": "韩城-郭艳", "address": "陕西省韩城市阳山庄建材家居城", "jindu": "110.474143", "weidu": "35.483309", "address2": "地址：陕西省韩城市阳山庄建材家居城", "phone_number": "15332233583", "longitude": "110.474143", "latitude": "35.483309"}, {"title": "汉中-刘彦伟", "address": "陕西省汉中市汉台区西一环路南段", "jindu": "107.019301", "weidu": "33.078899", "address2": "地址：陕西省汉中市汉台区西一环路南段", "phone_number": "13991600320", "longitude": "107.019301", "latitude": "33.078899"}, {"title": "西安-黄海", "address": "陕西省西安市西沣路华东万象国际建材家居城2-301", "jindu": "108.870352", "weidu": "34.167386", "address2": "地址：陕西省西安市西沣路华东万象国际建材家居城2-301", "phone_number": "13384945373", "longitude": "108.870352", "latitude": "34.167386"}, {"title": "华阴-惠亮亮", "address": "陕西省华阴市镇府广场南100米", "jindu": "110.098398", "weidu": "34.570187", "address2": "地址：陕西省华阴市镇府广场南100米", "phone_number": "0913-4611878", "longitude": "110.098398", "latitude": "34.570187"}, {"title": "商洛-赵苍有", "address": "陕西省商洛市晨光路大明宫建材馆北门4楼", "jindu": "109.927745", "weidu": "33.870378", "address2": "地址：陕西省商洛市晨光路大明宫建材馆北门4楼", "phone_number": "0914-2066605", "longitude": "109.927745", "latitude": "33.870378"}, {"title": "山阳-祝堂智", "address": "陕西省商洛市山阳县翠屏小区公路段家属楼一楼", "jindu": "110.348702", "weidu": "33.69799", "address2": "地址：陕西省商洛市山阳县翠屏小区公路段家属楼一楼", "phone_number": "0914-8322936", "longitude": "110.348702", "latitude": "33.69799"}, {"title": "汉中-王伟", "address": "陕西省洋县东环路转盘向北100米", "jindu": "107.567387", "weidu": "33.229472", "address2": "地址：陕西省洋县东环路转盘向北100米", "phone_number": "13630203235", "longitude": "107.567387", "latitude": "33.229472"}, {"title": "西安-刘赞美", "address": "陕西省西安市和记万佳国际家居城", "jindu": "109.026181", "weidu": "34.236153", "address2": "地址：陕西省西安市和记万佳国际家居城", "phone_number": "029-82569293", "longitude": "109.026181", "latitude": "34.236153"}, {"title": "西安-冯亮", "address": "陕西省西安市大明宫东三环店三楼东南角3D1-10", "jindu": "109.056813", "weidu": "34.269825", "address2": "地址：陕西省西安市大明宫东三环店三楼东南角3D1-10", "phone_number": "029-83563430", "longitude": "109.056813", "latitude": "34.269825"}, {"title": "西安-邢绒娟", "address": "陕西省西安市雁塔区长安南路三森国际家具建材城香港厅2-1#", "jindu": "108.948535", "weidu": "34.189456", "address2": "地址：陕西省西安市雁塔区长安南路三森国际家具建材城香港厅2-1#", "phone_number": "029-88246708", "longitude": "108.948535", "latitude": "34.189456"}, {"title": "临潼-张霞", "address": "陕西省西安市临潼区人民西路常堡建材市场4排1号", "jindu": "109.208741", "weidu": "34.382427", "address2": "地址：陕西省西安市临潼区人民西路常堡建材市场4排1号", "phone_number": "029-83420080", "longitude": "109.208741", "latitude": "34.382427"}, {"title": "咸阳-张爱武", "address": "陕西省咸阳市人民西路太沣建材市场1排13-14号", "jindu": "108.699341", "weidu": "34.342503", "address2": "地址：陕西省咸阳市人民西路太沣建材市场1排13-14号", "phone_number": "029-33161586", "longitude": "108.699341", "latitude": "34.342503"}, {"title": "塘沽-时光艳", "address": "塘沽区华北陶瓷城E3区二楼226-227号科翔壁纸", "jindu": "117.452385", "weidu": "38.934777", "address2": "地址：塘沽区华北陶瓷城E3区二楼226-227号科翔壁纸", "phone_number": "13820463339", "longitude": "117.452385", "latitude": "38.934777"}, {"title": "北辰-张静", "address": "天津市北辰区柳滩陶瓷装饰城8厅1号", "jindu": "117.172126", "weidu": "39.195771", "address2": "地址：天津市北辰区柳滩陶瓷装饰城8厅1号", "phone_number": "13920688206", "longitude": "117.172126", "latitude": "39.195771"}, {"title": "天津-刘妍", "address": "天津市武清区华北城F14-101", "jindu": "117.098505", "weidu": "39.334632", "address2": "地址：天津市武清区华北城F14-101", "phone_number": "15342192560", "longitude": "117.098505", "latitude": "39.334632"}, {"title": "西青区-李秀久", "address": "天津市西青区侯台装饰城", "jindu": "117.1211700000", "weidu": "39.1064370000", "address2": "地址：天津市西青区侯台装饰城", "phone_number": "022-23796913", "longitude": "117.1211700000", "latitude": "39.1064370000"}, {"title": "宁河-张胜云", "address": "天津市宁河县赛丰购物广场", "jindu": "117.8476440000", "weidu": "39.3422400000", "address2": "地址：天津市宁河县赛丰购物广场", "phone_number": "022-69572755", "longitude": "117.8476440000", "latitude": "39.3422400000"}, {"title": "婺源-徐育照", "address": "江西上饶婺源建材成5栋101-102号", "jindu": "117.842331", "weidu": "29.262725", "address2": "地址：江西上饶婺源建材成5栋101-102号", "phone_number": "13576385338", "longitude": "117.842331", "latitude": "29.262725"}, {"title": "瑞金-郭福生", "address": "江西赣州瑞金中山北路210号", "jindu": "116.028418", "weidu": "25.884602", "address2": "地址：江西赣州瑞金中山北路210号", "phone_number": "18370869266", "longitude": "116.028418", "latitude": "25.884602"}, {"title": "南昌-周磊", "address": "江西省南昌市省装璜建材大市场建11栋1-2号", "jindu": "115.909172", "weidu": "28.656485", "address2": "地址：江西省南昌市省装璜建材大市场建11栋1-2号", "phone_number": "13979128188", "longitude": "115.909172", "latitude": "28.656485"}, {"title": "鄱阳-欧阳文明", "address": "江西省鄱阳县锦宇大道丽湖星城6栋7号店", "jindu": "116.703026", "weidu": "29.014281", "address2": "地址：江西省鄱阳县锦宇大道丽湖星城6栋7号店", "phone_number": "15179302028", "longitude": "116.703026", "latitude": "29.014281"}, {"title": "永丰-傅永根", "address": "江西省永丰县扶八路绿海星城2-13号", "jindu": "115.439424", "weidu": "27.336163", "address2": "地址：江西省永丰县扶八路绿海星城2-13号", "phone_number": "0796-2514588", "longitude": "115.439424", "latitude": "27.336163"}, {"title": "赵洪群", "address": "山东省泰安市龙潭路红星美凯龙", "jindu": "36.15493", "weidu": "117.11052", "address2": "地址：山东省泰安市龙潭路红星美凯龙", "phone_number": "17661217111", "longitude": "36.15493", "latitude": "117.11052"}, {"title": "莱芜-王帅", "address": "莱芜大桥北路32号金太阳装饰城2楼", "jindu": "36.21614", "weidu": "117.697", "address2": "地址：莱芜大桥北路32号金太阳装饰城2楼", "phone_number": " 15166346598", "longitude": "36.21614", "latitude": "117.697"}, {"title": "梁山-戚聿海", "address": "菏泽梁山浙江商城c区", "jindu": "35.77249", "weidu": "116.092", "address2": "地址：菏泽梁山浙江商城c区", "phone_number": "18254724448", "longitude": "35.77249", "latitude": "116.092"}, {"title": "博山-边红", "address": "淄博市博山区鼓浪屿装饰材料城内街121号", "jindu": "36.50383", "weidu": "117.8559", "address2": "地址：淄博市博山区鼓浪屿装饰材料城内街121号", "phone_number": "13589551717", "longitude": "36.50383", "latitude": "117.8559"}, {"title": "淄川-孙奉刚", "address": "淄川装饰材料市场对面", "jindu": "36.7184", "weidu": "118.00781", "address2": "地址：淄川装饰材料市场对面", "phone_number": "13869321162", "longitude": "36.7184", "latitude": "118.00781"}, {"title": "海阳-马晓峰", "address": "烟台海阳县海政路生隆批发市场对面", "jindu": "36.77702", "weidu": "121.17467", "address2": "地址：烟台海阳县海政路生隆批发市场对面", "phone_number": "13583518136", "longitude": "36.77702", "latitude": "121.17467"}, {"title": " 费县-孙萍 ", "address": "临沂费县银源家居建材广场10-12号", "jindu": "35.10465", "weidu": "118.35646", "address2": "地址：临沂费县银源家居建材广场10-12号", "phone_number": " 15092861968", "longitude": "35.10465", "latitude": "118.35646"}, {"title": " 蓬莱-张成龙", "address": "山东烟台蓬莱市黄海花园南门东", "jindu": "37.81182", "weidu": "120.78011", "address2": "地址：山东烟台蓬莱市黄海花园南门东", "phone_number": "13696385150", "longitude": "37.81182", "latitude": "120.78011"}, {"title": "济南-赵敏", "address": "济南天桥区东亚家居建材区", "jindu": "36.68234", "weidu": "117.01558", "address2": "地址：济南天桥区东亚家居建材区", "phone_number": "13176669112", "longitude": "36.68234", "latitude": "117.01558"}, {"title": "邹城-王静", "address": "山东省济宁市邹城市红星美凯龙二楼221-224", "jindu": "117.015432", "weidu": "35.421457", "address2": "地址：山东省济宁市邹城市红星美凯龙二楼221-224", "phone_number": "18253752598", "longitude": "117.015432", "latitude": "35.421457"}, {"title": "济宁-陈静", "address": "山东省济宁市任城区金宇装饰城内三路111号", "jindu": "116.606712", "weidu": "35.436982", "address2": "地址：山东省济宁市任城区金宇装饰城内三路111号", "phone_number": "18765472022", "longitude": "116.606712", "latitude": "35.436982"}, {"title": "德州-贾永强", "address": "山东省德州市庆云金宇建材城D8-2", "jindu": "117.397165", "weidu": "37.770472", "address2": "地址：山东省德州市庆云金宇建材城D8-2", "phone_number": "15963399877", "longitude": "117.397165", "latitude": "37.770472"}, {"title": "德州-陈钢", "address": "山东省德州市东风东路德佰家居广场B区", "jindu": "116.571987", "weidu": "35.416832", "address2": "地址：山东省德州市东风东路德佰家居广场B区", "phone_number": "15166915950", "longitude": "116.571987", "latitude": "35.416832"}, {"title": "肥城-张国强", "address": "山东省肥城市银泰隆", "jindu": "116.788879", "weidu": "36.193956", "address2": "地址：山东省肥城市银泰隆", "phone_number": "15005385831", "longitude": "116.788879", "latitude": "36.193956"}, {"title": "日照-王方", "address": "山东省日照市江豪建材市场钢城市场沿街32", "jindu": "119.482934", "weidu": "35.439037", "address2": "地址：山东省日照市江豪建材市场钢城市场沿街32", "phone_number": "13563335217", "longitude": "119.482934", "latitude": "35.439037"}, {"title": "东营-陶庭圩", "address": "山东省东营市商贸园兴平街12号", "jindu": "118.546651", "weidu": "37.454501", "address2": "地址：山东省东营市商贸园兴平街12号", "phone_number": "0546-7369789", "longitude": "118.546651", "latitude": "37.454501"}, {"title": "高密-李新海", "address": "山东省高密市长丰街", "jindu": "119.781076", "weidu": "36.382668", "address2": "地址：山东省高密市长丰街", "phone_number": "0536-2592118", "longitude": "119.781076", "latitude": "36.382668"}, {"title": "临淄-王腾辉", "address": "山东省淄博市临淄区化工城鲁厦装饰材料城42号", "jindu": "118.299256", "weidu": "36.824227", "address2": "地址：山东省淄博市临淄区化工城鲁厦装饰材料城42号", "phone_number": "0533-6292822", "longitude": "118.299256", "latitude": "36.824227"}, {"title": "即墨-王本花", "address": "山东省即墨环保装饰城808-56号恒光地材商场", "jindu": "120.426286", "weidu": "36.404907", "address2": "地址：山东省即墨环保装饰城808-56号恒光地材商场", "phone_number": "0532-86530989", "longitude": "120.426286", "latitude": "36.404907"}, {"title": "鄄城-陈菲", "address": "山东省菏泽市鄄城县舜耕商贸城C座7号楼", "jindu": "115.538089", "weidu": "35.561792", "address2": "地址：山东省菏泽市鄄城县舜耕商贸城C座7号楼", "phone_number": "0530-2995058", "longitude": "115.538089", "latitude": "35.561792"}, {"title": "菏泽-孔令栓", "address": "山东省菏泽市鲁西南建材市场8栋60号", "jindu": "115.561203", "weidu": "35.269388", "address2": "地址：山东省菏泽市鲁西南建材市场8栋60号", "phone_number": "0530-6260997", "longitude": "115.561203", "latitude": "35.269388"}, {"title": "滕州-杨宗奇", "address": "山东滕州市伦达五金装饰市场二楼东南一排", "jindu": "117.149166", "weidu": "35.117226", "address2": "地址：山东滕州市伦达五金装饰市场二楼东南一排", "phone_number": "18663262899", "longitude": "117.149166", "latitude": "35.117226"}, {"title": "中卫-侯军德", "address": "宁夏中卫市鼓楼东街中博中浩建材城7号楼二楼", "jindu": "105.231168", "weidu": "37.522875", "address2": "地址：宁夏中卫市鼓楼东街中博中浩建材城7号楼二楼", "phone_number": "13739503141", "longitude": "105.231168", "latitude": "37.522875"}, {"title": "宁城-孝显城", "address": "内蒙古赤峰市宁城县铁西金宇城b区南门", "jindu": "119.33145", "weidu": "41.600709", "address2": "地址：内蒙古赤峰市宁城县铁西金宇城b区南门", "phone_number": "13848865729", "longitude": "119.33145", "latitude": "41.600709"}, {"title": "敖汉-郑立钧", "address": "内蒙古赤峰市敖汉旗兴隆家园北门", "jindu": "119.925958", "weidu": "42.291126", "address2": "地址：内蒙古赤峰市敖汉旗兴隆家园北门", "phone_number": "15049963953", "longitude": "119.925958", "latitude": "42.291126"}, {"title": "薛家湾-余小燕", "address": "内蒙古鄂尔多斯准格尔旗薛家湾镇火车站西开源建材城", "jindu": "111.24307", "weidu": "39.871215", "address2": "地址：内蒙古鄂尔多斯准格尔旗薛家湾镇火车站西开源建材城", "phone_number": "15048398880", "longitude": "111.24307", "latitude": "39.871215"}, {"title": "锡林浩特-吕国升", "address": "内蒙古锡林郭勒盟锡林浩特市南市场61号", "jindu": "116.090655", "weidu": "43.951941", "address2": "地址：内蒙古锡林郭勒盟锡林浩特市南市场61号", "phone_number": "0479-8817769", "longitude": "116.090655", "latitude": "43.951941"}, {"title": "达拉特旗达旗-张录科", "address": "内蒙额尔多斯市达拉特旗达旗金鹏路荣翔苑20号底店", "jindu": "110.017517", "weidu": "40.406482", "address2": "地址：内蒙额尔多斯市达拉特旗达旗金鹏路荣翔苑20号底店", "phone_number": "18048385678,0477-2221000", "longitude": "110.017517", "latitude": "40.406482"}, {"title": "康巴什-李霞", "address": "内蒙古鄂尔多斯市康巴什新区万力建材城D区负一层", "jindu": "109.7826280000", "weidu": "39.6117360000", "address2": "地址：内蒙古鄂尔多斯市康巴什新区万力建材城D区负一层", "phone_number": "0432-62489788", "longitude": "109.7826280000", "latitude": "39.6117360000"}, {"title": "邵阳陈照玉", "address": "湖南省邵阳市南站建材城九栋东头科翔壁纸", "jindu": "111.466301", "weidu": "27.223122", "address2": "地址：湖南省邵阳市南站建材城九栋东头科翔壁纸", "phone_number": "18073933550", "longitude": "111.466301", "latitude": "27.223122"}, {"title": "郴州-谢岳君", "address": "湖南郴州北湖路21-4号", "jindu": "113.02702", "weidu": "25.793233", "address2": "地址：湖南郴州北湖路21-4号", "phone_number": "13387353398", "longitude": "113.02702", "latitude": "25.793233"}, {"title": "岳阳-谢光亮", "address": "湖南省岳阳市太阳桥建材市场25栋018号", "jindu": "113.179021", "weidu": "29.366444", "address2": "地址：湖南省岳阳市太阳桥建材市场25栋018号", "phone_number": "13873012710", "longitude": "113.179021", "latitude": "29.366444"}, {"title": "张家界-廖红英", "address": "湖南省张家界市永定区金海岸副食品市场对面武陵缘布艺家居生活馆", "jindu": "110.486635", "weidu": "29.130341", "address2": "地址：湖南省张家界市永定区金海岸副食品市场对面武陵缘布艺家居生活馆\t\t", "phone_number": "13574499805", "longitude": "110.486635", "latitude": "29.130341"}, {"title": "醴陵-宋龙江", "address": "湖南省醴陵市陶瓷烟花市场二期A5栋17-18号", "jindu": "113.510853", "weidu": "27.679625", "address2": "地址：湖南省醴陵市陶瓷烟花市场二期A5栋17-18号", "phone_number": "13975369183", "longitude": "113.510853", "latitude": "27.679625"}, {"title": "娄底-欧阳清峰", "address": "湖南省娄底市418建材市场49-51号门面飞扬地毯", "jindu": "112.00973", "weidu": "27.733148", "address2": "地址：湖南省娄底市418建材市场49-51号门面飞扬地毯", "phone_number": "13319685227", "longitude": "112.00973", "latitude": "27.733148"}, {"title": "澧县-廖静", "address": "湖南省澧县湘北家装特区南大门第一排戈登酒店旁", "jindu": "111.750939", "weidu": "29.647119", "address2": "地址：湖南省澧县湘北家装特区南大门第一排戈登酒店旁", "phone_number": "0736-3333267", "longitude": "111.750939", "latitude": "29.647119"}, {"title": "新乡-王超", "address": "河南省新乡市辉县亨泰建材城一期2013号", "jindu": "35.44117", "weidu": "113.7981", "address2": "地址：河南省新乡市辉县亨泰建材城一期2013号", "phone_number": "13849377000", "longitude": "35.44117", "latitude": "113.7981"}, {"title": "焦作-孟凡梅", "address": "焦作市中站区 新园路西部工业城 D1-18号", "jindu": "35.23322", "weidu": "113.18731", "address2": "地址：焦作市中站区 新园路西部工业城 D1-18号", "phone_number": "18339717572", "longitude": "35.23322", "latitude": "113.18731"}, {"title": "洛阳-吕娜辉", "address": "洛阳市西工区名优建材市场A馆二楼南区一街19号", "jindu": "34.65498", "weidu": "112.43243", "address2": "地址：洛阳市西工区名优建材市场A馆二楼南区一街19号", "phone_number": "15565377222", "longitude": "34.65498", "latitude": "112.43243"}, {"title": "开封-徐予东", "address": "河南省开封市兰考县欧蓓莎商业广场11号楼118号", "jindu": "34.50", "weidu": "114.47", "address2": "地址：河南省开封市兰考县欧蓓莎商业广场11号楼118号", "phone_number": "18337846832", "longitude": "34.50", "latitude": "114.47"}, {"title": "封丘-邹孝民", "address": "河南省新乡市封丘县新美建材市场科翔壁纸专卖店", "jindu": "114.418128", "weidu": "35.038319", "address2": "地址：河南省新乡市封丘县新美建材市场科翔壁纸专卖店", "phone_number": "15936507486", "longitude": "114.418128", "latitude": "35.038319"}, {"title": "安阳-张小敏", "address": "河南省安阳市文峰东路于原平路交叉口向东100米路东科翔壁纸", "jindu": "113.843045", "weidu": "36.083861", "address2": "地址：河南省安阳市文峰东路于原平路交叉口向东100米路东科翔壁纸", "phone_number": "13837213223", "longitude": "113.843045", "latitude": "36.083861"}, {"title": "灵宝-许梅娜", "address": "河南省三门峡市灵宝市黄河路挺段工商局向北100米", "jindu": "110.879109", "weidu": "34.522845", "address2": "地址：河南省三门峡市灵宝市黄河路挺段工商局向北100米", "phone_number": "15238929199", "longitude": "110.879109", "latitude": "34.522845"}, {"title": "商城-朱红", "address": "河南省信阳市商城县西大桥士悦宾大门", "jindu": "115.411539", "weidu": "31.809522", "address2": "地址：河南省信阳市商城县西大桥士悦宾大门", "phone_number": "13839795695", "longitude": "115.411539", "latitude": "31.809522"}, {"title": "淮滨-刘广亮", "address": "河南省淮滨县防洪通道刘桥南100米路东科翔壁纸", "jindu": "116.466515", "weidu": "33.939537", "address2": "地址：河南省淮滨县防洪通道刘桥南100米路东科翔壁纸", "phone_number": "18238286611", "longitude": "116.466515", "latitude": "33.939537"}, {"title": "息县-曹桂清", "address": "河南省息县息夫人北陵科翔专卖", "jindu": "114.747158", "weidu": "32.352669", "address2": "地址：河南省息县息夫人北陵科翔专卖", "phone_number": "13233764819", "longitude": "114.747158", "latitude": "32.352669"}, {"title": "许昌-曹伟东", "address": "河南省许昌市宏安商贸巷B8栋二楼23-24商铺", "jindu": "113.870404", "weidu": "33.98496", "address2": "地址：河南省许昌市宏安商贸巷B8栋二楼23-24商铺", "phone_number": "18603740998", "longitude": "113.870404", "latitude": "33.98496"}, {"title": "方城-任新华", "address": "河南省南阳市方城县铁西路中段", "jindu": "113.01905", "weidu": "33.260439", "address2": "地址：河南省南阳市方城县铁西路中段", "phone_number": "13837715111", "longitude": "113.01905", "latitude": "33.260439"}, {"title": "西华-南理斌", "address": "河南省周口市西华县黄泛区农场汽车站东200米路南科翔壁纸", "jindu": "114.523042", "weidu": "33.799011", "address2": "地址：河南省周口市西华县黄泛区农场汽车站东200米路南科翔壁纸", "phone_number": "18736169116", "longitude": "114.523042", "latitude": "33.799011"}, {"title": "开封-郭文婷", "address": "河南省开封市公园路47号附1号", "jindu": "114.380089", "weidu": "34.803817", "address2": "地址：河南省开封市公园路47号附1号", "phone_number": "13703784180", "longitude": "114.380089", "latitude": "34.803817"}, {"title": "洛宁-兰庆飞", "address": "河南省洛宁县紫竹家居建材城西口科翔壁纸", "jindu": "111.683577", "weidu": "34.392123", "address2": "地址：河南省洛宁县紫竹家居建材城西口科翔壁纸\t\t", "phone_number": "13783187919", "longitude": "111.683577", "latitude": "34.392123"}, {"title": "西峡-范方才", "address": "河南省西峡县伏牛西路313号科翔壁纸", "jindu": "111.482974", "weidu": "33.316455", "address2": "地址：河南省西峡县伏牛西路313号科翔壁纸", "phone_number": "13838722831", "longitude": "111.482974", "latitude": "33.316455"}, {"title": "新县-易文炳", "address": "河南省信阳市新县京九路中段加油站正对面科翔壁纸", "jindu": "115.227415", "weidu": "31.85685", "address2": "地址：河南省信阳市新县京九路中段加油站正对面科翔壁纸", "phone_number": "15294737238", "longitude": "115.227415", "latitude": "31.85685"}, {"title": "淅川-黄平", "address": "河南省南阳市淅川县灌河路山水景都楼下科翔壁纸专卖店", "jindu": "112.381404", "weidu": "32.525385", "address2": "地址：河南省南阳市淅川县灌河路山水景都楼下科翔壁纸专卖店", "phone_number": "13203797735", "longitude": "112.381404", "latitude": "32.525385"}, {"title": "永城-程秀芹", "address": "河南省永城市东城区欧倍莎二期时代城步行街对面", "jindu": "116.422773", "weidu": "39.934772", "address2": "地址：河南省永城市东城区欧倍莎二期时代城步行街对面", "phone_number": "0370-5100099", "longitude": "116.422773", "latitude": "39.934772"}, {"title": "驻马店-景金辉", "address": "河南省驻马店市雪松路与骏马路交叉口向西100米路北", "jindu": "114.037589", "weidu": "32.993074", "address2": "地址：河南省驻马店市雪松路与骏马路交叉口向西100米路北", "phone_number": "0396-2372372", "longitude": "114.037589", "latitude": "32.993074"}, {"title": "新野-马培纪", "address": "河南省新野县人民路沥河路口向南66米路东科翔壁纸", "jindu": "112.376212", "weidu": "32.513729", "address2": "地址：河南省新野县人民路沥河路口向南66米路东科翔壁纸", "phone_number": "13623774836", "longitude": "112.376212", "latitude": "32.513729"}, {"title": "平顶山-魏广贺", "address": "河南省平顶山市新华区西建材嘉苑商场北街10号", "jindu": "113.296782", "weidu": "33.754367", "address2": "地址：河南省平顶山市新华区西建材嘉苑商场北街10号", "phone_number": "13837538206", "longitude": "113.296782", "latitude": "33.754367"}, {"title": "邓州-王磊", "address": "河南省邓州市一环东都花园科翔壁纸专卖", "jindu": "112.1161950000", "weidu": "32.6860630000", "address2": "地址：河南省邓州市一环东都花园科翔壁纸专卖", "phone_number": "13938990165", "longitude": "112.1161950000", "latitude": "32.6860630000"}, {"title": "淮阳-肖依辉", "address": "河南省淮阳县新民南路燕生超市北200米路东科翔壁纸", "jindu": "114.864947", "weidu": "33.729826", "address2": "地址：河南省淮阳县新民南路燕生超市北200米路东科翔壁纸", "phone_number": "0394-7788077", "longitude": "114.864947", "latitude": "33.729826"}, {"title": "濮阳-孟素格", "address": "河南省濮阳市金桥建材市场科翔壁纸店", "jindu": "115.063223", "weidu": "35.77774", "address2": "地址：河南省濮阳市金桥建材市场科翔壁纸店", "phone_number": "0393-8205968", "longitude": "115.063223", "latitude": "35.77774"}, {"title": "浚县-王秀峰", "address": "河南省鹤壁市浚县科技路与北环路三环路交叉口西北角", "jindu": "114.559154", "weidu": "35.690178", "address2": "地址：河南省鹤壁市浚县科技路与北环路三环路交叉口西北角", "phone_number": "15039246991", "longitude": "114.559154", "latitude": "35.690178"}, {"title": "沁阳-付红", "address": "河南省焦作市沁阳市怀府建材城B1区2-3号", "jindu": "112.927537", "weidu": "35.086333", "address2": "地址：河南省焦作市沁阳市怀府建材城B1区2-3号", "phone_number": "0391-5686833", "longitude": "112.927537", "latitude": "35.086333"}, {"title": "上蔡-张春辉", "address": "河南省上蔡县礼品城九号楼142-146号", "jindu": "114.278169", "weidu": "33.258542", "address2": "地址：河南省上蔡县礼品城九号楼142-146号", "phone_number": "18339650189", "longitude": "114.278169", "latitude": "33.258542"}, {"title": "济源-霍娜", "address": "河南省济源市中盛建材城门面房科翔墙纸", "jindu": "112.59907", "weidu": "35.071305", "address2": "地址：河南省济源市中盛建材城门面房科翔墙纸", "phone_number": "0391-6285903", "longitude": "112.59907", "latitude": "35.071305"}, {"title": "西平-蒋永", "address": "河南省驻马店市西平县公交路中段物质局楼下科翔壁纸", "jindu": "114.038007", "weidu": "33.386784", "address2": "地址：河南省驻马店市西平县公交路中段物质局楼下科翔壁纸", "phone_number": "18639666350", "longitude": "114.038007", "latitude": "33.386784"}, {"title": "温县-王永柱", "address": "河南省焦作市温县太行路西段", "jindu": "113.07503", "weidu": "34.949558", "address2": "地址：河南省焦作市温县太行路西段", "phone_number": "0391-6109688", "longitude": "113.07503", "latitude": "34.949558"}, {"title": "郑州-张二燕", "address": "河南省郑州市巩义市万洋国际商贸城11栋207-210号", "jindu": "112.978261", "weidu": "34.7492", "address2": "地址：河南省郑州市巩义市万洋国际商贸城11栋207-210号", "phone_number": "15903661687", "longitude": "112.978261", "latitude": "34.7492"}, {"title": "郑州-王战备", "address": "河南登封国际商贸城2楼科翔壁纸店", "jindu": "113.028956", "weidu": "34.455177", "address2": "地址：河南登封国际商贸城2楼科翔壁纸店", "phone_number": "15238347368", "longitude": "113.028956", "latitude": "34.455177"}, {"title": "博爱-廉玲", "address": "河南省焦作市博爱县人民医院往南200米路西", "jindu": "113.090005", "weidu": "35.173244", "address2": "地址：河南省焦作市博爱县人民医院往南200米路西", "phone_number": "0391-8626516", "longitude": "113.090005", "latitude": "35.173244"}, {"title": "孟州-王西玲", "address": "河南省孟州市建材商城11号楼最东1129号", "jindu": "112.81564", "weidu": "34.919521", "address2": "地址：河南省孟州市建材商城11号楼最东1129号", "phone_number": "0391-8191158", "longitude": "112.81564", "latitude": "34.919521"}, {"title": "南阳-秦霞", "address": "河南省南阳市华隆建材大世界一楼西北角", "jindu": "112.531722", "weidu": "33.011949", "address2": "地址：河南省南阳市华隆建材大世界一楼西北角", "phone_number": "0377-61595577", "longitude": "112.531722", "latitude": "33.011949"}, {"title": "固始-孙有东", "address": "河南省固始县黄河路中段城关镇东60米", "jindu": "115.677446", "weidu": "32.195122", "address2": "地址：河南省固始县黄河路中段城关镇东60米", "phone_number": "13383972197", "longitude": "115.677446", "latitude": "32.195122"}, {"title": "舞钢-李林鹤", "address": "河南省舞钢市朱兰钢城路农机公司楼下科翔壁纸", "jindu": "113.533611", "weidu": "33.312482", "address2": "地址：河南省舞钢市朱兰钢城路农机公司楼下科翔壁纸", "phone_number": "0375-7050830", "longitude": "113.533611", "latitude": "33.312482"}, {"title": "禹州-王万兴", "address": "河南省禹州市陶瓷城西路与劳动路交叉口", "jindu": "113.485603", "weidu": "34.147984", "address2": "地址：河南省禹州市陶瓷城西路与劳动路交叉口", "phone_number": "0374-8288536", "longitude": "113.485603", "latitude": "34.147984"}, {"title": "商丘-李克强", "address": "河南省商丘市中意建材市场3期17排7号", "jindu": "115.680113", "weidu": "34.401157", "address2": "地址：河南省商丘市中意建材市场3期17排7号", "phone_number": "0370-3013437", "longitude": "115.680113", "latitude": "34.401157"}, {"title": "靖西县-黄锟", "address": "广西省百色市靖西县麒麟山建材市场20-8号", "jindu": "106.434632", "weidu": "23.118278", "address2": "地址：广西省百色市靖西县麒麟山建材市场20-8号", "phone_number": "18775643300", "longitude": "106.434632", "latitude": "23.118278"}, {"title": "临桂县-文成建", "address": "广西省桂林市临桂县月亮湾A幢6号门面", "jindu": "110.201952", "weidu": "25.253618", "address2": "地址：广西省桂林市临桂县月亮湾A幢6号门面", "phone_number": "0773-5595052", "longitude": "110.201952", "latitude": "25.253618"}, {"title": "河池-覃婉涵", "address": "广西省河池市翡翠家居广场188-190号（河池力天装饰专卖）", "jindu": "108.052753", "weidu": "24.697449", "address2": "地址：广西省河池市翡翠家居广场188-190号（河池力天装饰专卖）", "phone_number": "13558280277", "longitude": "108.052753", "latitude": "24.697449"}, {"title": "梅河口-王立明", "address": "吉林省梅河口市东方家居北6门左侧", "jindu": "125.690515", "weidu": "42.535632", "address2": "地址：吉林省梅河口市东方家居北6门左侧", "phone_number": "15114371599", "longitude": "125.690515", "latitude": "42.535632"}, {"title": "梅河口市-王立明", "address": "吉林省梅河口市江山花园西门南30米（老江山市场）", "jindu": "118.631664", "weidu": "28.733698", "address2": "地址：吉林省梅河口市江山花园西门南30米（老江山市场）", "phone_number": "15114371599", "longitude": "118.631664", "latitude": "28.733698"}, {"title": "白银-梁宏", "address": "甘肃白银市西部大市场", "jindu": "104.140131", "weidu": "36.553843", "address2": "地址：甘肃白银市西部大市场", "phone_number": "13893059517", "longitude": "104.140131", "latitude": "36.553843"}, {"title": "金昌-薛红兵", "address": "甘肃省金昌市金戈建材市场丙区634号科翔壁纸", "jindu": "102.182212", "weidu": "38.512947", "address2": "地址：甘肃省金昌市金戈建材市场丙区634号科翔壁纸", "phone_number": "13689450898", "longitude": "102.182212", "latitude": "38.512947"}, {"title": "西固-毛小英", "address": "甘肃省兰州西固区月星家居市场", "jindu": "103.658311", "weidu": "36.089854", "address2": "地址：甘肃省兰州西固区月星家居市场", "phone_number": "13893197585", "longitude": "103.658311", "latitude": "36.089854"}, {"title": "天水-崔红英", "address": "甘肃省天水市桥南建材市场", "jindu": "105.896713", "weidu": "34.558361", "address2": "地址：甘肃省天水市桥南建材市场", "phone_number": "13321389143", "longitude": "105.896713", "latitude": "34.558361"}, {"title": "庆阳-魏小娟", "address": "甘肃省庆阳市西峰区嘉鑫国际建材城406", "jindu": "107.638083", "weidu": "35.706133", "address2": "地址：甘肃省庆阳市西峰区嘉鑫国际建材城406", "phone_number": "15101845368", "longitude": "107.638083", "latitude": "35.706133"}, {"title": "兰州-周玉平", "address": "兰州市七里河区新黄河市场20#101-102", "jindu": "103.772943", "weidu": "36.085956", "address2": "地址：兰州市七里河区新黄河市场20#101-102", "phone_number": "18593067212", "longitude": "103.772943", "latitude": "36.085956"}, {"title": "定西-石学剑", "address": "甘肃省定西市安定区自由街中段", "jindu": "104.632313", "weidu": "35.595369", "address2": "地址：甘肃省定西市安定区自由街中段", "phone_number": "18993280588", "longitude": "104.632313", "latitude": "35.595369"}, {"title": "临夏-康合富", "address": "甘肃省临夏市西客站商贸城", "jindu": "103.209389", "weidu": "35.60591", "address2": "地址：甘肃省临夏市西客站商贸城", "phone_number": "13264548108", "longitude": "103.209389", "latitude": "35.60591"}, {"title": "兰州-郏凤云", "address": "甘肃省兰州城关区雁滩家具市场二排213号", "jindu": "103.86709", "weidu": "36.065558", "address2": "地址：甘肃省兰州城关区雁滩家具市场二排213号", "phone_number": "0931-8520173", "longitude": "103.86709", "latitude": "36.065558"}, {"title": "陇西-徐宗强", "address": "甘肃省定西市陇西县城关北环路科翔壁纸专卖店", "jindu": "104.656066", "weidu": "35.006851", "address2": "地址：甘肃省定西市陇西县城关北环路科翔壁纸专卖店", "phone_number": "0932-6960417", "longitude": "104.656066", "latitude": "35.006851"}, {"title": "平凉-李有林", "address": "甘肃省平凉市宏达国盛全球家居建材市场六栋二楼1-2-8-9号", "jindu": "106.750713", "weidu": "35.521247", "address2": "地址：甘肃省平凉市宏达国盛全球家居建材市场六栋二楼1-2-8-9号", "phone_number": "0933-8236830", "longitude": "106.750713", "latitude": "35.521247"}, {"title": "张掖-段兴林", "address": "甘肃省张掖市甘州区新张掖国际商贸城16栋科翔壁纸直营店", "jindu": "100.469272", "weidu": "38.943073", "address2": "地址：甘肃省张掖市甘州区新张掖国际商贸城16栋科翔壁纸直营店", "phone_number": "13993651848", "longitude": "100.469272", "latitude": "38.943073"}, {"title": "兰州-王海桃", "address": "甘肃省兰州市城关区张苏滩458号三森美居4楼", "jindu": "103.884343", "weidu": "36.061386", "address2": "地址：甘肃省兰州市城关区张苏滩458号三森美居4楼", "phone_number": "0931-8708856", "longitude": "103.884343", "latitude": "36.061386"}, {"title": "武威-张天旭", "address": "甘肃省武威市凉州区万嘉国际广场A区2栋", "jindu": "102.638806", "weidu": "37.945445", "address2": "地址：甘肃省武威市凉州区万嘉国际广场A区2栋", "phone_number": "17752159384  ", "longitude": "102.638806", "latitude": "37.945445"}, {"title": "屯留-秦俊科", "address": "山西省长治市屯留县东盛物流市场北C区7号", "jindu": "112.912682", "weidu": "36.324871", "address2": "地址：山西省长治市屯留县东盛物流市场北C区7号", "phone_number": "13994663223", "longitude": "112.912682", "latitude": "36.324871"}, {"title": "潞城-黄王伟", "address": "山西省长治市潞城市商贸广场科翔壁纸专卖店", "jindu": "113.224169", "weidu": "36.331214", "address2": "地址：山西省长治市潞城市商贸广场科翔壁纸专卖店", "phone_number": "13100156999", "longitude": "113.224169", "latitude": "36.331214"}, {"title": "新绛-万华亮", "address": "山西省运城市新绛县学府康城B区2号科翔壁纸", "jindu": "111.222245", "weidu": "35.631375", "address2": "地址：山西省运城市新绛县学府康城B区2号科翔壁纸", "phone_number": "13133390859", "longitude": "111.222245", "latitude": "35.631375"}, {"title": "阳城-张星旺", "address": "山西省晋城市阳城县山水建材市场", "jindu": "112.411219", "weidu": "35.494431", "address2": "地址：山西省晋城市阳城县山水建材市场", "phone_number": "13835632868", "longitude": "112.411219", "latitude": "35.494431"}, {"title": "介休-姜玲", "address": "山西省介休市新建西路八中门口东第一家", "jindu": "114.283205", "weidu": "39.768889", "address2": "地址：山西省介休市新建西路八中门口东第一家", "phone_number": "13834857266", "longitude": "114.283205", "latitude": "39.768889"}, {"title": "忻州-赵正云", "address": "山西省忻州市现代装饰城中1排2号", "jindu": "113.575133", "weidu": "39.263534", "address2": "地址：山西省忻州市现代装饰城中1排2号", "phone_number": "18607738343", "longitude": "113.575133", "latitude": "39.263534"}, {"title": "临汾-崔如意", "address": "山西省临汾市襄汾县w海建材市场北门艺家美装饰E区一号 ", "jindu": "111.430772", "weidu": "35.885272", "address2": "地址：山西省临汾市襄汾县w海建材市场北门艺家美装饰E区一号 ", "phone_number": "18636719333 ", "longitude": "111.430772", "latitude": "35.885272"}, {"title": "侯马-杨倩", "address": "山西省临汾地区侯马市中天建材6_201科翔壁纸", "jindu": "35.619632", "weidu": "111.391901", "address2": "地址：山西省临汾地区侯马市中天建材6_201科翔壁纸", "phone_number": "0357-4214040", "longitude": "35.619632", "latitude": "111.391901"}, {"title": "武乡-张卫东", "address": "山西省长治市武乡县红星杨C区煌明生活馆科翔壁纸专卖店", "jindu": "36.827484", "weidu": "112.863128", "address2": "地址：山西省长治市武乡县红星杨C区煌明生活馆科翔壁纸专卖店", "phone_number": "0355-8143999", "longitude": "36.827484", "latitude": "112.863128"}, {"title": "朔州-张凤梅", "address": "山西省朔州市豪德广场7街143号", "jindu": "39.324060", "weidu": "112.413211", "address2": "地址：山西省朔州市豪德广场7街143号", "phone_number": "0349-6663522", "longitude": "39.324060", "latitude": "112.413211"}, {"title": "无为县-章祥", "address": "安徽芜湖无为县建材大市场A3栋116号", "jindu": "117.944964", "weidu": "31.297155", "address2": "地址：安徽芜湖无为县建材大市场A3栋116号", "phone_number": "18055385899", "longitude": "117.944964", "latitude": "31.297155"}, {"title": "宁国-王歆梓", "address": "宁国市光彩大市场二期光彩城10号大卫地板", "jindu": "119.239743", "weidu": "30.47826", "address2": "地址：宁国市光彩大市场二期光彩城10号大卫地板", "phone_number": "13966213182", "longitude": "119.239743", "latitude": "30.47826"}, {"title": "屯溪区-吴芽奇", "address": "黄山市屯溪区展望家居广场C区51-53号科翔壁纸", "jindu": "118.328334", "weidu": "29.713751", "address2": "地址：黄山市屯溪区展望家居广场C区51-53号科翔壁纸", "phone_number": "13295599082", "longitude": "118.328334", "latitude": "29.713751"}, {"title": "黄山-杜春柳", "address": "黄山市裕轩花园S-4号商铺", "jindu": "118.144041", "weidu": "30.294302", "address2": "地址：黄山市裕轩花园S-4号商铺", "phone_number": "13965518955", "longitude": "118.144041", "latitude": "30.294302"}, {"title": "泗县-刘文峰", "address": "泗县西关国际装饰城A6排", "jindu": "117.880655", "weidu": "33.472234", "address2": "地址：泗县西关国际装饰城A6排", "phone_number": "18805527700", "longitude": "117.880655", "latitude": "33.472234"}, {"title": "灵璧-沈奇", "address": "安徽省宿州市灵璧县南都商街中段路西科翔壁纸", "jindu": "117.57093", "weidu": "33.54221", "address2": "地址：安徽省宿州市灵璧县南都商街中段路西科翔壁纸", "phone_number": "18712123321", "longitude": "117.57093", "latitude": "33.54221"}, {"title": "太和-刘永彬", "address": "安徽阜阳太和县太和世家7栋103号科翔壁纸", "jindu": "117.292218", "weidu": "31.867312", "address2": "地址：安徽阜阳太和县太和世家7栋103号科翔壁纸", "phone_number": "15755833738", "longitude": "117.292218", "latitude": "31.867312"}, {"title": "宁国-王歆梓", "address": "宁国市光彩大市场二期光彩城10号", "jindu": "118.975691", "weidu": "30.599868", "address2": "地址：宁国市光彩大市场二期光彩城10号", "phone_number": "13966213182", "longitude": "118.975691", "latitude": "30.599868"}, {"title": "屯溪区-吴芽奇", "address": "展望家居广场C区51-53号科翔壁纸", "jindu": "118.329935", "weidu": "29.713927", "address2": "地址：展望家居广场C区51-53号科翔壁纸", "phone_number": "13295599082", "longitude": "118.329935", "latitude": "29.713927"}, {"title": "黄山区-杜春柳", "address": "黄山市裕轩花园S-4号商铺", "jindu": "118.144041", "weidu": "30.294302", "address2": "地址：黄山市裕轩花园S-4号商铺", "phone_number": "13965518955", "longitude": "118.144041", "latitude": "30.294302"}, {"title": "泗县-刘文峰", "address": "泗县西关国际装饰城A6排", "jindu": "117.880655", "weidu": "33.472234", "address2": "地址：泗县西关国际装饰城A6排", "phone_number": "18805527700", "longitude": "117.880655", "latitude": "33.472234"}, {"title": "灵璧-沈奇", "address": "安徽省宿州市灵璧县南都商街中段路西科翔壁纸", "jindu": "117.57093", "weidu": "33.54221", "address2": "地址：安徽省宿州市灵璧县南都商街中段路西科翔壁纸", "phone_number": "18712123321", "longitude": "117.57093", "latitude": "33.54221"}, {"title": "太和-刘永彬", "address": "太和世家7栋103号科翔壁纸", "jindu": "115.632454", "weidu": "33.17242", "address2": "地址：太和世家7栋103号科翔壁纸", "phone_number": "15755833738", "longitude": "115.632454", "latitude": "33.17242"}, {"title": "蒙城-张峰", "address": "蒙城建材城7号122科翔壁纸", "jindu": "116.57674", "weidu": "33.245863", "address2": "地址：蒙城建材城7号122科翔壁纸", "phone_number": "13955812108", "longitude": "116.57674", "latitude": "33.245863"}, {"title": "界首-张云龙", "address": "安徽省界首市中南商贸城翠园路88号科翔壁纸专卖店", "jindu": "115.377621", "weidu": "33.258386", "address2": "地址：安徽省界首市中南商贸城翠园路88号科翔壁纸专卖店", "phone_number": "15255890587", "longitude": "115.377621", "latitude": "33.258386"}, {"title": "滁州-杨二波", "address": "安徽省滁州市明光星光商贸城11栋28号", "jindu": "118.041782", "weidu": "32.784181", "address2": "地址：安徽省滁州市明光星光商贸城11栋28号", "phone_number": "15256694233", "longitude": "118.041782", "latitude": "32.784181"}, {"title": "庐阳-任彬彬", "address": "庐阳区四里河路红星美凯龙5楼", "jindu": "117.251033", "weidu": "31.886517", "address2": "地址：庐阳区四里河路红星美凯龙5楼", "phone_number": "18963785681", "longitude": "117.251033", "latitude": "31.886517"}, {"title": "怀宁-刘浩", "address": "安庆市怀宁星河一品门面房", "jindu": "116.838928", "weidu": "30.747308", "address2": "地址：安庆市怀宁星河一品门面房", "phone_number": "15155676130", "longitude": "116.838928", "latitude": "30.747308"}, {"title": "安庆-毛忠", "address": "安徽省安庆市通配建材市场4楼", "jindu": "117.073808", "weidu": "30.564208", "address2": "地址：安徽省安庆市通配建材市场4楼", "phone_number": "13866060595", "longitude": "117.073808", "latitude": "30.564208"}, {"title": "萧县-郝惠", "address": "安徽省萧县浙商大市场C4#103", "jindu": "116.960966", "weidu": "34.172666", "address2": "地址：安徽省萧县浙商大市场C4#103", "phone_number": "18133253303", "longitude": "116.960966", "latitude": "34.172666"}, {"title": "天长-王文学", "address": "天长市外贸装饰城南门ZA-1科翔壁纸专卖店", "jindu": "118.972913", "weidu": "32.721214", "address2": "地址：天长市外贸装饰城南门ZA-1科翔壁纸专卖店", "phone_number": "13155031163", "longitude": "118.972913", "latitude": "32.721214"}, {"title": "博望-蒋霞", "address": "安徽省马鞍山市博望区紫金城5#楼", "jindu": "118.843889", "weidu": "31.570602", "address2": "地址：安徽省马鞍山市博望区紫金城5#楼", "phone_number": "13855520578", "longitude": "118.843889", "latitude": "31.570602"}, {"title": "铜陵-何丽", "address": "安徽省铜陵大市场五金卫浴区7B04", "jindu": "117.846112", "weidu": "30.943065", "address2": "地址：安徽省铜陵大市场五金卫浴区7B04", "phone_number": "13856214722", "longitude": "117.846112", "latitude": "30.943065"}, {"title": "桐城-陈素玲 ", "address": "安徽省桐城市丽达装饰城", "jindu": "116.974885", "weidu": "31.072437", "address2": "地址：安徽省桐城市丽达装饰城", "phone_number": "13855614287", "longitude": "116.974885", "latitude": "31.072437"}, {"title": "霍邱-刘宝", "address": "安徽省霍邱县建新北路科翔壁纸", "jindu": "116.289194", "weidu": "32.346695", "address2": "地址：安徽省霍邱县建新北路科翔壁纸", "phone_number": "15324571711", "longitude": "116.289194", "latitude": "32.346695"}, {"title": "阜阳-张华", "address": "安徽省阜阳市双龙桥港利绿源1号楼107（联华超市隔壁）", "jindu": "115.636066", "weidu": "33.157681", "address2": "地址：安徽省阜阳市双龙桥港利绿源1号楼107（联华超市隔壁）", "phone_number": "13855802139", "longitude": "115.636066", "latitude": "33.157681"}, {"title": "亳州-薛松峰", "address": "安徽省亳州市建材街中段路北109号", "jindu": "115.790261", "weidu": "33.870239", "address2": "地址：安徽省亳州市建材街中段路北109号", "phone_number": "13156789001", "longitude": "115.790261", "latitude": "33.870239"}, {"title": "阜南-李德胜", "address": "安徽省阜南县曹集北路百联徽韵南50米路东", "jindu": "115.595176", "weidu": "32.639587", "address2": "地址：安徽省阜南县曹集北路百联徽韵南50米路东", "phone_number": "13965709310", "longitude": "115.595176", "latitude": "32.639587"}, {"title": "固镇-顾明辉", "address": "安徽省固镇县装饰城西街区768号", "jindu": "117.336989", "weidu": "33.328554", "address2": "地址：安徽省固镇县装饰城西街区768号", "phone_number": "13865094440", "longitude": "117.336989", "latitude": "33.328554"}, {"title": "池州-钱森", "address": "安徽省池州市贵池区豪丰家居二期108号", "jindu": "117.523679", "weidu": "30.624891", "address2": "地址：安徽省池州市贵池区豪丰家居二期108号", "phone_number": "0566-3206261", "longitude": "117.523679", "latitude": "30.624891"}, {"title": "六安-王朝有", "address": "安徽省六安市顺达大市场7#108号", "jindu": "116.488089", "weidu": "31.732356", "address2": "地址：安徽省六安市顺达大市场7#108号", "phone_number": "0564-3339796", "longitude": "116.488089", "latitude": "31.732356"}, {"title": "金寨-储友福", "address": "安徽省六安市金寨县毓秀家具城4栋B区121-122号", "jindu": "115.938412", "weidu": "31.717342", "address2": "地址：安徽省六安市金寨县毓秀家具城4栋B区121-122号", "phone_number": "18792000085", "longitude": "115.938412", "latitude": "31.717342"}, {"title": "界首-张云龙", "address": "安徽省界首市中南商贸城翠园路88号科翔壁纸专卖店", "jindu": "115.380774", "weidu": "33.274443", "address2": "地址：安徽省界首市中南商贸城翠园路88号科翔壁纸专卖店", "phone_number": "0558-2835518", "longitude": "115.380774", "latitude": "33.274443"}, {"title": "当涂-杨智", "address": "安徽省当涂县青莲中路257-259号", "jindu": "118.53116", "weidu": "31.569431", "address2": "地址：安徽省当涂县青莲中路257-259号", "phone_number": "0555-6726639", "longitude": "118.53116", "latitude": "31.569431"}, {"title": "繁昌-刘玲", "address": "安徽省繁昌县渡江大道富鑫园小区38号门面", "jindu": "118.206066", "weidu": "31.094995", "address2": "地址：安徽省繁昌县渡江大道富鑫园小区38号门面", "phone_number": "0553-7865553", "longitude": "118.206066", "latitude": "31.094995"}, {"title": "芜湖-陈胜明", "address": "安徽省芜湖市中南建材城3栋13-15号", "jindu": "118.37543", "weidu": "31.317655", "address2": "地址：安徽省芜湖市中南建材城3栋13-15号", "phone_number": "0553-2911877", "longitude": "118.37543", "latitude": "31.317655"}, {"title": "蚌埠-徐增江", "address": "安徽省蚌埠光彩大市场四区四栋18号", "jindu": "117.366572", "weidu": "32.92084", "address2": "地址：安徽省蚌埠光彩大市场四区四栋18号", "phone_number": "0552-2117099", "longitude": "117.366572", "latitude": "32.92084"}, {"title": "全椒-胡运丰", "address": "安徽省全椒县南屏路盛大装饰城7幢7108号科翔壁纸", "jindu": "118.275577", "weidu": "32.070093", "address2": "地址：安徽省全椒县南屏路盛大装饰城7幢7108号科翔壁纸", "phone_number": "13956291482", "longitude": "118.275577", "latitude": "32.070093"}, {"title": "定远-郑义洪", "address": "安徽省定远县迎宾东路示范街", "jindu": "117.699071", "weidu": "32.530392", "address2": "地址：安徽省定远县迎宾东路示范街", "phone_number": "18705505607", "longitude": "117.699071", "latitude": "32.530392"}, {"title": "昌平区-张士宽", "address": "北京市昌平区瑞然得家居展示中心二层，2012，2019号。", "jindu": "116.232851", "weidu": "40.200806", "address2": "地址：北京市昌平区瑞然得家居展示中心二层，2012，2019号。", "phone_number": "18910225286", "longitude": "116.232851", "latitude": "40.200806"}]