[{"id": 71229, "name": "楷模家具馆（厦门独立店）", "address": "厦门市湖里区长浩路6号楷模家居生活馆", "phone_number": "0592-5686246", "longitude": "118.11464", "latitude": "24.525938", "preview_image": "shop-images/1268/71229/1.jpg,shop-images/1268/71229/2.jpg,shop-images/1268/71229/3.jpg,shop-images/1268/71229/4.jpg"}, {"id": 71230, "name": "楷模独立店（东莞东城店）", "address": "东莞市东城区东纵路花样年华国际家居广场一楼", "phone_number": "0769-23073914", "longitude": "113.785313", "latitude": "23.044886", "preview_image": "shop-images/1268/71230/1.jpg,shop-images/1268/71230/2.jpg,shop-images/1268/71230/3.jpg,shop-images/1268/71230/4.jpg,shop-images/1268/71230/5.jpg"}, {"id": 71231, "name": "楷模综合店（世博园店）", "address": "东莞市厚街镇名家居世博园9号馆1A09-10~5A09-10", "phone_number": "0769-85981611-605", "longitude": "113.66", "latitude": "22.91", "preview_image": "shop-images/1268/71231/1.jpg,shop-images/1268/71231/2.jpg,shop-images/1268/71231/3.jpg"}, {"id": 71232, "name": "楷模家居生活馆（驻马店独立店）", "address": "驻马店市置地大道和乐山路交叉口向西500米路北", "phone_number": "0396-3819555", "longitude": "114.03", "latitude": "33.01", "preview_image": "shop-images/1268/71232/1.jpg,shop-images/1268/71232/2.jpg,shop-images/1268/71232/3.jpg,shop-images/1268/71232/4.jpg,shop-images/1268/71232/5.jpg,shop-images/1268/71232/6.jpg"}, {"id": 71233, "name": "楷模拿铁（福州三迪红星店）", "address": "福州市台江区工业路173号三迪红星美凯龙4楼F8035拿铁家居", "phone_number": "15060125012", "longitude": "119.300901", "latitude": "26.067724", "preview_image": "shop-images/1268/71233/1.jpg,shop-images/1268/71233/2.jpg,shop-images/1268/71233/3.jpg,shop-images/1268/71233/4.jpg,shop-images/1268/71233/5.jpg,shop-images/1268/71233/6.jpg"}, {"id": 71234, "name": "汶水楷模（上海红星美凯龙汶水店）", "address": "上海市宝山区汶水路1555号红星美凯龙三楼楷模家具", "phone_number": "021-61497599", "longitude": "121.427585", "latitude": "31.294757", "preview_image": "shop-images/1268/71234/1.jpg,shop-images/1268/71234/2.jpg,shop-images/1268/71234/3.jpg,shop-images/1268/71234/4.jpg,shop-images/1268/71234/5.jpg,shop-images/1268/71234/6.jpg"}, {"id": 71235, "name": "楷模(兰州居然之家万佳天水路店)", "address": "兰州市城关区天水路北口居然之家万佳店三楼    楷模专卖店", "phone_number": "0931-8523091", "longitude": "103.870226", "latitude": "36.07729", "preview_image": "shop-images/1268/71235/1.jpg,shop-images/1268/71235/2.jpg,shop-images/1268/71235/3.jpg,shop-images/1268/71235/4.jpg,shop-images/1268/71235/5.jpg,shop-images/1268/71235/6.jpg"}, {"id": 71236, "name": "大普（上海红星美凯龙汶水店）", "address": "上海市宝山区汶水路1555号红星美凯龙三楼 大普", "phone_number": "021-61497669", "longitude": "121.43", "latitude": "31.29", "preview_image": "shop-images/1268/71236/1.jpg,shop-images/1268/71236/2.jpg,shop-images/1268/71236/3.jpg,shop-images/1268/71236/4.jpg,shop-images/1268/71236/5.jpg"}, {"id": 71237, "name": "楷模（上海红星美凯龙金桥店）", "address": "浦东新区金藏路58号(近浙桥路)三楼c8030-c8052楷模", "phone_number": "021-50766697", "longitude": "121.602065", "latitude": "31.257388", "preview_image": "shop-images/1268/71237/1.jpg,shop-images/1268/71237/2.jpg,shop-images/1268/71237/3.jpg,shop-images/1268/71237/4.jpg,shop-images/1268/71237/5.jpg"}, {"id": 71238, "name": "拿铁（上海红星美凯龙真北店）", "address": "普陀区真北路1108号红星美凯龙南馆三楼c8097拿铁", "phone_number": "021-32510718", "longitude": "121.392643", "latitude": "31.24583", "preview_image": "shop-images/1268/71238/1.jpg,shop-images/1268/71238/2.jpg,shop-images/1268/71238/3.jpg,shop-images/1268/71238/4.jpg"}, {"id": 71239, "name": "楷模 普术 希奢（上海红星美凯龙沪南综合店）", "address": "沪南路2178号红星美凯龙3楼C8065号、C8066、C8067、C8055、C8056、C8057展位", "phone_number": "021-20257571", "longitude": "121.57", "latitude": "31.16", "preview_image": "shop-images/1268/71239/1.jpg,shop-images/1268/71239/2.jpg,shop-images/1268/71239/3.jpg,shop-images/1268/71239/4.jpg"}, {"id": 71240, "name": "楷模独立店（佛山家博城独立店）", "address": "佛山市禅城区佛山大道南澜石大桥家博城B座楷模家具1―4楼", "phone_number": "15818063292", "longitude": "113.11", "latitude": "22.99", "preview_image": "shop-images/1268/71240/1.jpg,shop-images/1268/71240/2.jpg,shop-images/1268/71240/3.jpg,shop-images/1268/71240/4.jpg,shop-images/1268/71240/5.jpg,shop-images/1268/71240/6.jpg"}, {"id": 71241, "name": "楷模大术（兰州居然之家万佳天水路店）", "address": "兰州市城关区天水路北口居然万佳天水路店5楼    大术专卖店", "phone_number": "0931-8501298", "longitude": "103.870226", "latitude": "36.07729", "preview_image": "shop-images/1268/71241/1.jpg,shop-images/1268/71241/2.jpg,shop-images/1268/71241/3.jpg,shop-images/1268/71241/4.jpg,shop-images/1268/71241/5.jpg,shop-images/1268/71241/6.jpg"}, {"id": 71242, "name": "楷模圣萝莎（兰州居然之家万佳天水路店）", "address": "兰州市城关区天水路北口居然之家万佳天水路店3楼     圣萝莎定制店", "phone_number": "0931-4616049", "longitude": "103.871245", "latitude": "36.076654", "preview_image": "shop-images/1268/71242/1.jpg,shop-images/1268/71242/2.jpg,shop-images/1268/71242/3.jpg,shop-images/1268/71242/4.jpg"}, {"id": 71243, "name": "大普拿铁综合店（兰州居然之家万佳天水路店）", "address": "兰州市城关区天水路北口居然之家万佳店1楼   大普拿铁综合店", "phone_number": "0931-8503863", "longitude": "103.870226", "latitude": "36.07729", "preview_image": "shop-images/1268/71243/1.jpg,shop-images/1268/71243/2.jpg,shop-images/1268/71243/3.jpg,shop-images/1268/71243/4.jpg,shop-images/1268/71243/5.jpg,shop-images/1268/71243/6.jpg"}, {"id": 71244, "name": "楷模独立店（上海红星美凯龙浦江店）", "address": "上海市闵行区浦星公路1969号红星美凯龙", "phone_number": "021-34786181", "longitude": "121.517264", "latitude": "31.082666", "preview_image": "shop-images/1268/71244/1.jpg,shop-images/1268/71244/2.jpg,shop-images/1268/71244/3.jpg,shop-images/1268/71244/4.jpg,shop-images/1268/71244/5.jpg,shop-images/1268/71244/6.jpg"}, {"id": 71245, "name": "大普（重庆铠恩国际店）", "address": "重庆市巴南区八公里铠恩国际家居名都A馆一楼A1066、1067", "phone_number": "023-62412268", "longitude": "106.572611", "latitude": "29.484209", "preview_image": "shop-images/1268/71245/1.jpg,shop-images/1268/71245/2.jpg,shop-images/1268/71245/3.jpg,shop-images/1268/71245/4.jpg,shop-images/1268/71245/5.jpg,shop-images/1268/71245/6.jpg"}, {"id": 71246, "name": "大普（上海红星美凯龙真北店）", "address": "普陀区真北路1108号红星美凯龙南馆三楼C8190-C8198大普", "phone_number": "021-32510117", "longitude": "121.39", "latitude": "31.24", "preview_image": "shop-images/1268/71246/1.jpg,shop-images/1268/71246/2.jpg,shop-images/1268/71246/3.jpg,shop-images/1268/71246/4.jpg"}, {"id": 71247, "name": "楷模拿铁大普（德阳居然之家恒大店）", "address": "德阳市旌阳区长江西路下穿桥头恒大居然之家二楼2-2003", "phone_number": "0838--2853611", "longitude": "104.37", "latitude": "31.14", "preview_image": "shop-images/1268/71247/1.jpg,shop-images/1268/71247/2.jpg,shop-images/1268/71247/3.jpg,shop-images/1268/71247/4.jpg,shop-images/1268/71247/5.jpg,shop-images/1268/71247/6.jpg"}, {"id": 71248, "name": "楷模家具生活馆（韶关楷模店）", "address": "广东省韶关市浈江区南郊2.5公里金海马家居一、二楼", "phone_number": "0751-8282136", "longitude": "113.59738", "latitude": "24.784496", "preview_image": "shop-images/1268/71248/1.jpg,shop-images/1268/71248/2.jpg,shop-images/1268/71248/3.jpg,shop-images/1268/71248/4.jpg,shop-images/1268/71248/5.jpg,shop-images/1268/71248/6.jpg"}, {"id": 71249, "name": "楷模家具生活馆（包头店）", "address": "包头市昆区友谊大街与市府东路交叉口南50米", "phone_number": "0472-6182228/15848872228", "longitude": "109.85", "latitude": "40.65", "preview_image": "shop-images/1268/71249/1.jpg,shop-images/1268/71249/2.jpg,shop-images/1268/71249/3.jpg,shop-images/1268/71249/4.jpg,shop-images/1268/71249/5.jpg,shop-images/1268/71249/6.jpg"}, {"id": 71250, "name": "楷模圣萝莎（上海红星美凯龙汶水店）", "address": "上海市宝山区汶水路1555号3楼C8119", "phone_number": "021-61497109", "longitude": "121.43", "latitude": "31.29", "preview_image": "shop-images/1268/71250/1.jpg,shop-images/1268/71250/2.jpg"}, {"id": 71251, "name": "楷模大普(六安红星美凯龙店）", "address": "安徽省六安市裕安区佛子岭西路红星美凯龙A馆三楼楷模大普家具", "phone_number": "0564-5152678", "longitude": "116.490046", "latitude": "31.729546", "preview_image": "shop-images/1268/71251/1.jpg,shop-images/1268/71251/2.jpg,shop-images/1268/71251/3.jpg,shop-images/1268/71251/4.jpg,shop-images/1268/71251/5.jpg,shop-images/1268/71251/6.jpg"}, {"id": 71252, "name": "楷模拿铁（广州番禺吉盛伟邦店）", "address": "广州市迎宾路万博中心吉盛伟邦E馆103-105号", "phone_number": "13632315369", "longitude": "113.35", "latitude": "23.01", "preview_image": "shop-images/1268/71252/1.jpg,shop-images/1268/71252/2.jpg,shop-images/1268/71252/3.jpg,shop-images/1268/71252/4.jpg,shop-images/1268/71252/5.jpg,shop-images/1268/71252/6.jpg"}, {"id": 71253, "name": "大普(乌海红星美凯龙店)", "address": "乌海海勃湾区林荫大道红星美凯龙三楼中厅西大普家具", "phone_number": "0473-6151511", "longitude": "106.8291", "latitude": "39.707765", "preview_image": "shop-images/1268/71253/1.jpg,shop-images/1268/71253/2.jpg,shop-images/1268/71253/3.jpg,shop-images/1268/71253/4.jpg,shop-images/1268/71253/5.jpg,shop-images/1268/71253/6.jpg"}, {"id": 71254, "name": "楷模家居生活馆（万州店）", "address": "重庆市万州区江南新区南滨大道滨江一号A区楷模家居生活馆", "phone_number": "023-58551911", "longitude": "108.423821", "latitude": "30.823418", "preview_image": "shop-images/1268/71254/1.jpg,shop-images/1268/71254/2.jpg,shop-images/1268/71254/3.jpg,shop-images/1268/71254/4.jpg,shop-images/1268/71254/5.jpg"}, {"id": 71255, "name": "楷模独立店（辽宁葫芦岛独立店）", "address": "葫芦岛市龙港区龙程街富都花园门市", "phone_number": "0429-2863333", "longitude": "120.88", "latitude": "40.74", "preview_image": "shop-images/1268/71255/1.jpg,shop-images/1268/71255/2.jpg,shop-images/1268/71255/3.jpg,shop-images/1268/71255/4.jpg,shop-images/1268/71255/5.jpg"}, {"id": 71256, "name": "大普（运城大明宫家居店）", "address": "运城市禹都大道大明宫家居一楼B道中段大普店", "phone_number": "0359-2588707", "longitude": "111.019984", "latitude": "35.055756", "preview_image": "shop-images/1268/71256/1.jpg,shop-images/1268/71256/2.jpg,shop-images/1268/71256/3.jpg,shop-images/1268/71256/4.jpg"}, {"id": 71257, "name": "楷模大普（天津静海红星美凯龙店）", "address": "天津市静海区朝阳道与华北路交口红星美凯龙3楼B馆楷模家具", "phone_number": "022-68962911", "longitude": "116.974881", "latitude": "38.964529", "preview_image": "shop-images/1268/71257/1.jpg,shop-images/1268/71257/2.jpg,shop-images/1268/71257/3.jpg,shop-images/1268/71257/4.jpg"}, {"id": 71258, "name": "楷模家具生活馆(十堰红星旗舰店)", "address": "十堰市 张湾区  浙江路 红星美凯龙右门厅", "phone_number": "0719-8454288", "longitude": "110.82", "latitude": "32.64", "preview_image": "shop-images/1268/71258/1.jpg,shop-images/1268/71258/2.jpg,shop-images/1268/71258/3.jpg,shop-images/1268/71258/4.jpg,shop-images/1268/71258/5.jpg,shop-images/1268/71258/6.jpg"}, {"id": 71259, "name": "楷模（平顶山太阳城店）", "address": "平顶山市新华区中兴路与建设路交叉口太阳城商厦4楼", "phone_number": "03752208512", "longitude": "113.313026", "latitude": "33.742816", "preview_image": "shop-images/1268/71259/1.jpg,shop-images/1268/71259/2.jpg,shop-images/1268/71259/3.jpg,shop-images/1268/71259/4.jpg,shop-images/1268/71259/5.jpg"}, {"id": 71260, "name": "楷模独立店（西安北大明宫钻石店）", "address": "北二环太华路立交东南角北大明宫钻石店西门负一到三楼，总共四层", "phone_number": "15082016000/15771930558", "longitude": "116.42", "latitude": "39.95", "preview_image": "shop-images/1268/71260/1.jpg,shop-images/1268/71260/2.jpg,shop-images/1268/71260/3.jpg,shop-images/1268/71260/4.jpg,shop-images/1268/71260/5.jpg"}, {"id": 71261, "name": "楷模（上海红星美凯龙真北店）", "address": "上海市普陀区真北路1108号红星美凯龙环球家具设计博览中心南馆三楼C8086楷模", "phone_number": "021-32510769", "longitude": "121.39", "latitude": "31.24", "preview_image": "shop-images/1268/71261/1.jpg,shop-images/1268/71261/2.jpg,shop-images/1268/71261/3.jpg,shop-images/1268/71261/4.jpg,shop-images/1268/71261/5.jpg,shop-images/1268/71261/6.jpg"}, {"id": 71262, "name": "楷模综合店（西安西沣路阿姆瑞特店）", "address": "西安市高新区新型工业园时代广场南阿姆瑞特家居商业中心二楼电梯口", "phone_number": "029-88889118", "longitude": "108.875908", "latitude": "34.172354", "preview_image": "shop-images/1268/71262/1.jpg,shop-images/1268/71262/2.jpg,shop-images/1268/71262/3.jpg,shop-images/1268/71262/4.jpg,shop-images/1268/71262/5.jpg,shop-images/1268/71262/6.jpg"}, {"id": 71263, "name": "楷模大普（延安居然之家店）", "address": "延安市宝塔区百米大道尹家沟居然之家四楼4-12", "phone_number": "0911-8891029", "longitude": "109.51", "latitude": "36.62", "preview_image": "shop-images/1268/71263/1.jpg,shop-images/1268/71263/2.jpg,shop-images/1268/71263/3.jpg,shop-images/1268/71263/4.jpg,shop-images/1268/71263/5.jpg"}, {"id": 71264, "name": "楷模（安康大明宫店）", "address": "安康市汉滨区大明宫建材市场", "phone_number": "0915-8889985", "longitude": "109.04", "latitude": "32.69", "preview_image": "shop-images/1268/71264/1.jpg,shop-images/1268/71264/2.jpg,shop-images/1268/71264/3.jpg,shop-images/1268/71264/4.jpg"}, {"id": 71265, "name": "楷模（广州番禺吉盛伟邦店）", "address": "广州市番禺区吉盛伟邦D馆203", "phone_number": "020-39950018", "longitude": "113.348218", "latitude": "23.013147", "preview_image": "shop-images/1268/71265/1.jpg,shop-images/1268/71265/2.jpg,shop-images/1268/71265/3.jpg"}, {"id": 71266, "name": "楷模大普（许昌长江店）", "address": "许昌市天宝路与龙翔路口交叉路口长江国际二楼楷模居品", "phone_number": "0374-2672555", "longitude": "113.6724", "latitude": "34.170316", "preview_image": "shop-images/1268/71266/1.jpg,shop-images/1268/71266/2.jpg,shop-images/1268/71266/3.jpg,shop-images/1268/71266/4.jpg,shop-images/1268/71266/5.jpg,shop-images/1268/71266/6.jpg"}, {"id": 71267, "name": "拿铁(运城居然之家店）", "address": "山西省运城市盐湖区涑水街与安中路交汇处居然之家二楼电梯口对面2048号展位", "phone_number": "0359-2405996", "longitude": "111.032485", "latitude": "35.085255", "preview_image": "shop-images/1268/71267/1.jpg,shop-images/1268/71267/2.jpg,shop-images/1268/71267/3.jpg,shop-images/1268/71267/4.jpg"}, {"id": 71268, "name": "楷模大普（广州番禺吉盛伟邦店）", "address": "广州番禺迎宾大道万博中心吉盛伟邦D203-D205", "phone_number": "020-39950018", "longitude": "113.35", "latitude": "23.01", "preview_image": "shop-images/1268/71268/1.jpg,shop-images/1268/71268/2.jpg,shop-images/1268/71268/3.jpg,shop-images/1268/71268/4.jpg,shop-images/1268/71268/5.jpg,shop-images/1268/71268/6.jpg"}, {"id": 71269, "name": "楷模(乌海月星店)", "address": "乌海市海勃湾区建设路月星家具三楼中厅", "phone_number": "0473-2012311", "longitude": "106.818775", "latitude": "39.677652", "preview_image": "shop-images/1268/71269/1.jpg,shop-images/1268/71269/2.jpg,shop-images/1268/71269/3.jpg,shop-images/1268/71269/4.jpg,shop-images/1268/71269/5.jpg,shop-images/1268/71269/6.jpg"}, {"id": 71270, "name": "楷模家居生活馆（宝鸡店）", "address": "宝鸡市金台区大庆路万祥尚锦楼下", "phone_number": "0917-3138801", "longitude": "107.235545", "latitude": "34.369726", "preview_image": "shop-images/1268/71270/1.jpg,shop-images/1268/71270/2.jpg,shop-images/1268/71270/3.jpg,shop-images/1268/71270/4.jpg,shop-images/1268/71270/5.jpg,shop-images/1268/71270/6.jpg"}, {"id": 71271, "name": "大普家具（重庆居然之家金源店）", "address": "重庆市江北区北滨路居然之家2楼E-2015 大普家具", "phone_number": "023-86359930", "longitude": "106.533503", "latitude": "29.562122", "preview_image": "shop-images/1268/71271/1.jpg,shop-images/1268/71271/2.jpg,shop-images/1268/71271/3.jpg,shop-images/1268/71271/4.jpg,shop-images/1268/71271/5.jpg,shop-images/1268/71271/6.jpg"}, {"id": 71272, "name": "楷模综合店(乌鲁木齐万佳店)", "address": "乌鲁木齐新市区苏州路美居物流园H座万佳国际家居1A01大普，1A04楷模拿铁，3A05大术。华凌B楼三楼D区3-07,4-08楷模。", "phone_number": "0991-6641628", "longitude": "87.59028", "latitude": "43.868644", "preview_image": "shop-images/1268/71272/1.jpg,shop-images/1268/71272/2.jpg,shop-images/1268/71272/3.jpg,shop-images/1268/71272/4.jpg"}, {"id": 71273, "name": "楷模独立店（商丘店）", "address": "商丘市梁园区民主路毛主席像中环广场", "phone_number": "0370-2901696", "longitude": "115.657177", "latitude": "34.446623", "preview_image": "shop-images/1268/71273/1.jpg,shop-images/1268/71273/2.jpg,shop-images/1268/71273/3.jpg,shop-images/1268/71273/4.jpg,shop-images/1268/71273/5.jpg,shop-images/1268/71273/6.jpg"}, {"id": 71274, "name": "楷模大普（西安红星太白店）", "address": "碑林区太白路立交红星美凯龙4F-2-007", "phone_number": "029-61862962", "longitude": "108.930191", "latitude": "34.240864", "preview_image": "shop-images/1268/71274/1.jpg,shop-images/1268/71274/2.jpg,shop-images/1268/71274/3.jpg"}, {"id": 71275, "name": "独立店（成都北富森店）", "address": "成都市成华区将军碑68号富森美家居独立店步行街AD7-AD8", "phone_number": "028-61157513", "longitude": "104.11", "latitude": "30.73", "preview_image": "shop-images/1268/71275/1.jpg,shop-images/1268/71275/2.jpg,shop-images/1268/71275/3.jpg,shop-images/1268/71275/4.jpg,shop-images/1268/71275/5.jpg,shop-images/1268/71275/6.jpg"}, {"id": 71276, "name": "楷模大普拿铁(柳州美联店）", "address": "柳州市鱼峰山美联家居4楼A区楷模、大普、拿铁", "phone_number": "0772-3803811", "longitude": "109.42", "latitude": "24.31", "preview_image": "shop-images/1268/71276/1.jpg,shop-images/1268/71276/2.jpg,shop-images/1268/71276/3.jpg,shop-images/1268/71276/4.jpg,shop-images/1268/71276/5.jpg,shop-images/1268/71276/6.jpg"}, {"id": 71277, "name": "楷模大普拿铁综合店（红星美凯龙玉泉店）", "address": "呼和浩特市玉泉区红星美凯龙玉泉店四楼楷模大普拿铁综合店", "phone_number": "0471-2896100", "longitude": "111.658554", "latitude": "40.747387", "preview_image": "shop-images/1268/71277/1.jpg,shop-images/1268/71277/2.jpg,shop-images/1268/71277/3.jpg,shop-images/1268/71277/4.jpg,shop-images/1268/71277/5.jpg"}, {"id": 71278, "name": "楷模全屋定制（广州番禺吉盛伟邦店）", "address": "广州市番禺区迎宾路万博中心吉盛伟邦F馆215", "phone_number": "020-39952332", "longitude": "113.35", "latitude": "23.01", "preview_image": "shop-images/1268/71278/1.jpg,shop-images/1268/71278/2.jpg,shop-images/1268/71278/3.jpg,shop-images/1268/71278/4.jpg,shop-images/1268/71278/5.jpg,shop-images/1268/71278/6.jpg"}, {"id": 71279, "name": "圣萝莎整体橱柜（西安南郊大明宫含光路店）", "address": "陕西省西安市含光路南段大明宫建材家居城2F-A-401", "phone_number": "029-89183796", "longitude": "108.94", "latitude": "34.22", "preview_image": "shop-images/1268/71279/1.jpg,shop-images/1268/71279/2.jpg,shop-images/1268/71279/3.jpg,shop-images/1268/71279/4.jpg,shop-images/1268/71279/5.jpg"}, {"id": 71280, "name": "楷模(银川居然之家店)", "address": "银川市兴庆区民族南街居然之家二楼中厅", "phone_number": "0951-7635381", "longitude": "106.28", "latitude": "38.45", "preview_image": "shop-images/1268/71280/1.jpg,shop-images/1268/71280/2.jpg,shop-images/1268/71280/3.jpg,shop-images/1268/71280/4.jpg,shop-images/1268/71280/5.jpg,shop-images/1268/71280/6.jpg"}, {"id": 71281, "name": "楷模大普（银川月星家具广场店）", "address": "银川市兴庆区新华东街月星家居三楼大普家具专卖店", "phone_number": "0951-6187383", "longitude": "106.3", "latitude": "38.46", "preview_image": "shop-images/1268/71281/1.jpg,shop-images/1268/71281/2.jpg,shop-images/1268/71281/3.jpg,shop-images/1268/71281/4.jpg,shop-images/1268/71281/5.jpg,shop-images/1268/71281/6.jpg"}, {"id": 71282, "name": "晋中楷模", "address": "山西省晋中市榆次区迎宾西路居然之家田森店二楼2-007-008", "phone_number": "15340797616    13383447858", "longitude": "112.714011", "latitude": "37.705289", "preview_image": "shop-images/1268/71282/1.jpg,shop-images/1268/71282/2.jpg,shop-images/1268/71282/3.jpg,shop-images/1268/71282/4.jpg,shop-images/1268/71282/5.jpg,shop-images/1268/71282/6.jpg"}, {"id": 71283, "name": "楷模家具生活馆（长垣独立店）", "address": "河南省长垣县蒲西区博爱路南段华泰大酒店北邻50米路西", "phone_number": "0373-5250999", "longitude": "114.6632", "latitude": "35.185647", "preview_image": "shop-images/1268/71283/1.jpg,shop-images/1268/71283/2.jpg,shop-images/1268/71283/3.jpg,shop-images/1268/71283/4.jpg,shop-images/1268/71283/5.jpg,shop-images/1268/71283/6.jpg"}, {"id": 71284, "name": "楷模大普 拿铁 圣萝莎 （甘肃庆阳店）", "address": "庆阳市西峰区嘉鑫国际建材城精品家具馆2楼3楼", "phone_number": "0934-8638333  8639333", "longitude": "107.673674", "latitude": "35.677201", "preview_image": "shop-images/1268/71284/1.jpg,shop-images/1268/71284/2.jpg,shop-images/1268/71284/3.jpg,shop-images/1268/71284/4.jpg,shop-images/1268/71284/5.jpg,shop-images/1268/71284/6.jpg"}, {"id": 71285, "name": "楷模（渭南荣发建材城店）", "address": "渭南市临渭区四马路荣发建材城三楼东区电梯口楷模家具", "phone_number": "0913-2139153", "longitude": "109.504785", "latitude": "34.517607", "preview_image": "shop-images/1268/71285/1.jpg,shop-images/1268/71285/2.jpg,shop-images/1268/71285/3.jpg,shop-images/1268/71285/4.jpg,shop-images/1268/71285/5.jpg,shop-images/1268/71285/6.jpg"}, {"id": 71286, "name": "楷模拿铁（天津环渤海店）", "address": "天津市河西区解放南路环渤海国际名家居购物中心二楼楷模 拿铁", "phone_number": "022-58777081", "longitude": "117.240987", "latitude": "39.076297", "preview_image": "shop-images/1268/71286/1.jpg,shop-images/1268/71286/2.jpg,shop-images/1268/71286/3.jpg,shop-images/1268/71286/4.jpg,shop-images/1268/71286/5.jpg,shop-images/1268/71286/6.jpg"}, {"id": 71287, "name": "楷模综合店（汉中远大国际店）", "address": "汉中市汉台区朝阳北路远大国际家居博览中心四楼", "phone_number": "0916--2808886", "longitude": "107.062167", "latitude": "33.085223", "preview_image": "shop-images/1268/71287/1.jpg,shop-images/1268/71287/2.jpg,shop-images/1268/71287/3.jpg,shop-images/1268/71287/4.jpg,shop-images/1268/71287/5.jpg,shop-images/1268/71287/6.jpg"}, {"id": 71288, "name": "楷模家具(庆阳西峰博华店)", "address": "庆阳市西峰区兰州路五号博华盛典精品家具馆二楼后排楷模家具专卖店", "phone_number": "0934-8362277", "longitude": "107.660808", "latitude": "35.726212", "preview_image": "shop-images/1268/71288/1.jpg,shop-images/1268/71288/2.jpg,shop-images/1268/71288/3.jpg,shop-images/1268/71288/4.jpg,shop-images/1268/71288/5.jpg"}, {"id": 71289, "name": "楷模（晋城店）", "address": "晋城市黄华街与白水街十字居然之家", "phone_number": "0356-8988268", "longitude": "112.851602", "latitude": "35.480766", "preview_image": "shop-images/1268/71289/1.jpg,shop-images/1268/71289/2.jpg,shop-images/1268/71289/3.jpg,shop-images/1268/71289/4.jpg,shop-images/1268/71289/5.jpg,shop-images/1268/71289/6.jpg"}, {"id": 71290, "name": "楷模上海工厂直供店（建配龙独立店）", "address": "上海市宝山区长逸路15号建配龙国际家居C馆", "phone_number": "021-56458178     021-56468081", "longitude": "121.5", "latitude": "31.35", "preview_image": "shop-images/1268/71290/1.jpg,shop-images/1268/71290/2.jpg,shop-images/1268/71290/3.jpg,shop-images/1268/71290/4.jpg,shop-images/1268/71290/5.jpg,shop-images/1268/71290/6.jpg"}, {"id": 71291, "name": "楷模梵蒂尼(广州番禺吉盛伟邦店）", "address": "广州市番禺迎宾路万博中心吉盛伟邦I馆103-1", "phone_number": "020-34828108", "longitude": "113.35", "latitude": "23.01", "preview_image": "shop-images/1268/71291/1.jpg,shop-images/1268/71291/2.jpg,shop-images/1268/71291/3.jpg,shop-images/1268/71291/4.jpg,shop-images/1268/71291/5.jpg,shop-images/1268/71291/6.jpg"}, {"id": 71292, "name": "楷模家居生活馆（嘉峪关恒基美居店）", "address": "甘肃省嘉峪关市恒基美居全球家居生活广场", "phone_number": "0937-5979887    0937-5979897", "longitude": "98.286112", "latitude": "39.773979", "preview_image": "shop-images/1268/71292/1.jpg,shop-images/1268/71292/2.jpg,shop-images/1268/71292/3.jpg,shop-images/1268/71292/4.jpg,shop-images/1268/71292/5.jpg,shop-images/1268/71292/6.jpg"}, {"id": 71293, "name": "大普（天津和平加宜店）", "address": "天津市和平区南门外大街和平加宜家居一楼大普店", "phone_number": "022-2735716", "longitude": "117.189643", "latitude": "39.141646", "preview_image": "shop-images/1268/71293/1.jpg,shop-images/1268/71293/2.jpg,shop-images/1268/71293/3.jpg"}, {"id": 71294, "name": "楷模家居生活馆（大同店）", "address": "大同市南环路正德广场A座楷模家居生活馆", "phone_number": "400-6035239", "longitude": "113.288856", "latitude": "40.069562", "preview_image": "shop-images/1268/71294/1.jpg,shop-images/1268/71294/2.jpg,shop-images/1268/71294/3.jpg,shop-images/1268/71294/4.jpg,shop-images/1268/71294/5.jpg,shop-images/1268/71294/6.jpg"}, {"id": 71295, "name": "楷模大普（酒泉店）", "address": "酒泉市肃州区19号富康家世界二楼电梯口大普家具", "phone_number": "0937-6989090", "longitude": "98.51", "latitude": "39.74", "preview_image": "shop-images/1268/71295/1.jpg,shop-images/1268/71295/2.jpg,shop-images/1268/71295/3.jpg,shop-images/1268/71295/4.jpg,shop-images/1268/71295/5.jpg,shop-images/1268/71295/6.jpg"}, {"id": 71296, "name": "楷模/大普/楷模100（甘肃天水桥南店）", "address": "桥南家居建材城国际家具6号馆", "phone_number": "0938-2511666", "longitude": "105.898907", "latitude": "34.557745", "preview_image": "shop-images/1268/71296/1.jpg,shop-images/1268/71296/2.jpg,shop-images/1268/71296/3.jpg,shop-images/1268/71296/4.jpg,shop-images/1268/71296/5.jpg,shop-images/1268/71296/6.jpg"}, {"id": 71297, "name": "楷模大普(平凉世博伟业)", "address": "甘肃省平凉市世博伟业建材市场B1区F3楷模家具", "phone_number": "15569702221", "longitude": "106.748474", "latitude": "35.523551", "preview_image": "shop-images/1268/71297/1.jpg,shop-images/1268/71297/2.jpg,shop-images/1268/71297/3.jpg,shop-images/1268/71297/4.jpg,shop-images/1268/71297/5.jpg,shop-images/1268/71297/6.jpg"}, {"id": 71298, "name": "楷模（鹤壁正阳店）", "address": "鹤壁市淇滨区华夏南路与鹤煤大道交叉口正阳爱家国际家居广场B馆3楼北区", "phone_number": "0392-2637777", "longitude": "114.303779", "latitude": "35.726845", "preview_image": "shop-images/1268/71298/1.jpg,shop-images/1268/71298/2.jpg,shop-images/1268/71298/3.jpg,shop-images/1268/71298/4.jpg,shop-images/1268/71298/5.jpg"}, {"id": 71299, "name": "楷模&楷模100（西安三桥正街店）", "address": "西安市三桥正街大明宫建材家居五楼中厅", "phone_number": "029-89118739", "longitude": "108.98", "latitude": "34.37", "preview_image": "shop-images/1268/71299/1.jpg,shop-images/1268/71299/2.jpg,shop-images/1268/71299/3.jpg,shop-images/1268/71299/4.jpg,shop-images/1268/71299/5.jpg,shop-images/1268/71299/6.jpg"}, {"id": 71300, "name": "楷模&拿铁&大普（上海吉盛伟邦青浦综合店）", "address": "上海市青浦区赵巷镇嘉松中路5369号B2-215楷模", "phone_number": "021-69755923", "longitude": "121.232321", "latitude": "31.168669", "preview_image": "shop-images/1268/71300/1.jpg,shop-images/1268/71300/2.jpg,shop-images/1268/71300/3.jpg,shop-images/1268/71300/4.jpg"}, {"id": 71301, "name": "大术（成都南富森店）", "address": "成都高新区盛和二路18号富森美家具一楼1021#", "phone_number": "028-61559800", "longitude": "104.06", "latitude": "30.61", "preview_image": "shop-images/1268/71301/1.jpg,shop-images/1268/71301/2.jpg,shop-images/1268/71301/3.jpg,shop-images/1268/71301/4.jpg,shop-images/1268/71301/5.jpg,shop-images/1268/71301/6.jpg"}, {"id": 71302, "name": "楷模大术（上海红星美凯龙金桥店）", "address": "上海市浦东新区金藏路158号红星美凯龙6楼F8101-8106", "phone_number": "021-50767659", "longitude": "121.566132", "latitude": "31.163401", "preview_image": "shop-images/1268/71302/1.jpg,shop-images/1268/71302/2.jpg,shop-images/1268/71302/3.jpg,shop-images/1268/71302/4.jpg"}, {"id": 71303, "name": "大术歌特（上海吉盛伟邦青浦店）", "address": "上海市青浦区嘉松中路5369号吉盛伟邦B2-103", "phone_number": "021-58756776    021-59786763", "longitude": "121.232321", "latitude": "31.168669", "preview_image": "shop-images/1268/71303/1.jpg,shop-images/1268/71303/2.jpg,shop-images/1268/71303/3.jpg,shop-images/1268/71303/4.jpg,shop-images/1268/71303/5.jpg"}, {"id": 71304, "name": "大普旗舰店（克拉玛依居然之家店）", "address": "克拉玛依市克拉玛依区胜利路居然之家二号馆二楼大普旗舰店", "phone_number": "0990-7558281", "longitude": "84.906181", "latitude": "45.583285", "preview_image": "shop-images/1268/71304/1.jpg,shop-images/1268/71304/2.jpg,shop-images/1268/71304/3.jpg,shop-images/1268/71304/4.jpg,shop-images/1268/71304/5.jpg,shop-images/1268/71304/6.jpg"}, {"id": 71305, "name": "楷模大术（广州番禹吉盛伟邦店）", "address": "广州市番禺区迎宾路万博中心吉盛伟邦F馆216大术家具", "phone_number": "020-39952332", "longitude": "113.35", "latitude": "23.01", "preview_image": "shop-images/1268/71305/1.jpg,shop-images/1268/71305/2.jpg,shop-images/1268/71305/3.jpg,shop-images/1268/71305/4.jpg,shop-images/1268/71305/5.jpg,shop-images/1268/71305/6.jpg"}, {"id": 71306, "name": "楷模大术（西安红星太白店）", "address": "西安市碑林区太白路立交红星美凯龙五楼大术家具", "phone_number": "13484517586", "longitude": "108.930191", "latitude": "34.240864", "preview_image": "shop-images/1268/71306/1.jpg,shop-images/1268/71306/2.jpg,shop-images/1268/71306/3.jpg,shop-images/1268/71306/4.jpg,shop-images/1268/71306/5.jpg,shop-images/1268/71306/6.jpg"}, {"id": 71307, "name": "楷模家具（南阳红星美凯龙店）", "address": "南阳市卧龙区车站北路与建设路交叉口红星美凯龙A馆三楼中厅楷模家具", "phone_number": "0377-61567302", "longitude": "112.527982", "latitude": "33.014936", "preview_image": "shop-images/1268/71307/1.jpg,shop-images/1268/71307/2.jpg,shop-images/1268/71307/3.jpg"}, {"id": 71308, "name": "楷模综合店（泸州店）", "address": "泸州市龙马潭区龙马大道一段锦华万象城一楼一号门", "phone_number": "0830-3376667", "longitude": "105.43", "latitude": "28.91", "preview_image": "shop-images/1268/71308/1.jpg,shop-images/1268/71308/2.jpg,shop-images/1268/71308/3.jpg,shop-images/1268/71308/4.jpg,shop-images/1268/71308/5.jpg,shop-images/1268/71308/6.jpg"}, {"id": 71309, "name": "楷模一百（六安大市场店）", "address": "安徽省六安市六安大市场3期二楼楷模家具", "phone_number": "0564-3326869", "longitude": "116.52", "latitude": "31.76", "preview_image": "shop-images/1268/71309/1.jpg,shop-images/1268/71309/2.jpg,shop-images/1268/71309/3.jpg,shop-images/1268/71309/4.jpg"}, {"id": 71310, "name": "楷模大术（上海红星美凯龙汶水店）", "address": "上海市宝山区汶水路1555号红星美凯龙六楼大术", "phone_number": "021-61401709", "longitude": "121.427585", "latitude": "31.294757", "preview_image": "shop-images/1268/71310/1.jpg,shop-images/1268/71310/2.jpg,shop-images/1268/71310/3.jpg,shop-images/1268/71310/4.jpg,shop-images/1268/71310/5.jpg"}, {"id": 71311, "name": "楷模大普（阳泉红星美凯龙店）", "address": "阳泉市开发区大连东路红星美凯龙四层E8080", "phone_number": "0353-2661712", "longitude": "113.61", "latitude": "37.87", "preview_image": "shop-images/1268/71311/1.jpg,shop-images/1268/71311/2.jpg,shop-images/1268/71311/3.jpg,shop-images/1268/71311/4.jpg,shop-images/1268/71311/5.jpg,shop-images/1268/71311/6.jpg"}, {"id": 71312, "name": "楷模 大普（鄂尔多斯居然店）", "address": "内蒙古鄂尔多斯市东胜区天骄南路109辅路居然之家二楼楷模 大普家居生活体验馆", "phone_number": "0477-8161221", "longitude": "109.991075", "latitude": "39.790773", "preview_image": "shop-images/1268/71312/1.jpg,shop-images/1268/71312/2.jpg,shop-images/1268/71312/3.jpg,shop-images/1268/71312/4.jpg"}, {"id": 71313, "name": "大普（信阳居然店）", "address": "信阳市羊山新区二十四大街与南京路交叉口居然之家三楼3--014", "phone_number": "03763718820", "longitude": "114.09", "latitude": "32.13", "preview_image": "shop-images/1268/71313/1.jpg,shop-images/1268/71313/2.jpg,shop-images/1268/71313/3.jpg"}, {"id": 71314, "name": "楷模家居生活馆（信阳欧凯龙欧尚森源家居）", "address": "信阳市二十四大街欧凯龙全球家居直销中心4号馆欧尚森源家居", "phone_number": "15237635627", "longitude": "114.134833", "latitude": "32.16627", "preview_image": "shop-images/1268/71314/1.jpg,shop-images/1268/71314/2.jpg,shop-images/1268/71314/3.jpg,shop-images/1268/71314/4.jpg,shop-images/1268/71314/5.jpg,shop-images/1268/71314/6.jpg"}, {"id": 71315, "name": "大术（西安大明宫南郊店）", "address": "西安市雁塔区含光路与电子二路交汇处大明宫南郊店5楼", "phone_number": "14709272712", "longitude": "108.94", "latitude": "34.23", "preview_image": "shop-images/1268/71315/1.jpg,shop-images/1268/71315/2.jpg,shop-images/1268/71315/3.jpg,shop-images/1268/71315/4.jpg,shop-images/1268/71315/5.jpg,shop-images/1268/71315/6.jpg"}, {"id": 71316, "name": "楷模100（乌兰察布店）", "address": "红星美凯龙4楼中厅", "phone_number": "0474-8986189", "longitude": "121.39", "latitude": "31.25", "preview_image": "shop-images/1268/71316/1.jpg,shop-images/1268/71316/2.jpg,shop-images/1268/71316/3.jpg,shop-images/1268/71316/4.jpg,shop-images/1268/71316/5.jpg,shop-images/1268/71316/6.jpg"}, {"id": 71317, "name": "楷模大术（西安钻石店）", "address": "北二环太华路立交东南角钻石店6楼大术", "phone_number": "029--89378869", "longitude": "108.977882", "latitude": "34.333692", "preview_image": "shop-images/1268/71317/1.jpg,shop-images/1268/71317/2.jpg,shop-images/1268/71317/3.jpg,shop-images/1268/71317/4.jpg,shop-images/1268/71317/5.jpg,shop-images/1268/71317/6.jpg"}, {"id": 71318, "name": "楷模家居生活馆(洛阳店)", "address": "洛阳市西工区九都路王城大道交叉口楷模家居生活馆", "phone_number": "0379-60696009", "longitude": "112.454525", "latitude": "34.67433", "preview_image": "shop-images/1268/71318/1.jpg,shop-images/1268/71318/2.jpg,shop-images/1268/71318/3.jpg,shop-images/1268/71318/4.jpg,shop-images/1268/71318/5.jpg,shop-images/1268/71318/6.jpg"}, {"id": 71319, "name": "惠州楷模独立店（惠州江北店）", "address": "惠州市惠城区江北三新南路简爱家居", "phone_number": "0752-5753686", "longitude": "114.424953", "latitude": "23.124345", "preview_image": "shop-images/1268/71319/1.jpg,shop-images/1268/71319/2.jpg,shop-images/1268/71319/3.jpg,shop-images/1268/71319/4.jpg,shop-images/1268/71319/5.jpg"}, {"id": 71320, "name": "大术（上海红星美凯龙沪南店）", "address": "上海市沪南路2178号红星美凯龙五楼大术家具，E8071", "phone_number": "021-20257596", "longitude": "121.566132", "latitude": "31.163401", "preview_image": "shop-images/1268/71320/1.jpg,shop-images/1268/71320/2.jpg,shop-images/1268/71320/3.jpg,shop-images/1268/71320/4.jpg,shop-images/1268/71320/5.jpg"}, {"id": 71321, "name": "拿铁（成都南富森店）", "address": "成都市高新区盛和二路18号富森美国际家具MALL 2018#", "phone_number": "028-61559811", "longitude": "104.06", "latitude": "30.61", "preview_image": "shop-images/1268/71321/1.jpg,shop-images/1268/71321/2.jpg,shop-images/1268/71321/3.jpg,shop-images/1268/71321/4.jpg,shop-images/1268/71321/5.jpg"}, {"id": 71322, "name": "楷模家具生活馆(台州第六空间店）", "address": "台州椒江东环大道2099号洪家第六空间一楼1-A20楷模家具生活馆", "phone_number": "0576-89062225", "longitude": "121.406496", "latitude": "28.60787", "preview_image": "shop-images/1268/71322/1.jpg,shop-images/1268/71322/2.jpg,shop-images/1268/71322/3.jpg,shop-images/1268/71322/4.jpg,shop-images/1268/71322/5.jpg,shop-images/1268/71322/6.jpg"}, {"id": 71323, "name": "楷模&大普（邯郸红星美凯龙店）", "address": "邯郸市丛台区东柳大街与丛台路交叉口红星美凯龙五楼楷模家居", "phone_number": "0310-3179056", "longitude": "114.51", "latitude": "36.62", "preview_image": "shop-images/1268/71323/1.jpg,shop-images/1268/71323/2.jpg,shop-images/1268/71323/3.jpg,shop-images/1268/71323/4.jpg,shop-images/1268/71323/5.jpg,shop-images/1268/71323/6.jpg"}, {"id": 71324, "name": "楷模独立店（中山店）", "address": "中山市港口大道15号红星美凯龙", "phone_number": "18406698238", "longitude": "113.395287", "latitude": "22.576654", "preview_image": "shop-images/1268/71324/1.jpg,shop-images/1268/71324/2.jpg,shop-images/1268/71324/3.jpg,shop-images/1268/71324/4.jpg,shop-images/1268/71324/5.jpg,shop-images/1268/71324/6.jpg"}, {"id": 71325, "name": "大普店（河东红星美凯龙店）", "address": "天津市河东红星美凯龙四楼大普楷模", "phone_number": "022-84319069", "longitude": "117.264235", "latitude": "39.126352", "preview_image": "shop-images/1268/71325/1.jpg,shop-images/1268/71325/2.jpg,shop-images/1268/71325/3.jpg,shop-images/1268/71325/4.jpg"}, {"id": 71326, "name": "大普（成都南门富森美家居3号馆）", "address": "成都市高新区盛和二路富森美家居3号馆1楼1016-1019", "phone_number": "028-61559801", "longitude": "104.069859", "latitude": "30.607551", "preview_image": "shop-images/1268/71326/1.jpg,shop-images/1268/71326/2.jpg,shop-images/1268/71326/3.jpg,shop-images/1268/71326/4.jpg,shop-images/1268/71326/5.jpg,shop-images/1268/71326/6.jpg"}, {"id": 71327, "name": "楷模家具（永城欧蓓莎店）", "address": "河南省永城市建设路欧蓓莎二期三楼中排南电梯口", "phone_number": "0370--2750222", "longitude": "116.461466", "latitude": "33.95205", "preview_image": "shop-images/1268/71327/1.jpg,shop-images/1268/71327/2.jpg,shop-images/1268/71327/3.jpg"}, {"id": 71328, "name": "楷模家具馆（库尔勒红星美凯龙店）", "address": "库尔勒市开发区红星美凯龙", "phone_number": "09965889160", "longitude": "85.71", "latitude": "41.71", "preview_image": "shop-images/1268/71328/1.jpg,shop-images/1268/71328/2.jpg,shop-images/1268/71328/3.jpg"}, {"id": 71329, "name": "楷模（滁州世贸店）", "address": "中都大道1661号世贸家居广场4楼D8035", "phone_number": "0550-2199922", "longitude": "118.326763", "latitude": "32.296718", "preview_image": "shop-images/1268/71329/1.jpg,shop-images/1268/71329/2.jpg,shop-images/1268/71329/3.jpg,shop-images/1268/71329/4.jpg,shop-images/1268/71329/5.jpg,shop-images/1268/71329/6.jpg"}, {"id": 71330, "name": "楷模独立店（南昌店）", "address": "南昌市西湖区灌婴路218号楷模家居生活馆", "phone_number": "400-139-3766", "longitude": "115.894576", "latitude": "28.649548", "preview_image": "shop-images/1268/71330/1.jpg,shop-images/1268/71330/2.jpg,shop-images/1268/71330/3.jpg,shop-images/1268/71330/4.jpg,shop-images/1268/71330/5.jpg,shop-images/1268/71330/6.jpg"}, {"id": 71331, "name": "新乡楷模大普（新乡居然之家店）", "address": "居然之家三楼3-016&3-014", "phone_number": "18638313435", "longitude": "113.676795", "latitude": "22.941328", "preview_image": "shop-images/1268/71331/1.jpg,shop-images/1268/71331/2.jpg,shop-images/1268/71331/3.jpg,shop-images/1268/71331/4.jpg,shop-images/1268/71331/5.jpg,shop-images/1268/71331/6.jpg"}, {"id": 71332, "name": "楷模综合店(惠州金海马店)", "address": "惠州市惠城区河南岸街道三环路金海马B区二楼", "phone_number": "0752-2058616", "longitude": "114.472629", "latitude": "23.115906", "preview_image": "shop-images/1268/71332/1.jpg,shop-images/1268/71332/2.jpg,shop-images/1268/71332/3.jpg,shop-images/1268/71332/4.jpg"}, {"id": 71333, "name": "楷模（成都南富森3号馆）", "address": "成都市高新区盛和二路18号富森美家居3号馆2楼2018", "phone_number": "028-61559810", "longitude": "104.069859", "latitude": "30.607551", "preview_image": "shop-images/1268/71333/1.jpg,shop-images/1268/71333/2.jpg,shop-images/1268/71333/3.jpg,shop-images/1268/71333/4.jpg,shop-images/1268/71333/5.jpg,shop-images/1268/71333/6.jpg"}, {"id": 71334, "name": "楷模大术（深圳欧洲城店）", "address": "南山区北环大道与沙河东路立交欧洲城香江家居四楼大术", "phone_number": "0755-86239229", "longitude": "113.971495", "latitude": "22.562351", "preview_image": "shop-images/1268/71334/1.jpg,shop-images/1268/71334/2.jpg,shop-images/1268/71334/3.jpg,shop-images/1268/71334/4.jpg"}, {"id": 71335, "name": "楷模大普（南阳红星店）", "address": "南阳市车站北路红星美凯龙A座三楼大普家具", "phone_number": "0377-61599839", "longitude": "112.524603", "latitude": "33.009978", "preview_image": "shop-images/1268/71335/1.jpg,shop-images/1268/71335/2.jpg,shop-images/1268/71335/3.jpg,shop-images/1268/71335/4.jpg,shop-images/1268/71335/5.jpg,shop-images/1268/71335/6.jpg"}, {"id": 71336, "name": "梵蒂尼（红星美凯龙双楠店）", "address": "成都市武侯区二环路西一段6号红星美凯龙三楼，梵蒂尼", "phone_number": "028-65052519", "longitude": "104.03563", "latitude": "30.640478", "preview_image": "shop-images/1268/71336/1.jpg,shop-images/1268/71336/2.jpg,shop-images/1268/71336/3.jpg"}, {"id": 71337, "name": "圣萝莎(上海红星美凯龙金桥店）", "address": "金藏路158号红星美凯龙三楼C8151圣萝莎整体橱柜", "phone_number": "021-50766657", "longitude": "121.39", "latitude": "31.24", "preview_image": "shop-images/1268/71337/1.jpg,shop-images/1268/71337/2.jpg,shop-images/1268/71337/3.jpg,shop-images/1268/71337/4.jpg,shop-images/1268/71337/5.jpg,shop-images/1268/71337/6.jpg"}, {"id": 71338, "name": "楷模（天津独立生活馆）", "address": "南开区南马路18号九策城市广场一楼、二楼", "phone_number": "022-27357716", "longitude": "117.193808", "latitude": "39.143297", "preview_image": "shop-images/1268/71338/1.jpg,shop-images/1268/71338/2.jpg,shop-images/1268/71338/3.jpg,shop-images/1268/71338/4.jpg,shop-images/1268/71338/5.jpg,shop-images/1268/71338/6.jpg"}, {"id": 71339, "name": "楷模(河东红星美凯龙店）", "address": "天津市河东区津滨大道160号红星美凯龙四楼楷模", "phone_number": "022-84319069", "longitude": "117.264235", "latitude": "39.126352", "preview_image": "shop-images/1268/71339/1.jpg,shop-images/1268/71339/2.jpg,shop-images/1268/71339/3.jpg,shop-images/1268/71339/4.jpg"}, {"id": 71340, "name": "楷模拿铁（深圳欧洲城店）", "address": "深圳市南山区欧洲城香江家居2楼", "phone_number": "0755-86239169", "longitude": "113.97", "latitude": "22.56", "preview_image": "shop-images/1268/71340/1.jpg,shop-images/1268/71340/2.jpg,shop-images/1268/71340/3.jpg,shop-images/1268/71340/4.jpg,shop-images/1268/71340/5.jpg,shop-images/1268/71340/6.jpg"}, {"id": 71341, "name": "大术(杭州红星美凯龙古墩店）", "address": "杭州西湖区古墩路701号红星美凯龙四楼大术", "phone_number": "0571-88051379", "longitude": "120.101401", "latitude": "30.314829", "preview_image": "shop-images/1268/71341/1.jpg,shop-images/1268/71341/2.jpg,shop-images/1268/71341/3.jpg,shop-images/1268/71341/4.jpg,shop-images/1268/71341/5.jpg,shop-images/1268/71341/6.jpg"}, {"id": 71342, "name": "大普（西安中联店）", "address": "中联国际家居2楼2-38大普", "phone_number": "029-86512183", "longitude": "109.040115", "latitude": "32.699399", "preview_image": "shop-images/1268/71342/1.jpg,shop-images/1268/71342/2.jpg,shop-images/1268/71342/3.jpg,shop-images/1268/71342/4.jpg,shop-images/1268/71342/5.jpg,shop-images/1268/71342/6.jpg"}, {"id": 71343, "name": "圣萝莎全屋定制（上海青浦吉盛伟邦店）", "address": "上海市青浦区嘉松中路5369号吉盛伟邦国际家居村C3-2号楷模家具生活馆", "phone_number": "021-62378059", "longitude": "121.23", "latitude": "31.17", "preview_image": "shop-images/1268/71343/1.jpg,shop-images/1268/71343/2.jpg,shop-images/1268/71343/3.jpg,shop-images/1268/71343/4.jpg,shop-images/1268/71343/5.jpg,shop-images/1268/71343/6.jpg"}, {"id": 71344, "name": "楷模拿铁(西安中联店）", "address": "西安市未央区北二环中联国际家居博览中心2-22楷模", "phone_number": "029-86520672", "longitude": "108.94", "latitude": "34.32", "preview_image": "shop-images/1268/71344/1.jpg,shop-images/1268/71344/2.jpg,shop-images/1268/71344/3.jpg,shop-images/1268/71344/4.jpg,shop-images/1268/71344/5.jpg"}, {"id": 71345, "name": "大术（深圳红星美凯龙店）", "address": "深圳市福田区世纪中心红星美凯龙二楼大术", "phone_number": "0755-23606886", "longitude": "114.035044", "latitude": "22.547081", "preview_image": "shop-images/1268/71345/1.jpg,shop-images/1268/71345/2.jpg,shop-images/1268/71345/3.jpg,shop-images/1268/71345/4.jpg,shop-images/1268/71345/5.jpg"}, {"id": 71346, "name": "楷模家具（方北红星美凯龙店4F东厅）", "address": "建华大街裕华路西北角红星美凯龙东厅四楼楷模展位", "phone_number": "0311-67792409", "longitude": "114.540337", "latitude": "38.041558", "preview_image": "shop-images/1268/71346/1.jpg,shop-images/1268/71346/2.jpg,shop-images/1268/71346/3.jpg,shop-images/1268/71346/4.jpg,shop-images/1268/71346/5.jpg,shop-images/1268/71346/6.jpg"}, {"id": 71347, "name": "楷模100（杭州红星美凯龙古墩路店）", "address": "杭州市西湖区古墩路701号红星美凯龙", "phone_number": "0571-87980140", "longitude": "120.101401", "latitude": "30.314829", "preview_image": "shop-images/1268/71347/1.jpg,shop-images/1268/71347/2.jpg,shop-images/1268/71347/3.jpg,shop-images/1268/71347/4.jpg"}, {"id": 71348, "name": "楷模家居独立店（荆州店）", "address": "荆州市荆沙大道南国大家装三楼大普/四楼楷模/旗舰店5号馆楷模生活馆", "phone_number": "0716－8269789", "longitude": "112.259737", "latitude": "30.34057", "preview_image": "shop-images/1268/71348/1.jpg,shop-images/1268/71348/2.jpg,shop-images/1268/71348/3.jpg,shop-images/1268/71348/4.jpg,shop-images/1268/71348/5.jpg,shop-images/1268/71348/6.jpg"}, {"id": 71349, "name": "coomo", "address": "coomo", "phone_number": "020-88888888", "longitude": "113.676795", "latitude": "22.941328", "preview_image": ""}, {"id": 71350, "name": "楷模（重庆居然之家金源店）", "address": "重庆市江北区北滨路居然之家2楼E-2013", "phone_number": "023-86357610", "longitude": "106.53", "latitude": "29.56", "preview_image": "shop-images/1268/71350/1.jpg,shop-images/1268/71350/2.jpg,shop-images/1268/71350/3.jpg,shop-images/1268/71350/4.jpg,shop-images/1268/71350/5.jpg"}, {"id": 71351, "name": "楷模家具生活馆（济南居然之家店）", "address": "天桥区北园大街243号北园居然之家南楼楷模家具生活馆", "phone_number": "0531―55530683", "longitude": "117.048385", "latitude": "36.697623", "preview_image": "shop-images/1268/71351/1.jpg,shop-images/1268/71351/2.jpg,shop-images/1268/71351/3.jpg,shop-images/1268/71351/4.jpg,shop-images/1268/71351/5.jpg,shop-images/1268/71351/6.jpg"}, {"id": 71352, "name": "楷模拿铁（深圳红星店）", "address": "深圳福田香蜜湖红星美凯龙2楼2A025", "phone_number": "0755―23813469", "longitude": "114.122273", "latitude": "22.627534", "preview_image": "shop-images/1268/71352/1.jpg,shop-images/1268/71352/2.jpg,shop-images/1268/71352/3.jpg"}, {"id": 71353, "name": "拿铁（成都红星双楠店）", "address": "武侯区二环路西一段6号红星美凯龙四楼拿铁", "phone_number": "028-65052511", "longitude": "104.04", "latitude": "30.64", "preview_image": "shop-images/1268/71353/1.jpg,shop-images/1268/71353/2.jpg,shop-images/1268/71353/3.jpg,shop-images/1268/71353/4.jpg,shop-images/1268/71353/5.jpg,shop-images/1268/71353/6.jpg"}, {"id": 71354, "name": "大普（杭州红星美凯龙古墩店）", "address": "杭州古墩路701号红星美凯龙三楼C8008 楷模大普", "phone_number": "0571-85800315", "longitude": "120.101401", "latitude": "30.314829", "preview_image": "shop-images/1268/71354/1.jpg,shop-images/1268/71354/2.jpg,shop-images/1268/71354/3.jpg,shop-images/1268/71354/4.jpg"}, {"id": 71355, "name": "楷模  大普  拿铁（上海红星欧丽洛雅吴中店）", "address": "吴中路1388号红星欧丽洛雅三楼楷模家居", "phone_number": "021-64058838", "longitude": "129.251919", "latitude": "48.29802", "preview_image": "shop-images/1268/71355/1.jpg,shop-images/1268/71355/2.jpg"}, {"id": 71356, "name": "楷模100（哈密博丰店）", "address": "哈密市博丰B座四楼楷模", "phone_number": "0902-2355266", "longitude": "93.529373", "latitude": "42.344467", "preview_image": "shop-images/1268/71356/1.jpg,shop-images/1268/71356/2.jpg,shop-images/1268/71356/3.jpg,shop-images/1268/71356/4.jpg"}, {"id": 71357, "name": "楷模独立店(贵阳市花溪店）", "address": "贵阳市南明区花溪大道中段楷模家具生活馆", "phone_number": "0851-83813337", "longitude": "106.69", "latitude": "26.55", "preview_image": "shop-images/1268/71357/1.jpg,shop-images/1268/71357/2.jpg,shop-images/1268/71357/3.jpg,shop-images/1268/71357/4.jpg,shop-images/1268/71357/5.jpg,shop-images/1268/71357/6.jpg"}, {"id": 71358, "name": "楷模家居生活馆（青岛独立店）", "address": "青岛市市北区华阳路海博家居9号门国际馆", "phone_number": "0532-86011655", "longitude": "120.35", "latitude": "36.1", "preview_image": "shop-images/1268/71358/1.jpg,shop-images/1268/71358/2.jpg,shop-images/1268/71358/3.jpg,shop-images/1268/71358/4.jpg,shop-images/1268/71358/5.jpg,shop-images/1268/71358/6.jpg"}, {"id": 71359, "name": "拿铁（杭州红星美凯龙古墩店）", "address": "杭州市西湖区古墩路701号", "phone_number": "0571-81022097", "longitude": "120.102522", "latitude": "30.31607", "preview_image": "shop-images/1268/71359/1.jpg,shop-images/1268/71359/2.jpg,shop-images/1268/71359/3.jpg,shop-images/1268/71359/4.jpg"}, {"id": 71360, "name": "楷模综合店（洛阳居然之家店）", "address": "洛阳市西工区九都路与王城大道交叉口居然之家三楼楷模店", "phone_number": "0379-69961716", "longitude": "112.439998", "latitude": "34.665182", "preview_image": "shop-images/1268/71360/1.jpg,shop-images/1268/71360/2.jpg,shop-images/1268/71360/3.jpg,shop-images/1268/71360/4.jpg,shop-images/1268/71360/5.jpg,shop-images/1268/71360/6.jpg"}, {"id": 71361, "name": "楷模大普（台州温岭店）", "address": "浙江省台州市温岭市国际家具城二楼", "phone_number": "0576-89958101", "longitude": "121.393837", "latitude": "28.414868", "preview_image": "shop-images/1268/71361/1.jpg,shop-images/1268/71361/2.jpg,shop-images/1268/71361/3.jpg,shop-images/1268/71361/4.jpg,shop-images/1268/71361/5.jpg,shop-images/1268/71361/6.jpg"}, {"id": 71362, "name": "楷模综合店（昆明居然之家金源店）", "address": "昆明市金源大道世纪城居然之家二楼、三楼", "phone_number": "0871-67333786", "longitude": "102.758504", "latitude": "24.969422", "preview_image": "shop-images/1268/71362/1.jpg,shop-images/1268/71362/2.jpg,shop-images/1268/71362/3.jpg,shop-images/1268/71362/4.jpg,shop-images/1268/71362/5.jpg,shop-images/1268/71362/6.jpg"}, {"id": 71363, "name": "楷模（佳木斯凯联店）", "address": "佳木斯市红旗路凯联家居四楼4B-2", "phone_number": "0454-8515418", "longitude": "130.32", "latitude": "46.83", "preview_image": "shop-images/1268/71363/1.jpg,shop-images/1268/71363/2.jpg,shop-images/1268/71363/3.jpg,shop-images/1268/71363/4.jpg,shop-images/1268/71363/5.jpg,shop-images/1268/71363/6.jpg"}, {"id": 71364, "name": "梵蒂尼（深红星店）", "address": "深圳市福田区香蜜湖红星美凯龙一楼", "phone_number": "0755-25196966", "longitude": "114.042211", "latitude": "22.557398", "preview_image": "shop-images/1268/71364/1.jpg,shop-images/1268/71364/2.jpg,shop-images/1268/71364/3.jpg,shop-images/1268/71364/4.jpg,shop-images/1268/71364/5.jpg"}, {"id": 71365, "name": "楷模100（深圳好百年店）", "address": "深圳市罗湖区宝安北路口好百年总店3楼", "phone_number": "0755-28192995", "longitude": "114.12", "latitude": "22.57", "preview_image": "shop-images/1268/71365/1.jpg,shop-images/1268/71365/2.jpg,shop-images/1268/71365/3.jpg,shop-images/1268/71365/4.jpg,shop-images/1268/71365/5.jpg,shop-images/1268/71365/6.jpg"}, {"id": 71366, "name": "楷模生活馆（镇江六空店）", "address": "镇江市润州区天桥路1号第六空间大门右侧一楼二楼", "phone_number": "0511-88977988", "longitude": "119.47327", "latitude": "32.197808", "preview_image": "shop-images/1268/71366/1.jpg,shop-images/1268/71366/2.jpg,shop-images/1268/71366/3.jpg,shop-images/1268/71366/4.jpg,shop-images/1268/71366/5.jpg,shop-images/1268/71366/6.jpg"}, {"id": 71367, "name": "拿铁综合店（桂林青禾美邦店)", "address": "广西壮族自治区桂林市秀峰区翠竹路18号  青禾美邦国际家居MALL 家具馆 二层A205三层A302", "phone_number": "0773-3633688", "longitude": "110.26", "latitude": "25.27", "preview_image": "shop-images/1268/71367/1.jpg,shop-images/1268/71367/2.jpg,shop-images/1268/71367/3.jpg,shop-images/1268/71367/4.jpg,shop-images/1268/71367/5.jpg,shop-images/1268/71367/6.jpg"}, {"id": 71368, "name": "楷模家居生活馆（肇庆店）", "address": "肇庆市端州区蓝田路肇振家具城一二楼", "phone_number": "0758-2575599     18507589590", "longitude": "112.52", "latitude": "23.09", "preview_image": "shop-images/1268/71368/1.jpg,shop-images/1268/71368/2.jpg,shop-images/1268/71368/3.jpg,shop-images/1268/71368/4.jpg"}, {"id": 71369, "name": "大普（重庆江北红星店）", "address": "新南路888号红星美凯龙3楼收银台旁大普家具", "phone_number": "023-67036532", "longitude": "106.501554", "latitude": "29.606724", "preview_image": "shop-images/1268/71369/1.jpg,shop-images/1268/71369/2.jpg,shop-images/1268/71369/3.jpg,shop-images/1268/71369/4.jpg,shop-images/1268/71369/5.jpg,shop-images/1268/71369/6.jpg"}, {"id": 71370, "name": "楷模 摇篮(深圳红星美凯龙店）", "address": "深圳市福田区世纪中心红星美凯龙一楼", "phone_number": "0755-23915079", "longitude": "114.04", "latitude": "22.55", "preview_image": "shop-images/1268/71370/1.jpg,shop-images/1268/71370/2.jpg,shop-images/1268/71370/3.jpg,shop-images/1268/71370/4.jpg,shop-images/1268/71370/5.jpg,shop-images/1268/71370/6.jpg"}, {"id": 71371, "name": "大普丹阳店", "address": "丹阳市新森林国际家具馆2楼", "phone_number": "051186221628", "longitude": "119.644304", "latitude": "31.960263", "preview_image": "shop-images/1268/71371/1.jpg,shop-images/1268/71371/2.jpg,shop-images/1268/71371/3.jpg,shop-images/1268/71371/4.jpg,shop-images/1268/71371/5.jpg,shop-images/1268/71371/6.jpg"}, {"id": 71372, "name": "大普（杭州富阳店）", "address": "杭州市富阳区富春街道大桥南路288号江南国际家居二楼", "phone_number": "0571-63122689", "longitude": "120.0", "latitude": "30.02", "preview_image": "shop-images/1268/71372/1.jpg,shop-images/1268/71372/2.jpg,shop-images/1268/71372/3.jpg,shop-images/1268/71372/4.jpg,shop-images/1268/71372/5.jpg,shop-images/1268/71372/6.jpg"}, {"id": 71373, "name": "楷模独立店（淮安独立店）", "address": "淮安市深圳东路3号大长江国际家居广场楷模独立店   淮安市清河区水渡口大道111号红星美凯龙建材厅1F楷模馆", "phone_number": "0517-89008729", "longitude": "113.68", "latitude": "22.94", "preview_image": "shop-images/1268/71373/1.jpg,shop-images/1268/71373/2.jpg,shop-images/1268/71373/3.jpg,shop-images/1268/71373/4.jpg,shop-images/1268/71373/5.jpg,shop-images/1268/71373/6.jpg"}, {"id": 71374, "name": "楷模&大普（韶山红星美凯龙店）", "address": "长沙市雨花区韶山南路红星美凯龙一楼中厅", "phone_number": "0731-85597088", "longitude": "113.021673", "latitude": "28.111218", "preview_image": "shop-images/1268/71374/1.jpg,shop-images/1268/71374/2.jpg,shop-images/1268/71374/3.jpg,shop-images/1268/71374/4.jpg,shop-images/1268/71374/5.jpg"}, {"id": 71375, "name": "楷模（杭州红星美凯龙店）", "address": "杭州市西湖区古墩路701号红星美凯龙三楼C8011楷模居品", "phone_number": "0571--88955808", "longitude": "120.1", "latitude": "30.31", "preview_image": "shop-images/1268/71375/1.jpg,shop-images/1268/71375/2.jpg,shop-images/1268/71375/3.jpg,shop-images/1268/71375/4.jpg"}, {"id": 71376, "name": "大术（宜昌欧亚达四楼）", "address": "宜昌东山开发区大连路4号欧亚达家具广场4楼B410/11", "phone_number": "0717―6915551 小梁13469997608", "longitude": "111.33", "latitude": "30.71", "preview_image": "shop-images/1268/71376/1.jpg,shop-images/1268/71376/2.jpg,shop-images/1268/71376/3.jpg,shop-images/1268/71376/4.jpg,shop-images/1268/71376/5.jpg,shop-images/1268/71376/6.jpg"}, {"id": 71377, "name": "楷模拿铁（重庆巴南区铠恩国际店）", "address": "重庆市巴南区八公里铠恩国际家居名都A馆二楼A2029(一号中庭扶梯口)", "phone_number": "023-62412336", "longitude": "106.57", "latitude": "29.48", "preview_image": "shop-images/1268/71377/1.jpg,shop-images/1268/71377/2.jpg,shop-images/1268/71377/3.jpg,shop-images/1268/71377/4.jpg,shop-images/1268/71377/5.jpg,shop-images/1268/71377/6.jpg"}, {"id": 71378, "name": "楷模大普（成都北门红星美凯龙店）", "address": "成都市金牛区三环路内侧凤凰立交红星美凯龙三楼楷模大普", "phone_number": "028-80580611", "longitude": "104.05385", "latitude": "30.73194", "preview_image": "shop-images/1268/71378/1.jpg,shop-images/1268/71378/2.jpg,shop-images/1268/71378/3.jpg,shop-images/1268/71378/4.jpg,shop-images/1268/71378/5.jpg,shop-images/1268/71378/6.jpg"}, {"id": 71379, "name": "岳阳楷模家居独立店（九盛家居土桥店）", "address": "岳阳市东茅岭路土桥九盛家居2楼手扶电梯口", "phone_number": "0730-8989928", "longitude": "113.12", "latitude": "29.38", "preview_image": "shop-images/1268/71379/1.jpg,shop-images/1268/71379/2.jpg,shop-images/1268/71379/3.jpg,shop-images/1268/71379/4.jpg,shop-images/1268/71379/5.jpg"}, {"id": 71380, "name": "楷模拿铁（义乌好安居店）", "address": "义乌北苑路60号好安居国际家居广场二楼楷模拿铁B15B21", "phone_number": "0579-85356519", "longitude": "120.06178", "latitude": "29.329105", "preview_image": "shop-images/1268/71380/1.jpg,shop-images/1268/71380/2.jpg,shop-images/1268/71380/3.jpg"}, {"id": 71381, "name": "大普家具（昆明居然之家金源店）", "address": "昆明市世纪城居然之家二楼", "phone_number": "0871-67333786", "longitude": "102.76", "latitude": "24.97", "preview_image": "shop-images/1268/71381/1.jpg"}, {"id": 71382, "name": "楷模圣萝莎（合肥红星美凯龙政务店）", "address": "合肥市东流路与潜山路交口东800米红星美凯龙政务区商场3楼中厅圣萝莎全屋定制", "phone_number": "0551-63526266", "longitude": "117.223908", "latitude": "31.828656", "preview_image": "shop-images/1268/71382/1.jpg,shop-images/1268/71382/2.jpg,shop-images/1268/71382/3.jpg,shop-images/1268/71382/4.jpg,shop-images/1268/71382/5.jpg"}, {"id": 71383, "name": "楷模拿铁（安徽黄山店）", "address": "黄山市屯溪区屯光大道金太阳家具建材市场A座3楼", "phone_number": "0559-2162988", "longitude": "118.353306", "latitude": "29.733444", "preview_image": "shop-images/1268/71383/1.jpg,shop-images/1268/71383/2.jpg,shop-images/1268/71383/3.jpg,shop-images/1268/71383/4.jpg"}, {"id": 71384, "name": "大普（杭州第六空间大都会店）", "address": "杭州市滨江区江南大道1088号大都会现代馆三楼B321大普", "phone_number": "0571-86555279", "longitude": "120.2", "latitude": "30.2", "preview_image": "shop-images/1268/71384/1.jpg,shop-images/1268/71384/2.jpg,shop-images/1268/71384/3.jpg,shop-images/1268/71384/4.jpg,shop-images/1268/71384/5.jpg,shop-images/1268/71384/6.jpg"}, {"id": 71385, "name": "楷模独立店（泰安红星美凯龙西侧独立店）", "address": "泰安市泰山区红星美凯龙西侧1-4楼", "phone_number": "0538-6181155   18866615079", "longitude": "117.116649", "latitude": "36.16038", "preview_image": "shop-images/1268/71385/1.jpg,shop-images/1268/71385/2.jpg,shop-images/1268/71385/3.jpg,shop-images/1268/71385/4.jpg,shop-images/1268/71385/5.jpg,shop-images/1268/71385/6.jpg"}, {"id": 71386, "name": "楷模独立店（宜宾独立店）", "address": "宜宾市临港区西南轻工博览城二号精品馆一楼楷模独立店", "phone_number": "0831-8882672", "longitude": "104.716445", "latitude": "28.803161", "preview_image": "shop-images/1268/71386/1.jpg,shop-images/1268/71386/2.jpg,shop-images/1268/71386/3.jpg,shop-images/1268/71386/4.jpg,shop-images/1268/71386/5.jpg,shop-images/1268/71386/6.jpg"}, {"id": 71387, "name": "楷模家居生活馆(衡水楷模独立店）", "address": "衡水市桃城区中华大街和胜利路交叉口西南角楷模家居生活馆", "phone_number": "0318-5176999", "longitude": "115.683361", "latitude": "37.736498", "preview_image": "shop-images/1268/71387/1.jpg,shop-images/1268/71387/2.jpg,shop-images/1268/71387/3.jpg,shop-images/1268/71387/4.jpg,shop-images/1268/71387/5.jpg,shop-images/1268/71387/6.jpg"}, {"id": 71388, "name": "大普（常州月星店）", "address": "常州市新北区通江中路588号月星国际家居二楼", "phone_number": "0519-68780617", "longitude": "119.99", "latitude": "31.84", "preview_image": "shop-images/1268/71388/1.jpg,shop-images/1268/71388/2.jpg,shop-images/1268/71388/3.jpg,shop-images/1268/71388/4.jpg,shop-images/1268/71388/5.jpg,shop-images/1268/71388/6.jpg"}, {"id": 71389, "name": "楷模拿铁品质生活]（乐山意凡家世界店）", "address": "乐山市高新区迎宾大道1688号意凡家世界三楼A26", "phone_number": "0833-2261133", "longitude": "103.742053", "latitude": "29.543307", "preview_image": "shop-images/1268/71389/1.jpg,shop-images/1268/71389/2.jpg,shop-images/1268/71389/3.jpg,shop-images/1268/71389/4.jpg,shop-images/1268/71389/5.jpg,shop-images/1268/71389/6.jpg"}, {"id": 71390, "name": "楷模独立店（重庆聚信美店）", "address": "重庆渝北区金开大道聚信美家居世纪城楷模家居生活馆---独立店5号", "phone_number": "023-63020023", "longitude": "106.567861", "latitude": "29.677424", "preview_image": "shop-images/1268/71390/1.jpg,shop-images/1268/71390/2.jpg,shop-images/1268/71390/3.jpg,shop-images/1268/71390/4.jpg,shop-images/1268/71390/5.jpg,shop-images/1268/71390/6.jpg"}, {"id": 71391, "name": "楷模独立店（淮北店）", "address": "淮北市红星美凯龙B馆1楼楷模家具独立生活馆", "phone_number": "0561-3125966", "longitude": "116.843031", "latitude": "33.985741", "preview_image": "shop-images/1268/71391/1.jpg,shop-images/1268/71391/2.jpg,shop-images/1268/71391/3.jpg"}, {"id": 71392, "name": "拿铁（宜昌欧亚达店）", "address": "宜昌市大连路4号欧亚达家居三楼", "phone_number": "0717-6918987", "longitude": "111.33", "latitude": "30.71", "preview_image": "shop-images/1268/71392/1.jpg,shop-images/1268/71392/2.jpg,shop-images/1268/71392/3.jpg,shop-images/1268/71392/4.jpg,shop-images/1268/71392/5.jpg"}, {"id": 71393, "name": "楷模独立店（丽水浙南国际建材城店）", "address": "丽水市莲都区丽阳路浙南国际建材城精品馆楷模家具", "phone_number": "0578―2185222", "longitude": "119.97", "latitude": "28.48", "preview_image": "shop-images/1268/71393/1.jpg,shop-images/1268/71393/2.jpg,shop-images/1268/71393/3.jpg,shop-images/1268/71393/4.jpg,shop-images/1268/71393/5.jpg,shop-images/1268/71393/6.jpg"}, {"id": 71394, "name": "楷模家居（乐从红星美凯龙独立店）", "address": "广东省顺德区乐从镇红星美凯龙A馆", "phone_number": "0757―28919560 0757--28919561", "longitude": "113.097694", "latitude": "22.927827", "preview_image": "shop-images/1268/71394/1.jpg,shop-images/1268/71394/2.jpg,shop-images/1268/71394/3.jpg,shop-images/1268/71394/4.jpg,shop-images/1268/71394/5.jpg"}, {"id": 71395, "name": "楷模综合店（宁波港隆时代广场店）", "address": "宁波市江东区沧海路江南路交汇处港隆时代广场港隆家居购物中心", "phone_number": "0574- 81877038", "longitude": "121.610195", "latitude": "29.891873", "preview_image": "shop-images/1268/71395/1.jpg,shop-images/1268/71395/2.jpg,shop-images/1268/71395/3.jpg,shop-images/1268/71395/4.jpg,shop-images/1268/71395/5.jpg,shop-images/1268/71395/6.jpg"}, {"id": 71396, "name": "楷模拿铁（克拉玛依店）", "address": "新疆克拉玛依市克拉玛依区幸福路家佳乐二楼", "phone_number": "0990-6846990", "longitude": "84.875439", "latitude": "45.588644", "preview_image": "shop-images/1268/71396/1.jpg,shop-images/1268/71396/2.jpg,shop-images/1268/71396/3.jpg,shop-images/1268/71396/4.jpg,shop-images/1268/71396/5.jpg,shop-images/1268/71396/6.jpg"}, {"id": 71397, "name": "楷模（鹤壁正阳爱家家居店）", "address": "鹤壁市淇滨区华夏南路正阳爱家B馆3楼北厅", "phone_number": "0392-2637777", "longitude": "114.3", "latitude": "35.73", "preview_image": "shop-images/1268/71397/1.jpg,shop-images/1268/71397/2.jpg,shop-images/1268/71397/3.jpg,shop-images/1268/71397/4.jpg,shop-images/1268/71397/5.jpg"}, {"id": 71398, "name": "楷模100.大普（天贸城店）", "address": "高新大道中国西北", "phone_number": "0915-8172588", "longitude": "109.038045", "latitude": "32.70437", "preview_image": "shop-images/1268/71398/1.jpg,shop-images/1268/71398/2.jpg,shop-images/1268/71398/3.jpg,shop-images/1268/71398/4.jpg"}, {"id": 71399, "name": "楷模&大术（宁波第六空间店）", "address": "宁波市江东区宁穿路第六空间三楼B308大术店，二楼B16楷模店", "phone_number": "0574-87022804", "longitude": "121.62", "latitude": "29.87", "preview_image": "shop-images/1268/71399/1.jpg,shop-images/1268/71399/2.jpg,shop-images/1268/71399/3.jpg,shop-images/1268/71399/4.jpg"}, {"id": 71400, "name": "楷模（昆明居然之家金源店）", "address": "昆明市世纪城居然之家二楼", "phone_number": "0871-67360809", "longitude": "102.76", "latitude": "24.97", "preview_image": "shop-images/1268/71400/1.jpg"}, {"id": 71401, "name": "楷模（宜昌康龙家居店）", "address": "宜昌市东山开发区康龙家居广场一楼", "phone_number": "07176073488       15907208548", "longitude": "111.32", "latitude": "30.71", "preview_image": "shop-images/1268/71401/1.jpg,shop-images/1268/71401/2.jpg,shop-images/1268/71401/3.jpg,shop-images/1268/71401/4.jpg"}, {"id": 71402, "name": "大普/大术（济南银座家居综合店）", "address": "济南市天桥区北园大街419号银座家居博览中心西厅二楼大普/五楼大术", "phone_number": "0531-55559638/55559336", "longitude": "117.02", "latitude": "36.69", "preview_image": "shop-images/1268/71402/1.jpg,shop-images/1268/71402/2.jpg,shop-images/1268/71402/3.jpg,shop-images/1268/71402/4.jpg"}, {"id": 71403, "name": "楷模大普综合店（桂林青禾美邦店）", "address": "桂林市机场路青禾美邦家具馆 3楼 电梯口 A325-A327", "phone_number": "07738997626", "longitude": "110.277351", "latitude": "25.268244", "preview_image": "shop-images/1268/71403/1.jpg,shop-images/1268/71403/2.jpg,shop-images/1268/71403/3.jpg,shop-images/1268/71403/4.jpg,shop-images/1268/71403/5.jpg,shop-images/1268/71403/6.jpg"}, {"id": 71404, "name": "楷模拿铁（达州中青店）", "address": "达州市南外二号干道中青家居生活广场精品馆二楼29号展位", "phone_number": "0818-5170909", "longitude": "107.51", "latitude": "31.18", "preview_image": "shop-images/1268/71404/1.jpg,shop-images/1268/71404/2.jpg,shop-images/1268/71404/3.jpg,shop-images/1268/71404/4.jpg,shop-images/1268/71404/5.jpg"}, {"id": 71405, "name": "楷模独立店(潍坊居然之家店)", "address": "潍坊市奎文区鸢飞路与玉清街交叉口东南角，居然之家东厅-楷模家居生活馆", "phone_number": "0536-2080537", "longitude": "119.134727", "latitude": "36.722956", "preview_image": "shop-images/1268/71405/1.jpg,shop-images/1268/71405/2.jpg,shop-images/1268/71405/3.jpg,shop-images/1268/71405/4.jpg,shop-images/1268/71405/5.jpg,shop-images/1268/71405/6.jpg"}, {"id": 71406, "name": "楷模（西安南大明宫含光路店）", "address": "含光路南段2号(近明德门小区)南大明宫三楼西厅楷模店", "phone_number": "029-88720236", "longitude": "108.937924", "latitude": "34.218048", "preview_image": "shop-images/1268/71406/1.jpg,shop-images/1268/71406/2.jpg"}, {"id": 71407, "name": "楷模摇篮（石家庄红星美凯龙中储商场）", "address": "石家庄红星美凯龙中储商场四楼儿童区", "phone_number": "0311-66186652", "longitude": "114.485214", "latitude": "38.075516", "preview_image": "shop-images/1268/71407/1.jpg,shop-images/1268/71407/2.jpg,shop-images/1268/71407/3.jpg,shop-images/1268/71407/4.jpg,shop-images/1268/71407/5.jpg,shop-images/1268/71407/6.jpg"}, {"id": 71408, "name": "楷模独立店（苏州第六空间店）", "address": "苏州园区旺墩路第六空间现代馆A-101", "phone_number": "0512-62960293", "longitude": "120.72", "latitude": "31.33", "preview_image": "shop-images/1268/71408/1.jpg,shop-images/1268/71408/2.jpg,shop-images/1268/71408/3.jpg,shop-images/1268/71408/4.jpg"}, {"id": 71409, "name": "楷模独立店（苏州月星店）", "address": "苏州市金阊区桐泾北路8号月星家居一楼到三楼B001楷模", "phone_number": "0512-68389511", "longitude": "120.6", "latitude": "31.32", "preview_image": "shop-images/1268/71409/1.jpg,shop-images/1268/71409/2.jpg,shop-images/1268/71409/3.jpg,shop-images/1268/71409/4.jpg,shop-images/1268/71409/5.jpg,shop-images/1268/71409/6.jpg"}, {"id": 71410, "name": "楷模居品制造（沈阳浑南红星美凯龙店）", "address": "沈阳市浑南新区红星美凯西厅一楼二楼楷模家具生活馆，沈阳市浑南新区居然之家三楼楷模拿铁大普综合店。", "phone_number": "024-31694383", "longitude": "113.676795", "latitude": "22.941328", "preview_image": "shop-images/1268/71410/1.jpg"}, {"id": 71411, "name": "楷模家具（厦门红星美凯龙店）", "address": "厦门市湖里区钟宅路69号红星美凯龙4楼D8015楷模家具生活馆", "phone_number": "0592-5789869", "longitude": "118.171903", "latitude": "24.538237", "preview_image": "shop-images/1268/71411/1.jpg,shop-images/1268/71411/2.jpg,shop-images/1268/71411/3.jpg,shop-images/1268/71411/4.jpg,shop-images/1268/71411/5.jpg"}, {"id": 71412, "name": "北门富森美圣萝莎", "address": "成都市成华区将军碑街68号富森美家居楷模家具生活馆", "phone_number": "02861157513", "longitude": "104.11", "latitude": "30.73", "preview_image": "shop-images/1268/71412/1.jpg"}, {"id": 71413, "name": "'楷模大普（济宁红星美凯龙店）", "address": "济宁市红星美凯龙三楼西北角大普家具、拿铁家具、梵蒂尼软床", "phone_number": "0537-5151332", "longitude": "116.615624", "latitude": "35.436788", "preview_image": "shop-images/1268/71413/1.jpg,shop-images/1268/71413/2.jpg,shop-images/1268/71413/3.jpg,shop-images/1268/71413/4.jpg,shop-images/1268/71413/5.jpg"}, {"id": 71414, "name": "楷模拿铁（枣庄居然之家店）", "address": "薛城区光明西路与祁连山路交汇处居然之家三楼楷模拿铁", "phone_number": "0632-5196577", "longitude": "117.30892", "latitude": "34.811612", "preview_image": "shop-images/1268/71414/1.jpg,shop-images/1268/71414/2.jpg,shop-images/1268/71414/3.jpg,shop-images/1268/71414/4.jpg,shop-images/1268/71414/5.jpg,shop-images/1268/71414/6.jpg"}, {"id": 71415, "name": "楷模家居生活馆（衡阳红星店）", "address": "衡阳市蒸湘区船山大道与西二环交界处红星美凯龙楷模家具馆", "phone_number": "15916709441", "longitude": "112.564841", "latitude": "26.898939", "preview_image": "shop-images/1268/71415/1.jpg,shop-images/1268/71415/2.jpg,shop-images/1268/71415/3.jpg,shop-images/1268/71415/4.jpg,shop-images/1268/71415/5.jpg,shop-images/1268/71415/6.jpg"}, {"id": 71416, "name": "楷模无锡独立店（无锡锡山红星美凯龙店）", "address": "无锡锡山区团结路1号红星美凯龙1号馆1-3楼北2门方向", "phone_number": "0510-88216855", "longitude": "120.400117", "latitude": "31.597598", "preview_image": "shop-images/1268/71416/1.jpg,shop-images/1268/71416/2.jpg,shop-images/1268/71416/3.jpg,shop-images/1268/71416/4.jpg,shop-images/1268/71416/5.jpg,shop-images/1268/71416/6.jpg"}, {"id": 71417, "name": "楷模家具（昆明红星美凯龙店）", "address": "昆明市西山区广福路318号红星美凯龙环球家居设计博览中心四楼D8123楷模家具生活馆", "phone_number": "0871-64648586", "longitude": "102.689596", "latitude": "24.999505", "preview_image": "shop-images/1268/71417/1.jpg,shop-images/1268/71417/2.jpg,shop-images/1268/71417/3.jpg,shop-images/1268/71417/4.jpg,shop-images/1268/71417/5.jpg,shop-images/1268/71417/6.jpg"}, {"id": 71418, "name": "楷模家居生活馆（滕州店）", "address": "山东省枣庄市滕州市北辛中路，奥运体育中心对面红星美凯龙楷模家居生活馆", "phone_number": "0632-8059777", "longitude": "117.166824", "latitude": "35.116667", "preview_image": "shop-images/1268/71418/1.jpg,shop-images/1268/71418/2.jpg,shop-images/1268/71418/3.jpg,shop-images/1268/71418/4.jpg,shop-images/1268/71418/5.jpg,shop-images/1268/71418/6.jpg"}, {"id": 71419, "name": "楷模拿铁(珠海世邦店)", "address": "珠海市香洲区前山世邦家居四号馆4楼楷模拿铁店", "phone_number": "0756--3223009", "longitude": "113.53", "latitude": "22.26", "preview_image": "shop-images/1268/71419/1.jpg,shop-images/1268/71419/2.jpg,shop-images/1268/71419/3.jpg,shop-images/1268/71419/4.jpg"}, {"id": 71420, "name": "楷模（台州红星美凯龙店）", "address": "椒江大桥红星美凯龙3楼中厅C8008-C8011", "phone_number": "0576-89807838", "longitude": "121.41", "latitude": "28.69", "preview_image": "shop-images/1268/71420/1.jpg,shop-images/1268/71420/2.jpg,shop-images/1268/71420/3.jpg,shop-images/1268/71420/4.jpg,shop-images/1268/71420/5.jpg,shop-images/1268/71420/6.jpg"}, {"id": 71421, "name": "楷模综合店（齐齐哈尔楷模店）", "address": "华美家居广场三楼B3-06楷模家具、中汇城居然之家二号门三楼3-017楷模大普和楷模100.", "phone_number": "华美家具0452-2288633、中汇城居然之家0452-6010997", "longitude": "123.957541", "latitude": "47.348153", "preview_image": "shop-images/1268/71421/1.jpg,shop-images/1268/71421/2.jpg,shop-images/1268/71421/3.jpg,shop-images/1268/71421/4.jpg,shop-images/1268/71421/5.jpg,shop-images/1268/71421/6.jpg"}, {"id": 71422, "name": "唐山摇篮", "address": "建设路北口居然之家二层青少年家具摇篮", "phone_number": "0315-3262077", "longitude": "119.01", "latitude": "25.43", "preview_image": "shop-images/1268/71422/1.jpg,shop-images/1268/71422/2.jpg,shop-images/1268/71422/3.jpg,shop-images/1268/71422/4.jpg,shop-images/1268/71422/5.jpg,shop-images/1268/71422/6.jpg"}, {"id": 71423, "name": "拿铁（长春红星美凯龙店）", "address": "长春市二道区远达大街826号红星美凯龙一号门三楼A3013号拿铁展位", "phone_number": "0431-81816191", "longitude": "125.383203", "latitude": "43.913616", "preview_image": "shop-images/1268/71423/1.jpg,shop-images/1268/71423/2.jpg,shop-images/1268/71423/3.jpg"}, {"id": 71424, "name": "楷模拿铁大普（和平红星美凯龙综合店）", "address": "建华大街和平路西北角红星美凯龙二楼楷模拿铁大普", "phone_number": "0311-85529711（和平店）", "longitude": "122.276621", "latitude": "43.634301", "preview_image": "shop-images/1268/71424/1.jpg,shop-images/1268/71424/2.jpg,shop-images/1268/71424/3.jpg,shop-images/1268/71424/4.jpg"}, {"id": 71425, "name": "福州楷模家居生活馆（福州独立店）", "address": "福州市晋安区化工路13号楷模家居生活馆", "phone_number": "400-8718-977", "longitude": "119.340021", "latitude": "26.098404", "preview_image": "shop-images/1268/71425/1.jpg,shop-images/1268/71425/2.jpg,shop-images/1268/71425/3.jpg,shop-images/1268/71425/4.jpg,shop-images/1268/71425/5.jpg,shop-images/1268/71425/6.jpg"}, {"id": 71426, "name": "大普（江阴月星店）", "address": "无锡市江阴市芙蓉大道与普惠路交叉口月星国际家居广场一楼", "phone_number": "0510―81600161", "longitude": "120.25", "latitude": "31.89", "preview_image": "shop-images/1268/71426/1.jpg,shop-images/1268/71426/2.jpg,shop-images/1268/71426/3.jpg,shop-images/1268/71426/4.jpg,shop-images/1268/71426/5.jpg,shop-images/1268/71426/6.jpg"}, {"id": 71427, "name": "楷模综合店（常州红星美凯龙店）", "address": "常州市天宁区飞龙东路72号红星美凯龙家世界三楼", "phone_number": "0519-83879117", "longitude": "119.988931", "latitude": "31.792528", "preview_image": "shop-images/1268/71427/1.jpg,shop-images/1268/71427/2.jpg,shop-images/1268/71427/3.jpg,shop-images/1268/71427/4.jpg,shop-images/1268/71427/5.jpg,shop-images/1268/71427/6.jpg"}, {"id": 71428, "name": "楷模&拿铁&大术（株洲红星店）", "address": "株洲市天元区湘山路红星美凯龙四楼前厅楷模", "phone_number": "0731-28231533/28861533/28861896", "longitude": "113.11", "latitude": "27.84", "preview_image": "shop-images/1268/71428/1.jpg,shop-images/1268/71428/2.jpg,shop-images/1268/71428/3.jpg,shop-images/1268/71428/4.jpg"}, {"id": 71429, "name": "楷模家居生活馆（襄阳店）", "address": "襄阳市高新区樊魏路与邓城大道交汇处红星国际红街1号", "phone_number": "0710-5991511", "longitude": "112.145734", "latitude": "32.324969", "preview_image": "shop-images/1268/71429/1.jpg,shop-images/1268/71429/2.jpg,shop-images/1268/71429/3.jpg"}, {"id": 71430, "name": "楷模大普＆圣罗莎定制（贵阳居然之家店）", "address": "贵阳市观山湖区北京西路居然之家3楼大普", "phone_number": "0851-82265294", "longitude": "106.63", "latitude": "26.6", "preview_image": "shop-images/1268/71430/1.jpg,shop-images/1268/71430/2.jpg,shop-images/1268/71430/3.jpg,shop-images/1268/71430/4.jpg"}, {"id": 71431, "name": "大普（枣庄森博店）", "address": "市中区建华西路森博国际家居二楼大普", "phone_number": "0632-3125666", "longitude": "117.54", "latitude": "34.86", "preview_image": "shop-images/1268/71431/1.jpg,shop-images/1268/71431/2.jpg,shop-images/1268/71431/3.jpg,shop-images/1268/71431/4.jpg,shop-images/1268/71431/5.jpg,shop-images/1268/71431/6.jpg"}, {"id": 71432, "name": "楷模独立店（无锡锡山红星店）", "address": "无锡市锡山区团结南路红星美凯龙1号馆3楼", "phone_number": "0510-88216855", "longitude": "120.399338", "latitude": "31.581531", "preview_image": "shop-images/1268/71432/1.jpg,shop-images/1268/71432/2.jpg,shop-images/1268/71432/3.jpg,shop-images/1268/71432/4.jpg,shop-images/1268/71432/5.jpg,shop-images/1268/71432/6.jpg"}, {"id": 71433, "name": "楷模(黄石红星美凯龙店）", "address": "黄石市黄石港区迎宾大道8号红星美凯龙四楼中庭楷模展厅", "phone_number": "13055505585", "longitude": "115.05", "latitude": "30.25", "preview_image": "shop-images/1268/71433/1.jpg,shop-images/1268/71433/2.jpg,shop-images/1268/71433/3.jpg,shop-images/1268/71433/4.jpg,shop-images/1268/71433/5.jpg,shop-images/1268/71433/6.jpg"}, {"id": 71434, "name": "楷模家具城（三亚独立店）", "address": "三亚市荔枝沟路6号怡和豪庭小区", "phone_number": "0898-31520999", "longitude": "109.51", "latitude": "18.29", "preview_image": "shop-images/1268/71434/1.jpg,shop-images/1268/71434/2.jpg"}, {"id": 71435, "name": "楷模独立店（沧州泰大家居广场店）        ", "address": "沧州市运河区迎宾大道西客站北", "phone_number": "0317―2198586", "longitude": "116.82", "latitude": "38.33", "preview_image": "shop-images/1268/71435/1.jpg,shop-images/1268/71435/2.jpg,shop-images/1268/71435/3.jpg,shop-images/1268/71435/4.jpg,shop-images/1268/71435/5.jpg"}, {"id": 71436, "name": "楷模拿铁（扬州红星美凯龙店）", "address": "扬州市邗江区润扬中路18号红星美凯龙家具馆3楼楷模、拿铁专卖店", "phone_number": "0514-82129995", "longitude": "119.39534", "latitude": "32.374535", "preview_image": "shop-images/1268/71436/1.jpg,shop-images/1268/71436/2.jpg,shop-images/1268/71436/3.jpg,shop-images/1268/71436/4.jpg"}, {"id": 71437, "name": "楷模大术（扬州红星美凯龙店）", "address": "扬州市邗江区润扬中路18号红星美凯龙家居馆3楼中厅西大术展厅", "phone_number": "0514-82129996", "longitude": "119.39534", "latitude": "32.374535", "preview_image": "shop-images/1268/71437/1.jpg,shop-images/1268/71437/2.jpg,shop-images/1268/71437/3.jpg,shop-images/1268/71437/4.jpg,shop-images/1268/71437/5.jpg"}, {"id": 71438, "name": "楷模（长春欧亚店）", "address": "长春市开运街5178号 欧亚卖场三楼东海大街77-1号", "phone_number": "0431-85521357", "longitude": "125.253465", "latitude": "43.849525", "preview_image": "shop-images/1268/71438/1.jpg,shop-images/1268/71438/2.jpg,shop-images/1268/71438/3.jpg,shop-images/1268/71438/4.jpg,shop-images/1268/71438/5.jpg"}, {"id": 71439, "name": "楷模圣萝莎定制（山东枣庄店）", "address": "枣庄市薛城高新区居然之家三层圣萝莎整体智能定制", "phone_number": "0632-3273456", "longitude": "117.34", "latitude": "34.82", "preview_image": "shop-images/1268/71439/1.jpg,shop-images/1268/71439/2.jpg,shop-images/1268/71439/3.jpg,shop-images/1268/71439/4.jpg,shop-images/1268/71439/5.jpg,shop-images/1268/71439/6.jpg"}, {"id": 71440, "name": "楷模梵蒂尼（济宁红星美凯龙店）", "address": "红星美凯龙三楼梵蒂尼软床", "phone_number": "0537-5151332", "longitude": "116.615731", "latitude": "35.436455", "preview_image": "shop-images/1268/71440/1.jpg,shop-images/1268/71440/2.jpg,shop-images/1268/71440/3.jpg,shop-images/1268/71440/4.jpg,shop-images/1268/71440/5.jpg,shop-images/1268/71440/6.jpg"}, {"id": 71441, "name": "楷模拿铁（慈溪红星美凯龙店）", "address": "慈溪市三北东大街3305号红星美凯龙五楼中厅E8086", "phone_number": "0574-23612789", "longitude": "121.42", "latitude": "30.18", "preview_image": "shop-images/1268/71441/1.jpg,shop-images/1268/71441/2.jpg,shop-images/1268/71441/3.jpg,shop-images/1268/71441/4.jpg,shop-images/1268/71441/5.jpg"}, {"id": 71442, "name": "楷模独立店（哈尔滨店）", "address": "爱建月星国际家居A205楷模大普家具", "phone_number": "0451-87639206", "longitude": "113.676795", "latitude": "22.941328", "preview_image": "shop-images/1268/71442/1.jpg"}, {"id": 71443, "name": "楷模独立店（吉林红星美凯龙店）", "address": "吉林市船营区雾凇路红星美凯龙楷模独立店", "phone_number": "0432-65155777", "longitude": "126.39", "latitude": "43.88", "preview_image": "shop-images/1268/71443/1.jpg,shop-images/1268/71443/2.jpg,shop-images/1268/71443/3.jpg,shop-images/1268/71443/4.jpg,shop-images/1268/71443/5.jpg"}, {"id": 71444, "name": "大普（遂宁喜盈门店）", "address": "遂宁市船山区物流港喜盈门A3-1088", "phone_number": "0825-2650653", "longitude": "105.58", "latitude": "30.51", "preview_image": "shop-images/1268/71444/1.jpg,shop-images/1268/71444/2.jpg,shop-images/1268/71444/3.jpg,shop-images/1268/71444/4.jpg,shop-images/1268/71444/5.jpg,shop-images/1268/71444/6.jpg"}, {"id": 71445, "name": "阜阳楷模家居生活体验馆", "address": "阜阳市西二环少年宫南50米楷模家居生活馆", "phone_number": "0558-2608822    /    0558-2608833", "longitude": "115.803989", "latitude": "32.897413", "preview_image": "shop-images/1268/71445/1.jpg"}, {"id": 71446, "name": "楷模家居体验馆（营口独立店）", "address": "辽宁", "phone_number": "0417-2982790", "longitude": "122.235876", "latitude": "40.636818", "preview_image": "shop-images/1268/71446/1.jpg,shop-images/1268/71446/2.jpg,shop-images/1268/71446/3.jpg,shop-images/1268/71446/4.jpg,shop-images/1268/71446/5.jpg,shop-images/1268/71446/6.jpg"}, {"id": 71447, "name": "大术（桂林青禾美邦店）", "address": "桂林市秀峰区翠竹路18号青禾美邦家具馆4楼A416", "phone_number": "0773-8998222", "longitude": "110.26", "latitude": "25.27", "preview_image": "shop-images/1268/71447/1.jpg,shop-images/1268/71447/2.jpg,shop-images/1268/71447/3.jpg,shop-images/1268/71447/4.jpg,shop-images/1268/71447/5.jpg,shop-images/1268/71447/6.jpg"}, {"id": 71448, "name": "楷模拿铁（常德亮万家店）", "address": "亮万家家居广场五楼", "phone_number": "0736―7837850", "longitude": "111.7", "latitude": "29.07", "preview_image": "shop-images/1268/71448/1.jpg,shop-images/1268/71448/2.jpg"}, {"id": 71449, "name": "楷模拿铁（ 济宁红星美凯龙店）", "address": "金宇路琵琶山路红星美凯龙全球家居生活广场三楼西北角拿铁家具", "phone_number": "0537-5151993", "longitude": "113.676795", "latitude": "22.941328", "preview_image": "shop-images/1268/71449/1.jpg,shop-images/1268/71449/2.jpg,shop-images/1268/71449/3.jpg,shop-images/1268/71449/4.jpg,shop-images/1268/71449/5.jpg,shop-images/1268/71449/6.jpg"}, {"id": 71450, "name": "楷模大术（南昌喜盈门店）", "address": "南昌市西湖区抚生路喜盈门家居建材广场三楼大术专卖店", "phone_number": "0791-86708668", "longitude": "115.881262", "latitude": "28.657026", "preview_image": "shop-images/1268/71450/1.jpg,shop-images/1268/71450/2.jpg,shop-images/1268/71450/3.jpg,shop-images/1268/71450/4.jpg"}, {"id": 71451, "name": "楷模摇篮（重庆红星美凯龙二郎店）", "address": "重庆九龙坡区迎宾大道11号 二郎红星美凯龙四楼儿童区", "phone_number": "023-68077938", "longitude": "106.469631", "latitude": "29.5176", "preview_image": "shop-images/1268/71451/1.jpg,shop-images/1268/71451/2.jpg,shop-images/1268/71451/3.jpg,shop-images/1268/71451/4.jpg,shop-images/1268/71451/5.jpg,shop-images/1268/71451/6.jpg"}, {"id": 71452, "name": "楷模（铜川正阳店）", "address": "铜川市新区正阳路正阳家具广场三楼", "phone_number": "18091965368", "longitude": "108.96", "latitude": "34.9", "preview_image": ""}, {"id": 71453, "name": "楷模（遂宁店）", "address": "本店在遂宁市船山区喜盈门家居馆2号厅A3-2022", "phone_number": "0825-2633468", "longitude": "105.621528", "latitude": "30.5235", "preview_image": "shop-images/1268/71453/1.jpg,shop-images/1268/71453/2.jpg,shop-images/1268/71453/3.jpg,shop-images/1268/71453/4.jpg,shop-images/1268/71453/5.jpg,shop-images/1268/71453/6.jpg"}, {"id": 71454, "name": "楷模家具（十堰东岳路金地店）", "address": "东岳路金地三楼楷模家具专厅", "phone_number": "0719-8698990", "longitude": "112.26", "latitude": "30.34", "preview_image": "shop-images/1268/71454/1.jpg,shop-images/1268/71454/2.jpg,shop-images/1268/71454/3.jpg"}, {"id": 71455, "name": "徐州楷模家居生活馆", "address": "徐州市鼓楼区琵琶街道复兴北路188号红星美凯龙一期楷模家居生活馆", "phone_number": "0516-87538289", "longitude": "117.22", "latitude": "34.3", "preview_image": "shop-images/1268/71455/1.jpg,shop-images/1268/71455/2.jpg,shop-images/1268/71455/3.jpg"}, {"id": 71456, "name": "楷模大普拿铁", "address": "绵阳成绵路18号金色家园一楼", "phone_number": "0816-2234758", "longitude": "104.74", "latitude": "31.78", "preview_image": "shop-images/1268/71456/1.jpg,shop-images/1268/71456/2.jpg,shop-images/1268/71456/3.jpg,shop-images/1268/71456/4.jpg,shop-images/1268/71456/5.jpg"}, {"id": 71457, "name": "楷模（江阴红星店）", "address": "无锡江阴普惠路与西外环交叉口红星美凯龙三楼北厅", "phone_number": "0510-86038972", "longitude": "120.236014", "latitude": "31.908746", "preview_image": "shop-images/1268/71457/1.jpg,shop-images/1268/71457/2.jpg"}, {"id": 71458, "name": "楷模独立店（曲靖红星美凯龙店）", "address": "云南省曲靖市麒麟区翠峰路红星美凯龙二楼楷模家具", "phone_number": "0874-3331137", "longitude": "103.781839", "latitude": "25.517765", "preview_image": "shop-images/1268/71458/1.jpg,shop-images/1268/71458/2.jpg,shop-images/1268/71458/3.jpg,shop-images/1268/71458/4.jpg,shop-images/1268/71458/5.jpg,shop-images/1268/71458/6.jpg"}, {"id": 71459, "name": "楷模家具旗舰店（铜陵综合店）", "address": "铜陵市红星美凯龙商场天山大道1099号一楼二楼楷模家具旗舰店", "phone_number": "0562-2628900", "longitude": "117.844976", "latitude": "30.941683", "preview_image": "shop-images/1268/71459/1.jpg,shop-images/1268/71459/2.jpg,shop-images/1268/71459/3.jpg,shop-images/1268/71459/4.jpg,shop-images/1268/71459/5.jpg,shop-images/1268/71459/6.jpg"}, {"id": 71460, "name": "楷模大普（长春红星美凯龙店）", "address": "长春市二道区远达大街红星美凯龙二号门三楼A3010号大普展位", "phone_number": "0431-81816192", "longitude": "125.382646", "latitude": "43.923829", "preview_image": "shop-images/1268/71460/1.jpg,shop-images/1268/71460/2.jpg,shop-images/1268/71460/3.jpg,shop-images/1268/71460/4.jpg"}, {"id": 71461, "name": "摇篮（长春红星美凯龙店）", "address": "长春市二道区远达大街大街826号红星美凯龙一号门三楼摇篮家具", "phone_number": "0431-81816191", "longitude": "125.383203", "latitude": "43.913616", "preview_image": "shop-images/1268/71461/1.jpg,shop-images/1268/71461/2.jpg,shop-images/1268/71461/3.jpg,shop-images/1268/71461/4.jpg"}, {"id": 71462, "name": "楷模大普（蚌埠南翔店）", "address": "蚌埠市南翔光彩国际家居博览中心中厅4楼", "phone_number": "0552-4196970", "longitude": "117.35438", "latitude": "32.91475", "preview_image": "shop-images/1268/71462/1.jpg,shop-images/1268/71462/2.jpg,shop-images/1268/71462/3.jpg,shop-images/1268/71462/4.jpg"}, {"id": 71463, "name": "楷模（广元居然店）", "address": "广元市利州区雪峰九华岩 居然之家 三楼1-3-028", "phone_number": "0839-2208000", "longitude": "105.914385", "latitude": "32.424093", "preview_image": "shop-images/1268/71463/1.jpg,shop-images/1268/71463/2.jpg,shop-images/1268/71463/3.jpg,shop-images/1268/71463/4.jpg,shop-images/1268/71463/5.jpg,shop-images/1268/71463/6.jpg"}, {"id": 71464, "name": "楷模独立店（连云港店）", "address": "连云港市海州区解放东路129-77号(解放东路与人民路交叉口)", "phone_number": "0518-85853222", "longitude": "119.2", "latitude": "34.62", "preview_image": "shop-images/1268/71464/1.jpg,shop-images/1268/71464/2.jpg,shop-images/1268/71464/3.jpg"}, {"id": 71465, "name": "楷模综合店（温州联结福店）", "address": "温州市温州大道690号联结福家具购物广场四楼C12-15大普店，C01-02楷模100店，C17-18拿铁店", "phone_number": "0577-86532898", "longitude": "120.72", "latitude": "27.99", "preview_image": "shop-images/1268/71465/1.jpg"}, {"id": 71466, "name": "楷模大普拿铁（江阴红星店）", "address": "无锡江阴普惠路与西外环交叉口红星美凯龙三楼北厅", "phone_number": "0510―86038972", "longitude": "120.236014", "latitude": "31.908746", "preview_image": "shop-images/1268/71466/1.jpg,shop-images/1268/71466/2.jpg,shop-images/1268/71466/3.jpg,shop-images/1268/71466/4.jpg"}, {"id": 71467, "name": "楷模（泰安红星美凯龙店）", "address": "泰安市龙潭南路红星美凯龙商场三楼D8026", "phone_number": "0538-2099311", "longitude": "117.12", "latitude": "36.11", "preview_image": ""}, {"id": 71468, "name": "楷模综合店（荣成居然之家博隆店）", "address": "荣成市观海东路98号居然之家博隆店一楼家具馆", "phone_number": "0631-7575679", "longitude": "122.47771", "latitude": "37.160249", "preview_image": "shop-images/1268/71468/1.jpg,shop-images/1268/71468/2.jpg,shop-images/1268/71468/3.jpg,shop-images/1268/71468/4.jpg,shop-images/1268/71468/5.jpg,shop-images/1268/71468/6.jpg"}, {"id": 71469, "name": "桐乡楷模家具", "address": "嘉兴市桐乡市世纪大道138号桐乡汽车站对面", "phone_number": "15757311116 ；18858311117", "longitude": "120.58", "latitude": "30.62", "preview_image": "shop-images/1268/71469/1.jpg"}, {"id": 71470, "name": "楷模&楷模100（衢州三衢路红星店）", "address": "衢州市柯城区三衢路190号红星美凯龙世博家居广场三楼COOMO", "phone_number": "0570-3170799", "longitude": "118.883879", "latitude": "28.948759", "preview_image": "shop-images/1268/71470/1.jpg,shop-images/1268/71470/2.jpg,shop-images/1268/71470/3.jpg,shop-images/1268/71470/4.jpg,shop-images/1268/71470/5.jpg,shop-images/1268/71470/6.jpg"}, {"id": 71471, "name": "楷模大普(贵州六盘水西南店)", "address": "贵州省六盘水市红桥新区西南国际家居装饰博览城家具馆一楼A1-27-大普", "phone_number": "0858-6632171", "longitude": "104.913294", "latitude": "26.546847", "preview_image": "shop-images/1268/71471/1.jpg,shop-images/1268/71471/2.jpg,shop-images/1268/71471/3.jpg,shop-images/1268/71471/4.jpg"}, {"id": 71472, "name": "楷模拿铁综合店(居然之家太阳城店）", "address": "太阳城A座3楼B区2号拿铁专柜", "phone_number": "0431-82725658", "longitude": "113.721477", "latitude": "34.730009", "preview_image": "shop-images/1268/71472/1.jpg,shop-images/1268/71472/2.jpg,shop-images/1268/71472/3.jpg,shop-images/1268/71472/4.jpg"}, {"id": 71473, "name": "楷模家具（威海特乙甲全球家居店）", "address": "威海市青岛中路106号乐天世纪城B座特乙甲全球家具广场二楼楷模专柜", "phone_number": "15098128889", "longitude": "122.16", "latitude": "37.43", "preview_image": "shop-images/1268/71473/1.jpg,shop-images/1268/71473/2.jpg,shop-images/1268/71473/3.jpg,shop-images/1268/71473/4.jpg,shop-images/1268/71473/5.jpg,shop-images/1268/71473/6.jpg"}, {"id": 71474, "name": "松原楷模店", "address": "松江大街油田十二种对面红星美凯龙四楼楷模COOMO", "phone_number": "0438-5181456", "longitude": "124.829364", "latitude": "45.141312", "preview_image": "shop-images/1268/71474/1.jpg,shop-images/1268/71474/2.jpg"}, {"id": 71475, "name": "楷模大普（德州德百家居广场综合店）", "address": "山东省德州市东风东路德百家居广场一楼中厅北首", "phone_number": "0534-2667178", "longitude": "116.340698", "latitude": "37.446908", "preview_image": "shop-images/1268/71475/1.jpg,shop-images/1268/71475/2.jpg,shop-images/1268/71475/3.jpg,shop-images/1268/71475/4.jpg,shop-images/1268/71475/5.jpg,shop-images/1268/71475/6.jpg"}, {"id": 71476, "name": "大普  楷模100（高邮世贸店）", "address": "江苏省高邮市世贸家居生活馆四楼楷模100、大普", "phone_number": "0514-85613131", "longitude": "119.468487", "latitude": "32.794509", "preview_image": "shop-images/1268/71476/1.jpg,shop-images/1268/71476/2.jpg,shop-images/1268/71476/3.jpg,shop-images/1268/71476/4.jpg,shop-images/1268/71476/5.jpg,shop-images/1268/71476/6.jpg"}, {"id": 71477, "name": "楷模摇篮（唐山居然之家店）", "address": "唐山市路北区建设路北口居然之家二层", "phone_number": "0315-3262077", "longitude": "118.1814", "latitude": "39.693962", "preview_image": "shop-images/1268/71477/1.jpg,shop-images/1268/71477/2.jpg,shop-images/1268/71477/3.jpg,shop-images/1268/71477/4.jpg,shop-images/1268/71477/5.jpg,shop-images/1268/71477/6.jpg"}, {"id": 71478, "name": "楷模（玉林富安居店） ", "address": "玉林市二环东路26号富安居国际建材家居卖场3楼中庭F3-50", "phone_number": "0775-3899368", "longitude": "110.201142", "latitude": "22.639294", "preview_image": "shop-images/1268/71478/1.jpg,shop-images/1268/71478/2.jpg,shop-images/1268/71478/3.jpg,shop-images/1268/71478/4.jpg,shop-images/1268/71478/5.jpg,shop-images/1268/71478/6.jpg"}, {"id": 71479, "name": "重庆垫江楷模独立店", "address": "重庆市垫江县南门建材城c区", "phone_number": "023-74697453", "longitude": "107.444445", "latitude": "30.259498", "preview_image": "shop-images/1268/71479/1.jpg,shop-images/1268/71479/2.jpg,shop-images/1268/71479/3.jpg,shop-images/1268/71479/4.jpg,shop-images/1268/71479/5.jpg,shop-images/1268/71479/6.jpg"}, {"id": 71480, "name": "楷模综合店（日照红星美凯龙店）", "address": "日照市迎宾路1号红星美凯龙三楼中厅楷模，大普旗舰店", "phone_number": "0633-8598996", "longitude": "119.44", "latitude": "35.42", "preview_image": "shop-images/1268/71480/1.jpg,shop-images/1268/71480/2.jpg,shop-images/1268/71480/3.jpg"}, {"id": 71481, "name": "楷模（寿光益家园店）", "address": "寿光市银海路与新兴街路口北五十米路东中百益家园二楼西区楷模家居", "phone_number": "13563645232", "longitude": "118.76", "latitude": "36.88", "preview_image": "shop-images/1268/71481/1.jpg,shop-images/1268/71481/2.jpg,shop-images/1268/71481/3.jpg"}, {"id": 71482, "name": "楷模（莱芜润东店）", "address": "莱芜市莱城区汶河大道2号润东家具城一楼", "phone_number": "06345858611", "longitude": "117.663954", "latitude": "36.204258", "preview_image": "shop-images/1268/71482/1.jpg,shop-images/1268/71482/2.jpg,shop-images/1268/71482/3.jpg,shop-images/1268/71482/4.jpg,shop-images/1268/71482/5.jpg,shop-images/1268/71482/6.jpg"}, {"id": 71483, "name": "楷模拿铁（浙江湖州店）", "address": "湖州市吴兴区富民南路2号织里一号家具世博园E馆楷模", "phone_number": "0572-2658007", "longitude": "120.278164", "latitude": "30.846784", "preview_image": "shop-images/1268/71483/1.jpg,shop-images/1268/71483/2.jpg,shop-images/1268/71483/3.jpg,shop-images/1268/71483/4.jpg,shop-images/1268/71483/5.jpg"}, {"id": 71484, "name": "大普（昆山红星美凯龙店）", "address": "苏州市昆山市翠薇东路518号", "phone_number": "0512-55255755", "longitude": "121.007021", "latitude": "31.422306", "preview_image": "shop-images/1268/71484/1.jpg,shop-images/1268/71484/2.jpg,shop-images/1268/71484/3.jpg,shop-images/1268/71484/4.jpg,shop-images/1268/71484/5.jpg"}, {"id": 71485, "name": "楷模独立店（烟台红星美凯龙店）", "address": "烟台市芝罘区机场路252号红星美凯龙一楼楷模家具", "phone_number": "05353407366", "longitude": "121.37", "latitude": "37.48", "preview_image": "shop-images/1268/71485/1.jpg"}, {"id": 71486, "name": "楷模（大连红星美凯龙店）", "address": "大连市甘井子区华南红星美凯龙国际家居广场；星海湾月星国际家居广场", "phone_number": "18545533188", "longitude": "121.61", "latitude": "38.92", "preview_image": ""}, {"id": 71487, "name": "楷模/楷模100（海口居然之家店）", "address": "海口市秀英区滨海大道102号居然之家二楼家居馆楷模家居", "phone_number": "0898-68601373", "longitude": "110.290359", "latitude": "20.025632", "preview_image": "shop-images/1268/71487/1.jpg,shop-images/1268/71487/2.jpg,shop-images/1268/71487/3.jpg,shop-images/1268/71487/4.jpg,shop-images/1268/71487/5.jpg,shop-images/1268/71487/6.jpg"}, {"id": 71488, "name": "楷模综合店（荆门大家装店）", "address": "荆门市掇刀区荆门大家装四楼楷模家居", "phone_number": "0724-8880178", "longitude": "112.19", "latitude": "30.99", "preview_image": "shop-images/1268/71488/1.jpg,shop-images/1268/71488/2.jpg,shop-images/1268/71488/3.jpg,shop-images/1268/71488/4.jpg"}, {"id": 71489, "name": "楷模综合（南昌喜盈门店）", "address": "南昌西湖区喜盈门家具建材广场四楼观光电梯右侧4036", "phone_number": "0791-86752667", "longitude": "115.9", "latitude": "28.66", "preview_image": "shop-images/1268/71489/1.jpg"}, {"id": 71490, "name": "楷模（松原红星美凯龙店）", "address": "松原市松江大街红星美凯龙四楼", "phone_number": "0438-5181456", "longitude": "124.83", "latitude": "45.14", "preview_image": ""}, {"id": 71491, "name": "大普（库尔勒店）", "address": "库尔勒市华凌贸易城3楼A区28-39号", "phone_number": "0996-2935222", "longitude": "86.16", "latitude": "41.79", "preview_image": ""}, {"id": 71492, "name": "大普（乌鲁木齐万佳店）", "address": "乌鲁木齐新市区美居物流园H座万佳国际家居一楼1A01大普展厅", "phone_number": "0991―6676128", "longitude": "87.59", "latitude": "43.87", "preview_image": ""}, {"id": 71493, "name": "楷模（乌鲁木齐华凌楷模）", "address": "乌鲁木齐市华凌国际贸易城家具B楼3楼D区3-07或4-08", "phone_number": "0991-5184128", "longitude": "87.61", "latitude": "43.82", "preview_image": ""}, {"id": 71494, "name": "楷模居品（莆田喜盈门独立店）", "address": "莆田市城厢区喜盈门建材家具广场四楼", "phone_number": "0594-2279799", "longitude": "119.02", "latitude": "25.42", "preview_image": "shop-images/1268/71494/1.jpg,shop-images/1268/71494/2.jpg,shop-images/1268/71494/3.jpg,shop-images/1268/71494/4.jpg,shop-images/1268/71494/5.jpg,shop-images/1268/71494/6.jpg"}, {"id": 71495, "name": "大术（乌鲁木齐万佳店）", "address": "乌鲁木齐新市区美居物流园H座万佳国际家居三楼3A05大术店", "phone_number": "0991-6641628", "longitude": "87.59", "latitude": "43.87", "preview_image": ""}, {"id": 71496, "name": "楷模综合店（泉州喜盈门店）", "address": "泉州市丰泽区东辅路1088号喜盈门家居4楼-5楼5005", "phone_number": "0595-28596938", "longitude": "118.66", "latitude": "24.93", "preview_image": "shop-images/1268/71496/1.jpg,shop-images/1268/71496/2.jpg,shop-images/1268/71496/3.jpg"}, {"id": 71497, "name": "楷模综合店（乌鲁木齐万佳店）", "address": "乌鲁木齐新市区万佳国际家具1楼1A04", "phone_number": "0991-6622128", "longitude": "87.55", "latitude": "43.9", "preview_image": ""}, {"id": 71498, "name": "拿铁（乌鲁木齐万佳店）", "address": "乌鲁木齐市美居物流园万佳国际家居1楼1A04", "phone_number": "0991-6622128", "longitude": "87.59", "latitude": "43.87", "preview_image": ""}, {"id": 71499, "name": "楷模（榆林店）", "address": "榆林市高新区旧210国道西部三辰主楼三楼", "phone_number": "0912-2263040", "longitude": "109.75", "latitude": "38.28", "preview_image": "shop-images/1268/71499/1.jpg"}, {"id": 71500, "name": "楷模大普(烟台嘉禾乐天店)", "address": "烟台市芝罘区通洋路39号嘉禾乐天家居家具馆2楼", "phone_number": "0535-2151805", "longitude": "121.373295", "latitude": "37.471017", "preview_image": "shop-images/1268/71500/1.jpg,shop-images/1268/71500/2.jpg,shop-images/1268/71500/3.jpg,shop-images/1268/71500/4.jpg,shop-images/1268/71500/5.jpg"}, {"id": 71501, "name": "楷模(连云港红星美凯龙店)", "address": "连云港市新浦区凌州路与科苑路交汇处(秀逸苏杭旁)红星美凯龙三楼", "phone_number": "0518-85853222", "longitude": "119.22", "latitude": "34.62", "preview_image": "shop-images/1268/71501/1.jpg"}, {"id": 71502, "name": "大普（莱芜润东店）", "address": "莱芜市莱城区汶河大道2号润东家具城二楼", "phone_number": "06345858611", "longitude": "117.66", "latitude": "36.2", "preview_image": "shop-images/1268/71502/1.jpg,shop-images/1268/71502/2.jpg,shop-images/1268/71502/3.jpg,shop-images/1268/71502/4.jpg,shop-images/1268/71502/5.jpg,shop-images/1268/71502/6.jpg"}, {"id": 71503, "name": "大普（唐山唐百时代家居店）", "address": "唐山市路北区唐百时代家居四层", "phone_number": "0315-3291139", "longitude": "118.19", "latitude": "39.66", "preview_image": ""}, {"id": 71504, "name": "大普家具.楷模100家具（十堰   居然之家店）", "address": "十堰市北京北路居然之家六号厅负一楼B1-020", "phone_number": "0719-8021115", "longitude": "110.803934", "latitude": "32.652777", "preview_image": "shop-images/1268/71504/1.jpg,shop-images/1268/71504/2.jpg,shop-images/1268/71504/3.jpg,shop-images/1268/71504/4.jpg"}, {"id": 71505, "name": "许昌楷模专卖店", "address": "许昌天宝路与延安路交叉口向西500米长江国际商城中厅二楼右侧", "phone_number": "0374-2672555", "longitude": "113.79", "latitude": "34.06", "preview_image": "shop-images/1268/71505/1.jpg,shop-images/1268/71505/2.jpg,shop-images/1268/71505/3.jpg"}, {"id": 71506, "name": "楷模家具（烟台嘉禾乐天家居店）", "address": "烟台市芝罘区黄务嘉禾乐天家居二楼", "phone_number": "0535-2151883", "longitude": "121.37", "latitude": "37.47", "preview_image": "shop-images/1268/71506/1.jpg,shop-images/1268/71506/2.jpg,shop-images/1268/71506/3.jpg"}, {"id": 71507, "name": "沅江楷模家居生活馆", "address": "沅江市巴山西路楷模家居生活馆", "phone_number": "0737-2889888 /18773730718", "longitude": "112.37", "latitude": "28.84", "preview_image": "shop-images/1268/71507/1.jpg"}, {"id": 71508, "name": "楷模100（东海万尚会店)", "address": "东海万尚会家居生活广场3楼", "phone_number": "0518-87786663", "longitude": "121.81", "latitude": "31.1", "preview_image": "shop-images/1268/71508/1.jpg,shop-images/1268/71508/2.jpg,shop-images/1268/71508/3.jpg,shop-images/1268/71508/4.jpg,shop-images/1268/71508/5.jpg"}, {"id": 71509, "name": "楷模100（宿州）", "address": "宿州楷模一店华美家具大世界 楷模二店皇冠家居二楼电梯右手边", "phone_number": "0557-2539988      0557-3622720", "longitude": "117.0", "latitude": "33.64", "preview_image": ""}, {"id": 71510, "name": "楷模居品制造", "address": "遵义市红花岗区遵南大道富邦家装商城一楼", "phone_number": "0851-27624899", "longitude": "106.89", "latitude": "27.64", "preview_image": "shop-images/1268/71510/1.jpg"}, {"id": 71512, "name": "楷模家具生活馆(舟山科来华店）", "address": "舟山市定海临城街道科来华建材城(西大门)2号楼", "phone_number": "0580-2166669", "longitude": "122.209734", "latitude": "29.997622", "preview_image": "shop-images/1268/71512/1.jpg,shop-images/1268/71512/2.jpg,shop-images/1268/71512/3.jpg,shop-images/1268/71512/4.jpg"}, {"id": 71513, "name": "楷模大普（淄博居然之家店）", "address": "淄博市张店区居然之家三楼", "phone_number": "400-827-6111", "longitude": "118.063765", "latitude": "36.844797", "preview_image": "shop-images/1268/71513/1.jpg,shop-images/1268/71513/2.jpg,shop-images/1268/71513/3.jpg,shop-images/1268/71513/4.jpg,shop-images/1268/71513/5.jpg,shop-images/1268/71513/6.jpg"}, {"id": 71514, "name": "楷模独立店（甘肃武威店）", "address": "甘肃省武威市凉州区西二环路麻纺厂南侧消防队对面河西家私城", "phone_number": "0935-6123061", "longitude": "102.634979", "latitude": "37.927494", "preview_image": "shop-images/1268/71514/1.jpg,shop-images/1268/71514/2.jpg,shop-images/1268/71514/3.jpg"}, {"id": 71515, "name": "楷模大普（舟山红星美凯龙店）", "address": "舟山市定海临城街道红星美凯龙三楼C-8058", "phone_number": "0580-2049498", "longitude": "122.234032", "latitude": "29.981641", "preview_image": "shop-images/1268/71515/1.jpg,shop-images/1268/71515/2.jpg,shop-images/1268/71515/3.jpg,shop-images/1268/71515/4.jpg"}, {"id": 71516, "name": "楷模（安徽亳州店）", "address": "百惠爱生活家居广场三楼楷模", "phone_number": "0558-5568668", "longitude": "113.676795", "latitude": "22.941328", "preview_image": "shop-images/1268/71516/1.jpg,shop-images/1268/71516/2.jpg,shop-images/1268/71516/3.jpg,shop-images/1268/71516/4.jpg,shop-images/1268/71516/5.jpg,shop-images/1268/71516/6.jpg"}, {"id": 71517, "name": "克拉玛依楷模拿铁综合店", "address": "克拉玛依市幸福路家佳乐A座2楼", "phone_number": "6969831", "longitude": "84.875439", "latitude": "45.588644", "preview_image": "shop-images/1268/71517/1.jpg"}, {"id": 71518, "name": "楷模家具（榆林三辰店）", "address": "榆林市开发区西部三辰家具建材博览中心主楼三楼", "phone_number": "0912-3596282", "longitude": "109.760542", "latitude": "38.229084", "preview_image": "shop-images/1268/71518/1.jpg,shop-images/1268/71518/2.jpg,shop-images/1268/71518/3.jpg"}, {"id": 71519, "name": "楷模（临汾居然之家店）", "address": "山西省临汾市尧都区河汾路中段居然之家四层西厅东扶梯口", "phone_number": "0357-2311955", "longitude": "111.522764", "latitude": "36.108574", "preview_image": "shop-images/1268/71519/1.jpg,shop-images/1268/71519/2.jpg,shop-images/1268/71519/3.jpg,shop-images/1268/71519/4.jpg,shop-images/1268/71519/5.jpg"}, {"id": 71520, "name": "楷模拿铁（邯郸居然之家店）", "address": "邯郸市邯山区学院北路与浴新南大街交叉口隆基泰和广场居然之家三楼中厅", "phone_number": "0310-5510800", "longitude": "114.486204", "latitude": "36.585698", "preview_image": "shop-images/1268/71520/1.jpg,shop-images/1268/71520/2.jpg,shop-images/1268/71520/3.jpg"}, {"id": 71521, "name": "楷模100（邯郸月星家居店）", "address": "滏河北大街月星家居东厅二楼A290楷模100店", "phone_number": "0310-7056518", "longitude": "114.526108", "latitude": "36.648601", "preview_image": "shop-images/1268/71521/1.jpg,shop-images/1268/71521/2.jpg,shop-images/1268/71521/3.jpg"}, {"id": 71522, "name": "楷模家具(临沂澳尔诺家居店)", "address": "山东省临沂市兰山区通达路与启阳路交汇处澳尔诺家居一楼大普", "phone_number": "0539-8218818", "longitude": "118.336375", "latitude": "35.064773", "preview_image": "shop-images/1268/71522/1.jpg,shop-images/1268/71522/2.jpg,shop-images/1268/71522/3.jpg,shop-images/1268/71522/4.jpg,shop-images/1268/71522/5.jpg,shop-images/1268/71522/6.jpg"}, {"id": 71523, "name": "楷模大普拿铁（金华锦绣店）", "address": "金华市婺城区婺州街966号锦绣国际家居1号馆一楼A001-A004", "phone_number": "0579-82153200", "longitude": "119.63854", "latitude": "29.07159", "preview_image": "shop-images/1268/71523/1.jpg,shop-images/1268/71523/2.jpg,shop-images/1268/71523/3.jpg,shop-images/1268/71523/4.jpg,shop-images/1268/71523/5.jpg,shop-images/1268/71523/6.jpg"}, {"id": 71524, "name": "楷模楷模（济宁金宇店）", "address": "济宁市金宇路9号D馆一楼楷模家居 (汽车北站北临)", "phone_number": "0537-3157206", "longitude": "116.606805", "latitude": "35.436383", "preview_image": "shop-images/1268/71524/1.jpg,shop-images/1268/71524/2.jpg,shop-images/1268/71524/3.jpg,shop-images/1268/71524/4.jpg,shop-images/1268/71524/5.jpg,shop-images/1268/71524/6.jpg"}, {"id": 71525, "name": "楷模大普（无锡月星店）", "address": "无锡市锡沪中路199号", "phone_number": "0510-82867522", "longitude": "120.324256", "latitude": "31.594888", "preview_image": "shop-images/1268/71525/1.jpg,shop-images/1268/71525/2.jpg,shop-images/1268/71525/3.jpg,shop-images/1268/71525/4.jpg"}, {"id": 71526, "name": "大普（镇江月星店）", "address": "镇江天桥路8号月星家居三楼", "phone_number": "0511-89989089", "longitude": "119.472432", "latitude": "32.1986", "preview_image": "shop-images/1268/71526/1.jpg,shop-images/1268/71526/2.jpg,shop-images/1268/71526/3.jpg,shop-images/1268/71526/4.jpg,shop-images/1268/71526/5.jpg,shop-images/1268/71526/6.jpg"}, {"id": 71527, "name": "楷模梵蒂尼（贵阳红星店）", "address": "贵州省贵阳市南明区油榨街红星美凯龙一期一楼A1-8167-1梵蒂尼专卖店", "phone_number": "0851-5515216", "longitude": "106.740398", "latitude": "26.564066", "preview_image": "shop-images/1268/71527/1.jpg,shop-images/1268/71527/2.jpg"}, {"id": 71528, "name": "楷模大普（长沙欧亚达店）", "address": "长沙雨花区劳动路与万家丽路交界处欧亚达家具建材广场南亭五楼大普店", "phone_number": "0731-85919088", "longitude": "112.984104", "latitude": "28.183204", "preview_image": "shop-images/1268/71528/1.jpg,shop-images/1268/71528/2.jpg,shop-images/1268/71528/3.jpg,shop-images/1268/71528/4.jpg,shop-images/1268/71528/5.jpg"}, {"id": 71529, "name": "楷模（南通百安谊家店）", "address": "江苏省南通市港闸区百安谊家国际馆三楼楷模，楷模拿铁，楷模大普。", "phone_number": "0513-89022996", "longitude": "120.858995", "latitude": "32.047577", "preview_image": "shop-images/1268/71529/1.jpg,shop-images/1268/71529/2.jpg,shop-images/1268/71529/3.jpg,shop-images/1268/71529/4.jpg,shop-images/1268/71529/5.jpg,shop-images/1268/71529/6.jpg"}, {"id": 71530, "name": "楷模家居生活馆（晋江店）", "address": "晋江sm国际广场吉家家世界四楼 E-50/51/52", "phone_number": "0595-85001288", "longitude": "118.573973", "latitude": "24.784449", "preview_image": "shop-images/1268/71530/1.jpg,shop-images/1268/71530/2.jpg,shop-images/1268/71530/3.jpg,shop-images/1268/71530/4.jpg,shop-images/1268/71530/5.jpg"}, {"id": 71531, "name": "楷模家居生活馆（南充独立店）", "address": "四川省南充市嘉陵区耀目路三段2号", "phone_number": "0817-3764321", "longitude": "106.078823", "latitude": "30.762478", "preview_image": "shop-images/1268/71531/1.jpg,shop-images/1268/71531/2.jpg,shop-images/1268/71531/3.jpg,shop-images/1268/71531/4.jpg,shop-images/1268/71531/5.jpg,shop-images/1268/71531/6.jpg"}, {"id": 71532, "name": "泉州楷模家居生活馆", "address": "泉州市丰泽区城东街道普济路25号", "phone_number": "0595-22096246", "longitude": "118.66504", "latitude": "24.928982", "preview_image": "shop-images/1268/71532/1.jpg,shop-images/1268/71532/2.jpg,shop-images/1268/71532/3.jpg,shop-images/1268/71532/4.jpg,shop-images/1268/71532/5.jpg,shop-images/1268/71532/6.jpg"}, {"id": 71533, "name": "楷模（陕西铜川）", "address": "铜川市耀州区正阳国际家居广场三楼楷模专柜", "phone_number": "0919-3158814", "longitude": "108.959885", "latitude": "34.906493", "preview_image": "shop-images/1268/71533/1.jpg,shop-images/1268/71533/2.jpg,shop-images/1268/71533/3.jpg,shop-images/1268/71533/4.jpg,shop-images/1268/71533/5.jpg,shop-images/1268/71533/6.jpg"}, {"id": 71534, "name": "楷模拿铁（北京北四环居然之家店）", "address": "北京市北四环东路65号居然之家1号馆2层025拿铁家具", "phone_number": "010-84638927", "longitude": "116.442757", "latitude": "39.996545", "preview_image": "shop-images/1268/71534/1.jpg,shop-images/1268/71534/2.jpg,shop-images/1268/71534/3.jpg"}, {"id": 71535, "name": "楷模大普（深圳红星店）", "address": "福田区香蜜湖红星美凯龙2楼", "phone_number": "0755―23813226", "longitude": "114.042211", "latitude": "22.557398", "preview_image": "shop-images/1268/71535/1.jpg,shop-images/1268/71535/2.jpg,shop-images/1268/71535/3.jpg"}, {"id": 71536, "name": "楷模大普（北京北四环居然之家店）", "address": "北京市北四环东路65号居然之家1号馆2层013大普家具", "phone_number": "010-84632918", "longitude": "116.44", "latitude": "40.0", "preview_image": "shop-images/1268/71536/1.jpg,shop-images/1268/71536/2.jpg,shop-images/1268/71536/3.jpg,shop-images/1268/71536/4.jpg"}, {"id": 71537, "name": "圣萝莎（天津和平加宜家居全屋定制店）", "address": "天津市和平区南门外大街和平加宜家居一楼圣萝莎整体衣柜店", "phone_number": "022-27357716", "longitude": "117.188629", "latitude": "39.140967", "preview_image": "shop-images/1268/71537/1.jpg,shop-images/1268/71537/2.jpg,shop-images/1268/71537/3.jpg,shop-images/1268/71537/4.jpg"}, {"id": 71538, "name": "楷模居品制造（北京十里河店）", "address": "北京十里河居然之家家居馆三层8-3-001", "phone_number": "010-87366343", "longitude": "116.443784", "latitude": "39.996227", "preview_image": "shop-images/1268/71538/1.jpg,shop-images/1268/71538/2.jpg,shop-images/1268/71538/3.jpg,shop-images/1268/71538/4.jpg,shop-images/1268/71538/5.jpg"}, {"id": 71539, "name": "楷模独立店（武汉汉口红星美凯龙店）", "address": "武汉市~口区额头湾红星美凯龙独立店1号馆", "phone_number": "027-59559600", "longitude": "114.275971", "latitude": "30.580219", "preview_image": "shop-images/1268/71539/1.jpg,shop-images/1268/71539/2.jpg,shop-images/1268/71539/3.jpg,shop-images/1268/71539/4.jpg,shop-images/1268/71539/5.jpg,shop-images/1268/71539/6.jpg"}, {"id": 71540, "name": "张家港楷模大普拿铁综合店", "address": "张家港市南二环路1号红星美凯龙家具馆二楼楷模大普拿铁", "phone_number": "0512-58905467", "longitude": "120.558007", "latitude": "31.843826", "preview_image": "shop-images/1268/71540/1.jpg,shop-images/1268/71540/2.jpg,shop-images/1268/71540/3.jpg,shop-images/1268/71540/4.jpg,shop-images/1268/71540/5.jpg,shop-images/1268/71540/6.jpg"}, {"id": 71541, "name": "楷模家居生活馆（武汉武昌月星家居江南店）", "address": "武汉市洪山区珞狮南路425号月星家居江南店", "phone_number": "027-87741765", "longitude": "114.36", "latitude": "30.52", "preview_image": "shop-images/1268/71541/1.jpg,shop-images/1268/71541/2.jpg,shop-images/1268/71541/3.jpg,shop-images/1268/71541/4.jpg,shop-images/1268/71541/5.jpg,shop-images/1268/71541/6.jpg"}, {"id": 71542, "name": "大普（深圳红星美凯龙店）", "address": "深圳市福田区世纪中心红星美凯龙二楼", "phone_number": "0755-23813226", "longitude": "114.04", "latitude": "22.55", "preview_image": "shop-images/1268/71542/1.jpg,shop-images/1268/71542/2.jpg,shop-images/1268/71542/3.jpg,shop-images/1268/71542/4.jpg,shop-images/1268/71542/5.jpg,shop-images/1268/71542/6.jpg"}, {"id": 71543, "name": "楷模一百（昆山月星好家居店）", "address": "昆山市江浦路388号月星好家居广场3楼C8070", "phone_number": "0512-57508281", "longitude": "120.930623", "latitude": "31.399913", "preview_image": "shop-images/1268/71543/1.jpg,shop-images/1268/71543/2.jpg,shop-images/1268/71543/3.jpg,shop-images/1268/71543/4.jpg,shop-images/1268/71543/5.jpg,shop-images/1268/71543/6.jpg"}, {"id": 71544, "name": "楷模大普（合肥红星美凯龙政务店）", "address": "合肥市东流路与潜山路交口东800米红星美凯龙政务区商城3楼中庭", "phone_number": "0551-63527988", "longitude": "117.245773", "latitude": "31.822566", "preview_image": "shop-images/1268/71544/1.jpg,shop-images/1268/71544/2.jpg,shop-images/1268/71544/3.jpg,shop-images/1268/71544/4.jpg,shop-images/1268/71544/5.jpg,shop-images/1268/71544/6.jpg"}, {"id": 71545, "name": "大普（成都金牛红星）", "address": "成都市金牛区三环路内侧凤凰立交红星美凯龙三楼大普店", "phone_number": "028-80580511", "longitude": "104.05", "latitude": "30.73", "preview_image": "shop-images/1268/71545/1.jpg,shop-images/1268/71545/2.jpg,shop-images/1268/71545/3.jpg"}, {"id": 71546, "name": "拿铁（西安红星美凯龙店）", "address": "西安市未央区盛龙广场红星美凯龙4楼楷模D8205", "phone_number": "029-68755190   14709222601", "longitude": "108.95", "latitude": "34.31", "preview_image": ""}, {"id": 71547, "name": " 楷模独立店（福清楷模店）", "address": "福清市龙江街道倪埔村口康城家居建材市场2号楼广汇家居商场", "phone_number": "0591-85973555", "longitude": "119.404883", "latitude": "25.698398", "preview_image": "shop-images/1268/71547/1.jpg,shop-images/1268/71547/2.jpg,shop-images/1268/71547/3.jpg,shop-images/1268/71547/4.jpg,shop-images/1268/71547/5.jpg"}, {"id": 71548, "name": "楷模家具（北京居然之家金源店）", "address": "北京市海淀区远大路1号金源时代购物中心居然之家三楼楷模3003", "phone_number": "010-88864313", "longitude": "116.3", "latitude": "39.97", "preview_image": "shop-images/1268/71548/1.jpg,shop-images/1268/71548/2.jpg,shop-images/1268/71548/3.jpg,shop-images/1268/71548/4.jpg"}, {"id": 71549, "name": "楷模（昆山月星店）", "address": "苏州昆山市江浦路388号月星家居一期三楼", "phone_number": "0512-57563877", "longitude": "121.1", "latitude": "31.45", "preview_image": "shop-images/1268/71549/1.jpg,shop-images/1268/71549/2.jpg,shop-images/1268/71549/3.jpg"}, {"id": 71550, "name": "楷模（杭州第六空间大都会店）", "address": "杭州市滨江区江南大道1088号第六空间现代馆3楼楷模家具B310", "phone_number": "0571-87391828", "longitude": "120.19807", "latitude": "30.202809", "preview_image": "shop-images/1268/71550/1.jpg,shop-images/1268/71550/2.jpg,shop-images/1268/71550/3.jpg,shop-images/1268/71550/4.jpg,shop-images/1268/71550/5.jpg,shop-images/1268/71550/6.jpg"}, {"id": 71551, "name": "大普（武昌居然之家店)", "address": "武汉市武昌区徐东大街50号居然之家一楼", "phone_number": "027-59232158", "longitude": "114.37", "latitude": "30.58", "preview_image": "shop-images/1268/71551/1.jpg"}, {"id": 71552, "name": "楷模大普独立店（合肥红星美凯龙滨湖店）", "address": "合肥市庐州大道与锦绣大道交叉口", "phone_number": "0551-63519191", "longitude": "117.30889", "latitude": "31.761897", "preview_image": "shop-images/1268/71552/1.jpg,shop-images/1268/71552/2.jpg,shop-images/1268/71552/3.jpg,shop-images/1268/71552/4.jpg,shop-images/1268/71552/5.jpg,shop-images/1268/71552/6.jpg"}, {"id": 71553, "name": "楷模拿铁（南京卡子门店）", "address": "南京市雨花台区卡子门大街月星家居3F C035楷模拿铁店", "phone_number": "025-58087360", "longitude": "118.803789", "latitude": "31.995365", "preview_image": "shop-images/1268/71553/1.jpg,shop-images/1268/71553/2.jpg,shop-images/1268/71553/3.jpg"}, {"id": 71554, "name": "摇篮（深圳红星美凯龙店）", "address": "深圳市福田区世纪中心红星美凯龙一楼", "phone_number": "0755-23915079", "longitude": "114.035044", "latitude": "22.547081", "preview_image": "shop-images/1268/71554/1.jpg"}, {"id": 71555, "name": "大术（深圳欧洲城店）", "address": "深圳市南山区欧洲城香江家居4楼", "phone_number": "0755-86239229", "longitude": "113.97", "latitude": "22.56", "preview_image": "shop-images/1268/71555/1.jpg"}, {"id": 71556, "name": "楷模100(南京卡子门店)", "address": "南京市秦淮区卡子门大街29号红星美凯龙三楼楷模100", "phone_number": "025-52809989", "longitude": "118.81", "latitude": "31.99", "preview_image": "shop-images/1268/71556/1.jpg,shop-images/1268/71556/2.jpg,shop-images/1268/71556/3.jpg,shop-images/1268/71556/4.jpg"}, {"id": 71557, "name": "楷模大普（南京卡子门店）", "address": "南京卡子门红星美凯龙三楼中厅大普", "phone_number": "025-58809986", "longitude": "118.791739", "latitude": "32.080595", "preview_image": "shop-images/1268/71557/1.jpg,shop-images/1268/71557/2.jpg,shop-images/1268/71557/3.jpg,shop-images/1268/71557/4.jpg,shop-images/1268/71557/5.jpg"}, {"id": 71558, "name": "楷模大术（合肥红星美凯龙政务区店）", "address": "合肥市东流路与潜山路交口东800米红星美凯龙政务区商场5楼中庭", "phone_number": "0551-63517566", "longitude": "117.223908", "latitude": "31.828656", "preview_image": "shop-images/1268/71558/1.jpg,shop-images/1268/71558/2.jpg,shop-images/1268/71558/3.jpg,shop-images/1268/71558/4.jpg,shop-images/1268/71558/5.jpg,shop-images/1268/71558/6.jpg"}, {"id": 71559, "name": "大普（汉口欧亚达店）", "address": "武汉市江汉区常青街银河里66号欧亚达国际馆", "phone_number": "027―50530658", "longitude": "114.26", "latitude": "30.62", "preview_image": "shop-images/1268/71559/1.jpg,shop-images/1268/71559/2.jpg,shop-images/1268/71559/3.jpg,shop-images/1268/71559/4.jpg,shop-images/1268/71559/5.jpg"}, {"id": 71560, "name": "楷模拿铁独立店（合肥红星美凯龙滨湖店）", "address": "合肥市庐州大道与锦绣大道交叉口", "phone_number": "0551-65865568", "longitude": "117.30889", "latitude": "31.761897", "preview_image": "shop-images/1268/71560/1.jpg,shop-images/1268/71560/2.jpg,shop-images/1268/71560/3.jpg,shop-images/1268/71560/4.jpg,shop-images/1268/71560/5.jpg,shop-images/1268/71560/6.jpg"}, {"id": 71561, "name": "苏州独立店（第六空间店）", "address": "苏州工业园区旺墩路第六空间现代馆楷模居品", "phone_number": "0512-62960292", "longitude": "120.724237", "latitude": "31.32641", "preview_image": "shop-images/1268/71561/1.jpg,shop-images/1268/71561/2.jpg,shop-images/1268/71561/3.jpg"}]