[{"id": 110937, "name": "\u6b27\u795e\u8bfa\u5962\u74f7\u4f53\u9a8c\u9986", "address": "\u5317\u4eac\u5e02\u5341\u91cc\u6cb3\u95fd\u9f99\u9676\u74f7\u603b\u90e8\u57fa\u5730B\u533a2\u53f7\u6b27\u795e\u8bfa\u94c2\u91d1\u9986\uff08\u65d7\u8230\u5e97\uff09", "telephone": "400186000", "preview_image": "brands_images/full/1381.jpg", "brand_id": 1381, "create_time": "NOW()", "longitude": 116.48438954559964, "latitude": 39.863727008636545, "region_id_1": "110000", "region_id_2": "110100", "region_id_3": "110105"}, {"id": 110938, "name": "\u6b27\u795e\u8bfa\u5962\u74f7\u4f53\u9a8c\u9986", "address": "\u5317\u4eac\u5e02\u671d\u9633\u533a\u5927\u90ca\u4ead\u6865\u4e1c\u56db\u73af\u7ea2\u661f\u7f8e\u51ef\u9f99\u5efa\u6750\u9986\u4e8c\u5c42", "telephone": "400186000", "preview_image": "brands_images/full/1381.jpg", "brand_id": 1381, "create_time": "NOW()", "longitude": 116.49895816644518, "latitude": 39.889191934040895, "region_id_1": "110000", "region_id_2": "110100", "region_id_3": "110105"}, {"id": 110939, "name": "\u6b27\u795e\u8bfa\u5962\u74f7\u4f53\u9a8c\u9986", "address": "\u5317\u4eac\u5e02\u897f\u56db\u73af\u7ea2\u661f\u7f8e\u51ef\u9f99\u56fd\u9645\u5bb6\u5c45\u5efa\u6750\u4e00\u5c42B8063", "telephone": "400186000", "preview_image": "brands_images/full/1381.jpg", "brand_id": 1381, "create_time": "NOW()", "longitude": 116.37085243461713, "latitude": 39.865702912483904, "region_id_1": "110000", "region_id_2": "110100", "region_id_3": "110106"}, {"id": 110940, "name": "\u6b27\u795e\u8bfa\u5962\u74f7\u4f53\u9a8c\u9986", "address": "\u5317\u4eac\u5e02\u671d\u9633\u533a\u5317\u56db\u73af\u4e1c\u8def65\u597d\u5c45\u7136\u4e4b\u5bb6\u4e8c\u697c3-2-014", "telephone": "400186000", "preview_image": "brands_images/full/1381.jpg", "brand_id": 1381, "create_time": "NOW()", "longitude": 116.44287892972936, "latitude": 39.996333051478146, "region_id_1": "110000", "region_id_2": "110100", "region_id_3": "110105"}, {"id": 110941, "name": "\u6b27\u795e\u8bfa\u5962\u74f7\u4f53\u9a8c\u9986", "address": "\u5317\u4eac\u5e02\u4e30\u53f0\u533a\u5357\u4e09\u73af\u897f\u8def58\u53f7\u7389\u6cc9\u8425\u5c45\u7136\u4e4b\u5bb62-081 ", "telephone": "400186000", "preview_image": "brands_images/full/1381.jpg", "brand_id": 1381, "create_time": "NOW()", "longitude": 116.34946485839116, "latitude": 39.85248116156545, "region_id_1": "110000", "region_id_2": "110100", "region_id_3": "110106"}, {"id": 110942, "name": "\u6b27\u795e\u8bfa\u5962\u74f7\u4f53\u9a8c\u9986", "address": "\u5317\u4eac\u5e02\u6d77\u6dc0\u533a\u8fdc\u5927\u8def\u5c45\u7136\u4e4b\u5bb6\u91d1\u6e90\u5e97\u4e8c\u671f2-1-057", "telephone": "400186000", "preview_image": "brands_images/full/1381.jpg", "brand_id": 1381, "create_time": "NOW()", "longitude": 116.29216379323258, "latitude": 39.96453246401304, "region_id_1": "110000", "region_id_2": "110100", "region_id_3": "110108"}, {"id": 110943, "name": "\u6b27\u795e\u8bfa\u5962\u74f7\u4f53\u9a8c\u9986", "address": "\u5317\u4eac\u5e02\u671d\u9633\u533a\u5341\u91cc\u6cb3\u5c45\u7136\u4e4b\u5bb6\u4e8c\u671f2-2-010", "telephone": "400186000", "preview_image": "brands_images/full/1381.jpg", "brand_id": 1381, "create_time": "NOW()", "longitude": 116.4747302380272, "latitude": 39.8655012563643, "region_id_1": "110000", "region_id_2": "110100", "region_id_3": "110105"}, {"id": 110944, "name": "\u6b27\u795e\u8bfa\u9676\u74f7", "address": "\u5929\u6d25\u5e02\u6cb3\u897f\u533a\u9ed1\u725b\u57ce\u905329\u53f7\u7ea2\u661f\u7f8e\u51ef\u9f99\u56fd\u9645\u5bb6\u5c45\u5e7f\u573a\u4e00\u5c42A8312\u53f7", "telephone": "400186000", "preview_image": "brands_images/full/1381.jpg", "brand_id": 1381, "create_time": "NOW()", "longitude": 117.23740598888665, "latitude": 39.084494539958456, "region_id_1": "120000", "region_id_2": "120100", "region_id_3": "120103"}, {"id": 110945, "name": "\u6b27\u795e\u8bfa\u5962\u74f7\u4f53\u9a8c\u9986", "address": "\u5929\u6d25\u5e02\u6cb3\u897f\u533a\u89e3\u653e\u5357\u8def473\u53f7\u73af\u6e24\u6d77\u56fd\u9645\u5bb6\u5c45\u8bbe\u8ba1\u91c7\u8d2d\u4e2d\u5fc3\u4e8c\u5c425\u53f7", "telephone": "400186000", "preview_image": "brands_images/full/1381.jpg", "brand_id": 1381, "create_time": "NOW()", "longitude": 117.24502363847567, "latitude": 39.07629779710833, "region_id_1": "120000", "region_id_2": "120100", "region_id_3": "120103"}, {"id": 110946, "name": "\u6b27\u795e\u8bfa\u5962\u74f7\u9986", "address": "\u5929\u6d25\u5e02\u84df\u53bf\u4f73\u57ce\u516c\u5bd3\u5149\u660e\u8def19\u53f7", "telephone": "400186000", "preview_image": "brands_images/full/1381.jpg", "brand_id": 1381, "create_time": "NOW()", "longitude": 117.4318555351708, "latitude": 40.05852346159401, "region_id_1": "120000", "region_id_2": "120100", "region_id_3": "120225"}, {"id": 110947, "name": "\u6b27\u795e\u8bfa\u9676\u74f7", "address": "\u6cb3\u5317\u7701\u77f3\u5bb6\u5e84\u5e02\u6000\u7279\u9676\u74f7\u57ce105\u53f7", "telephone": "400186000", "preview_image": "brands_images/full/1381.jpg", "brand_id": 1381, "create_time": "NOW()", "longitude": 114.5403215692825, "latitude": 38.02574934988514, "region_id_1": "130000", "region_id_2": "130100", "region_id_3": "130108"}, {"id": 110948, "name": "\u6b27\u795e\u8bfa\u5962\u74f7\u4f53\u9a8c\u9986", "address": "\u6cb3\u5317\u7701\u77f3\u5bb6\u5e84\u8f9b\u96c6\u5e02\u4f17\u7f8e\u88c5\u9970\u5efa\u6750\u57ce", "telephone": "400186000", "preview_image": "brands_images/full/1381.jpg", "brand_id": 1381, "create_time": "NOW()", "longitude": 115.24167214363779, "latitude": 37.919614951584535, "region_id_1": "130000", "region_id_2": "130100", "region_id_3": "130181"}, {"id": 110949, "name": "\u6b27\u795e\u8bfa\u9676\u74f7\u65b0\u5929\u5730\u5e97", "address": "\u6cb3\u5317\u7701\u5510\u5c71\u8def\u5357\u533a\u65b0\u5929\u5730\u5546\u4e1a\u5e7f\u573aB\u5ea708\u53f7", "telephone": "400186000", "preview_image": "brands_images/full/1381.jpg", "brand_id": 1381, "create_time": "NOW()", "longitude": 118.18891328337085, "latitude": 39.62460099185015, "region_id_1": "130000", "region_id_2": "130200", "region_id_3": "130202"}, {"id": 110950, "name": "\u6b27\u795e\u8bfa\u9676\u74f7\u4e1c\u65b9\u5e97", "address": "\u6cb3\u5317\u7701\u5510\u5c71\u5e02\u8def\u5357\u533a\u5357\u65b0\u4e1c\u9053269\u53f7\u4e1c\u65b9\u5bb6\u56ed1-B1\u3001B16\u53f7", "telephone": "400186000", "preview_image": "brands_images/full/1381.jpg", "brand_id": 1381, "create_time": "NOW()", "longitude": 118.18824530339361, "latitude": 39.623889537944656, "region_id_1": "130000", "region_id_2": "130200", "region_id_3": "130202"}, {"id": 110951, "name": "\u6b27\u795e\u8bfa\u9676\u74f7\u5c45\u7136\u5e97", "address": "\u6cb3\u5317\u7701\u5510\u5c71\u5e02\u9ad8\u65b0\u533a\u5c45\u7136\u4e4b\u5bb61\u201434", "telephone": "400186000", "preview_image": "brands_images/full/1381.jpg", "brand_id": 1381, "create_time": "NOW()", "longitude": 118.18139967642429, "latitude": 39.69396158798113, "region_id_1": "130000", "region_id_2": "130200", "region_id_3": "130203"}, {"id": 110952, "name": "\u6b27\u795e\u8bfa\u9676\u74f7\u65f6\u4ee3\u5e97", "address": "\u6cb3\u5317\u7701\u5510\u5c71\u5e02\u9ad8\u65b0\u533a\u65f6\u4ee3\u5bb6\u5c45\u8d1f\u4e00\u5c42", "telephone": "400186000", "preview_image": "brands_images/full/1381.jpg", "brand_id": 1381, "create_time": "NOW()", "longitude": 118.4717467458663, "latitude": 39.745332768237624, "region_id_1": "130000", "region_id_2": "130200", "region_id_3": "130204"}, {"id": 110953, "name": "\u6b27\u795e\u8bfa\u9676\u74f7", "address": "\u5510\u5c71\u5e02\u8fc1\u897f\u53bf\u559c\u5cf0\u5317\u8def\u6c99\u6cb3\u6865\u5317100\u7c73\u8def\u897f", "telephone": "400186000", "preview_image": "brands_images/full/1381.jpg", "brand_id": 1381, "create_time": "NOW()", "longitude": 118.31175479938491, "latitude": 40.18265102203667, "region_id_1": "130000", "region_id_2": "130200", "region_id_3": "130227"}, {"id": 110954, "name": "\u6b27\u795e\u8bfa\u9676\u74f7", "address": "\u5510\u5c71\u5e02\u4e50\u4ead\u53bf\u8302\u6e90\u4e1c\u8857139\u53f7(\u4e50\u4ead\u4e09\u4e2d\u5bf9\u9762)", "telephone": "400186000", "preview_image": "brands_images/full/1381.jpg", "brand_id": 1381, "create_time": "NOW()", "longitude": 118.91408346496773, "latitude": 39.43931128748994, "region_id_1": "130000", "region_id_2": "130200", "region_id_3": "130225"}, {"id": 110955, "name": "\u6b27\u795e\u8bfa\u9676\u74f7", "address": "\u6cb3\u5317\u7701\u5510\u5c71\u5e02\u9075\u5316\u5e02\u8d38\u6613\u57ce\u5185\u4e2d\u5fc3\u5e7f\u573a\u5317\u884c30\u7c73\u8def\u897f", "telephone": "400186000", "preview_image": "brands_images/full/1381.jpg", "brand_id": 1381, "create_time": "NOW()", "longitude": 117.95763912761531, "latitude": 40.13790106402095, "region_id_1": "130000", "region_id_2": "130200", "region_id_3": "130281"}, {"id": 110956, "name": "\u6b27\u795e\u8bfa\u9676\u74f7", "address": "\u6cb3\u5317\u7701\u5510\u5c71\u5e02\u7389\u7530\u53bf\u5b8f\u6cf0\u4f73\u6210\u95e8\u5e027-9\u95e8\u5e02", "telephone": "400186000", "preview_image": "brands_images/full/1381.jpg", "brand_id": 1381, "create_time": "NOW()", "longitude": 117.73475264489855, "latitude": 39.81884335578777, "region_id_1": "130000", "region_id_2": "130200", "region_id_3": "130229"}, {"id": 110957, "name": "\u6b27\u795e\u8bfa\u5962\u74f7\u4f53\u9a8c\u9986", "address": "\u6cb3\u5317\u7701\u5510\u5c71\u5e02\u66f9\u5983\u7538\u533a\u53c1\u4f73\u9e4f\u5927\u5bb6\u5c451-23", "telephone": "400186000", "preview_image": "brands_images/full/1381.jpg", "brand_id": 1381, "create_time": "NOW()", "longitude": 118.41596118318783, "latitude": 39.26603784107154, "region_id_1": "130000", "region_id_2": "130200", "region_id_3": "130209"}, {"id": 110958, "name": "\u6b27\u795e\u8bfa\u5962\u74f7\u4f53\u9a8c\u9986", "address": "\u6cb3\u5317\u7701\u5510\u5c71\u5e02\u8fc1\u5b89\u4e07\u5609\u56fd\u9645\u5bb6\u5c45\u5efa\u6750\u57ce ", "telephone": "400186000", "preview_image": "brands_images/full/1381.jpg", "brand_id": 1381, "create_time": "NOW()", "longitude": 118.6905082597438, "latitude": 40.03088632191896, "region_id_1": "130000", "region_id_2": "130200", "region_id_3": "130283"}, {"id": 110959, "name": "\u6b27\u795e\u8bfa\u5962\u74f7\u4f53\u9a8c\u9986", "address": "\u6cb3\u5317\u7701\u5510\u5c71\u5e02\u8fc1\u5b89\u4e07\u5609\u56fd\u9645\u5bb6\u5c45\u5efa\u6750\u57ce ", "telephone": "400186000", "preview_image": "brands_images/full/1381.jpg", "brand_id": 1381, "create_time": "NOW()", "longitude": 118.6905082597438, "latitude": 40.03088632191896, "region_id_1": "130000", "region_id_2": "130200", "region_id_3": "130283"}, {"id": 110960, "name": "\u6b27\u795e\u8bfa\u5962\u74f7\u4f53\u9a8c\u9986", "address": "\u6cb3\u5317\u7701\u5510\u5c71\u5e02\u8fc1\u5b89\u5e02\u71d5\u5c71\u5927\u8def\u5357\u7aef\u541b\u548c\u5e7f\u573a\u7ea2\u661f\u7f8e\u51ef\u9f99\u4e00\u5c42A8803-8806", "telephone": "400186000", "preview_image": "brands_images/full/1381.jpg", "brand_id": 1381, "create_time": "NOW()", "longitude": 118.7113929205283, "latitude": 40.03062972515088, "region_id_1": "130000", "region_id_2": "130200", "region_id_3": "130283"}, {"id": 110961, "name": "\u6b27\u795e\u8bfa\u5962\u74f7\u4f53\u9a8c\u9986", "address": "\u6cb3\u5317\u7701\u5510\u5c71\u5e02\u6ee6\u53bf\u65b0\u57ce\u5efa\u6750\u5e02\u573a\u6b27\u6d3e\u6a71\u67dc2\u697c\u7231\u5609\u540d\u54c1", "telephone": "400186000", "preview_image": "brands_images/full/1381.jpg", "brand_id": 1381, "create_time": "NOW()", "longitude": 118.58377725189615, "latitude": 39.78550884822839, "region_id_1": "130000", "region_id_2": "130200", "region_id_3": "130223"}, {"id": 110962, "name": "\u6b27\u795e\u8bfa\u5962\u74f7\u4f53\u9a8c\u9986", "address": "\u6cb3\u5317\u7701\u5510\u5c71\u5e02\u4e50\u4ead\u53bf\u8302\u6e90\u4e1c\u8857139\u53f7 ", "telephone": "400186000", "preview_image": "brands_images/full/1381.jpg", "brand_id": 1381, "create_time": "NOW()", "longitude": 118.91408346496773, "latitude": 39.43931128748994, "region_id_1": "130000", "region_id_2": "130200", "region_id_3": "130225"}, {"id": 110963, "name": "\u6b27\u795e\u8bfa\u5962\u74f7\u4f53\u9a8c\u9986", "address": "\u6cb3\u5317\u7701\u79e6\u7687\u5c9b\u5e02\u6d77\u6e2f\u533a\u6cb3\u5317\u5927\u8857358\u53f7\u8d1f\u4e00\u697c", "telephone": "400186000", "preview_image": "brands_images/full/1381.jpg", "brand_id": 1381, "create_time": "NOW()", "longitude": 119.56102253752651, "latitude": 39.91812227095958, "region_id_1": "130000", "region_id_2": "130300", "region_id_3": "130302"}, {"id": 110964, "name": "\u6b27\u795e\u8bfa\u9676\u74f7", "address": "\u6cb3\u5317\u7701\u90af\u90f8\u5e02\u7ea2\u661f\u7f8e\u51ef\u9f99\u5bb6\u5c45\u5e7f\u573a\u4e8c\u697cB8239\u3001B8250\u53f7", "telephone": "400186000", "preview_image": "brands_images/full/1381.jpg", "brand_id": 1381, "create_time": "NOW()", "longitude": 114.4826939323422, "latitude": 36.60930792847117, "region_id_1": "130000", "region_id_2": "130400", "region_id_3": "130403"}, {"id": 110965, "name": "\u6b27\u795e\u8bfa\u9676\u74f7", "address": "\u90af\u90f8\u80b2\u65b0\u8857\u5730\u7a0e\u5c40\u5357100\u7c73\u8def\u897f", "telephone": "400186000", "preview_image": "brands_images/full/1381.jpg", "brand_id": 1381, "create_time": "NOW()", "longitude": 114.49708922693618, "latitude": 36.59756412864229, "region_id_1": "130000", "region_id_2": "130400", "region_id_3": "130402"}, {"id": 110966, "name": "\u6b27\u795e\u8bfa\u5962\u74f7\u9986", "address": "\u6cb3\u5317\u7701\u90a2\u53f0\u5e02\u5b81\u664b\u53bf\u51e4\u51f0\u8def325\u53f7", "telephone": "400186000", "preview_image": "brands_images/full/1381.jpg", "brand_id": 1381, "create_time": "NOW()", "longitude": 114.92481509046026, "latitude": 37.636397898095325, "region_id_1": "130000", "region_id_2": "130500", "region_id_3": "130528"}, {"id": 110967, "name": "\u6b27\u795e\u8bfa\u5962\u74f7\u4f53\u9a8c\u9986", "address": "\u90a2\u53f0\u5e02\u6865\u897f\u533a\u7ea2\u661f\u7f8e\u51ef\u9f99\u8d1f\u4e00\u5c42F9066", "telephone": "400186000", "preview_image": "brands_images/full/1381.jpg", "brand_id": 1381, "create_time": "NOW()", "longitude": 114.46840126286459, "latitude": 37.053579664220926, "region_id_1": "130000", "region_id_2": "130100", "region_id_3": "130104"}, {"id": 110968, "name": "\u6b27\u795e\u8bfa\u9676\u74f7", "address": "\u6cb3\u5317\u7701\u90a2\u53f0\u5e02\u6865\u897f\u533a\u5c45\u7136\u751f\u6d3b\u5e7f\u573a\u5efa\u6750\u885716-M-31", "telephone": "400186000", "preview_image": "brands_images/full/1381.jpg", "brand_id": 1381, "create_time": "NOW()", "longitude": 114.46840126286459, "latitude": 37.053579664220926, "region_id_1": "130000", "region_id_2": "130100", "region_id_3": "130104"}, {"id": 110969, "name": "\u6b27\u795e\u8bfa\u5962\u74f7\u4f53\u9a8c\u9986", "address": "\u6cb3\u5317\u7701\u4fdd\u5b9a\u5e02\u83b2\u6c60\u533a\u590d\u5174\u4e2d\u8def93\u53f7\u946b\u4e30\u5e02\u573a\u590d\u5174\u8def\u7cbe\u54c1\u5e7f\u573a\u4e00\u5c42127\u53f7\u5c55\u5385", "telephone": "400186000", "preview_image": "brands_images/full/1381.jpg", "brand_id": 1381, "create_time": "NOW()", "longitude": 115.53167269083102, "latitude": 38.89689166512772, "region_id_1": "130000", "region_id_2": "130600", "region_id_3": "130603"}, {"id": 110970, "name": "\u6b27\u795e\u8bfa\u5962\u74f7\u4f53\u9a8c\u9986", "address": "\u6cb3\u5317\u7701\u4fdd\u5b9a\u5e02\u7ade\u79c0\u533a\u4e50\u51ef\u5317\u5927\u88573188\u53f7\u7ea2\u661f\u7f8e\u51ef\u9f99\u4fdd\u5b9a\u5546\u573aA\u533a\u8d1f\u4e00\u5c42F8011\u5c55\u4f4d", "telephone": "400186000", "preview_image": "brands_images/full/1381.jpg", "brand_id": 1381, "create_time": "NOW()", "longitude": 115.50500351118964, "latitude": 38.86507416796813, "region_id_1": "130000", "region_id_2": "130600", "region_id_3": "130604"}, {"id": 110971, "name": "\u6b27\u795e\u8bfa\u5962\u74f7\u4f53\u9a8c\u9986", "address": "\u6cb3\u5317\u7701\u5eca\u574a\u5e02\u5e7f\u9633\u533a\u9053\u4eae\u90fd\u5efa\u6750\u57ceA\u5ea7103\u53f7", "telephone": "400186000", "preview_image": "brands_images/full/1381.jpg", "brand_id": 1381, "create_time": "NOW()", "longitude": 116.72282905252095, "latitude": 39.544919515828155, "region_id_1": "130000", "region_id_2": "131000", "region_id_3": "131003"}, {"id": 110972, "name": "\u6b27\u795e\u8bfa\u9676\u74f7\u4f53\u9a8c\u9986", "address": "\u6cb3\u5317\u7701\u5eca\u574a\u5e02\u5927\u57ce\u53bf\u5efa\u9a70\u5bb6\u5c45\u5efa\u6750\u57ce\u4e00\u697c", "telephone": "400186000", "preview_image": "brands_images/full/1381.jpg", "brand_id": 1381, "create_time": "NOW()", "longitude": 116.65662362921509, "latitude": 38.71298887154599, "region_id_1": "130000", "region_id_2": "131000", "region_id_3": "131025"}, {"id": 110973, "name": "\u6b27\u795e\u8bfa\u5962\u74f7\u4f53\u9a8c\u9986", "address": "\u6cb3\u5317\u7701\u5eca\u574a\u5e02\u6587\u5b89\u53bf\u4e30\u5229\u5317\u8def\u8fce\u5bbe\u5927\u9053\u7ea2\u7eff\u706f\u5317\u884c188\u7c73\u8def\u4e1c", "telephone": "400186000", "preview_image": "brands_images/full/1381.jpg", "brand_id": 1381, "create_time": "NOW()", "longitude": 116.47391870882949, "latitude": 38.88496088880064, "region_id_1": "130000", "region_id_2": "131000", "region_id_3": "131026"}, {"id": 110974, "name": "\u6b27\u795e\u8bfa\u9676\u74f7", "address": "\u6cb3\u5317\u7701\u8861\u6c34\u5e02\u5409\u7f8e\u5bb6\u5c45\u524d\u8fdb\u8857\u5e97\u4e8c\u5c422-1-101", "telephone": "400186000", "preview_image": "brands_images/full/1381.jpg", "brand_id": 1381, "create_time": "NOW()", "longitude": 115.66072385237779, "latitude": 37.73420426991898, "region_id_1": "130000", "region_id_2": "131100", "region_id_3": "131102"}, {"id": 110975, "name": "\u6b27\u795e\u8bfa\u5962\u74f7\u4f53\u9a8c\u9986", "address": "\u6cb3\u5317\u7701\u8861\u6c34\u5e02\u5b89\u5e73\u53bf\u5efa\u6750\u8857\u897f\u5173\u5370\u5237\u5382\u5357\u884c50\u7c73\u8def\u897f", "telephone": "400186000", "preview_image": "brands_images/full/1381.jpg", "brand_id": 1381, "create_time": "NOW()", "longitude": 115.51816537662349, "latitude": 38.23463808056535, "region_id_1": "130000", "region_id_2": "131100", "region_id_3": "131125"}, {"id": 110976, "name": "\u6b27\u795e\u8bfa\u9676\u74f7", "address": "\u5c71\u897f\u7701\u592a\u539f\u5e02\u5c0f\u5e97\u533a\u5c45\u7136\u4e4b\u5bb6\u5efa\u6750\u9986579\u53f7DS5-2-030\u53f7", "telephone": "400186000", "preview_image": "brands_images/full/1381.jpg", "brand_id": 1381, "create_time": "NOW()", "longitude": 112.5774086067057, "latitude": 37.753527970895775, "region_id_1": "140000", "region_id_2": "140100", "region_id_3": "140105"}, {"id": 110977, "name": "\u6b27\u795e\u8bfa\u9676\u74f7", "address": "\u5c71\u897f\u7701\u592a\u539f\u5e02\u4e07\u67cf\u6797\u533a\u5c45\u7136\u4e4b\u5bb6\u6cb3\u897f\u5e9722015", "telephone": "400186000", "preview_image": "brands_images/full/1381.jpg", "brand_id": 1381, "create_time": "NOW()", "longitude": 112.48836739675951, "latitude": 37.863211439296315, "region_id_1": "140000", "region_id_2": "140100", "region_id_3": "140109"}, {"id": 110978, "name": "\u6b27\u795e\u8bfa\u9676\u74f7", "address": "\u592a\u539f\u5e02\u5e76\u5dde\u4e1c\u885762\u53f7", "telephone": "400186000", "preview_image": "brands_images/full/1381.jpg", "brand_id": 1381, "create_time": "NOW()", "longitude": 112.5842333929872, "latitude": 37.85749121183433, "region_id_1": "140000", "region_id_2": "140100", "region_id_3": "140106"}, {"id": 110979, "name": "\u6b27\u795e\u8bfa\u9676\u74f7", "address": "\u592a\u539f\u5e02\u4e07\u67cf\u6797\u533a\u5343\u5cf0\u5317\u8def19\u53f7\u592a\u539f\u534e\u6770\u7f8e\u5c45\u5efa\u6750\u5e7f\u573a\u6709\u9650\u516c\u53f83-017", "telephone": "400186000", "preview_image": "brands_images/full/1381.jpg", "brand_id": 1381, "create_time": "NOW()", "longitude": 112.5246903998182, "latitude": 37.871681549403185, "region_id_1": "140000", "region_id_2": "140100", "region_id_3": "140109"}, {"id": 110980, "name": "\u6b27\u795e\u8bfa\u5962\u74f7\u4f53\u9a8c\u9986", "address": "\u5c71\u897f\u7701\u5927\u540c\u5e02\u4e1c\u4fe1\u5efa\u6750\u57ce6\u53f7\u99863\u5c42", "telephone": "400186000", "preview_image": "brands_images/full/1381.jpg", "brand_id": 1381, "create_time": "NOW()", "longitude": 113.29050867308048, "latitude": 40.11374449970518, "region_id_1": "140000", "region_id_2": "140200", "region_id_3": "140202"}, {"id": 110981, "name": "\u6b27\u795e\u8bfa\u5962\u74f7\u4f53\u9a8c\u9986", "address": "\u5c71\u897f\u7701\u5927\u540c\u5e02\u91d1\u725b\u7cbe\u54c1\u88c5\u9970\u57ceA101", "telephone": "400186000", "preview_image": "brands_images/full/1381.jpg", "brand_id": 1381, "create_time": "NOW()", "longitude": 113.29050867308048, "latitude": 40.11374449970518, "region_id_1": "140000", "region_id_2": "140200", "region_id_3": "140202"}, {"id": 110982, "name": "\u6b27\u795e\u8bfa\u9676\u74f7", "address": "\u5c71\u897f\u7701\u5927\u540c\u5e02\u5c45\u7136\u4e4b\u5bb6\u4e8c\u697c2026", "telephone": "400186000", "preview_image": "brands_images/full/1381.jpg", "brand_id": 1381, "create_time": "NOW()", "longitude": 113.30958240026197, "latitude": 40.06794411861892, "region_id_1": "140000", "region_id_2": "140200", "region_id_3": "140202"}, {"id": 110983, "name": "\u6b27\u795e\u8bfa\u5962\u74f7\u4f53\u9a8c\u9986", "address": "\u5c71\u897f\u7701\u5927\u540c\u5e02\u5c45\u7136\u4e4b\u5bb6\u4e8c\u697c2021", "telephone": "400186000", "preview_image": "brands_images/full/1381.jpg", "brand_id": 1381, "create_time": "NOW()", "longitude": 113.30958240026197, "latitude": 40.06794411861892, "region_id_1": "140000", "region_id_2": "140200", "region_id_3": "140202"}, {"id": 110984, "name": "\u6b27\u795e\u8bfa\u5962\u74f7\u4f53\u9a8c\u9986", "address": "\u9633\u6cc9\u5e02\u6843\u5317\u4e1c\u8def\u5c45\u7136\u4e4b\u5bb6\u4e00\u5c421172-1173\u53f7", "telephone": "400186000", "preview_image": "brands_images/full/1381.jpg", "brand_id": 1381, "create_time": "NOW()", "longitude": 113.60511673217644, "latitude": 37.868132040730636, "region_id_1": "140000", "region_id_2": "140200", "region_id_3": "140202"}, {"id": 110985, "name": "\u6b27\u795e\u8bfa\u9676\u74f7", "address": "\u957f\u6cbb\u5e02\u57ce\u4e1c\u8def\u4ed9\u9f99\u5bb6\u5c45\u5e7f\u573a6\u53f7\u9986", "telephone": "400186000", "preview_image": "brands_images/full/1381.jpg", "brand_id": 1381, "create_time": "NOW()", "longitude": 113.13255009322265, "latitude": 36.188028822171894, "region_id_1": "140000", "region_id_2": "140200", "region_id_3": "140202"}, {"id": 110986, "name": "\u6b27\u795e\u8bfa\u9676\u74f7", "address": "\u957f\u6cbb\u5e02\u4e07\u535a\u5bb6\u4ff1\u88c5\u9970\u5e7f\u573a\uff08\u4e00\u697cA\u533a18\u53f7\uff09", "telephone": "400186000", "preview_image": "brands_images/full/1381.jpg", "brand_id": 1381, "create_time": "NOW()", "longitude": 113.12029208572514, "latitude": 36.20166438574343, "region_id_1": "140000", "region_id_2": "140200", "region_id_3": "140202"}, {"id": 110987, "name": "\u6b27\u795e\u8bfa\u5962\u74f7\u4f53\u9a8c\u9986", "address": "\u957f\u6cbb\u5e02\u5c45\u7136\u4e4b\u5bb6\u4e00\u5c42", "telephone": "400186000", "preview_image": "brands_images/full/1381.jpg", "brand_id": 1381, "create_time": "NOW()", "longitude": 113.12029208572514, "latitude": 36.20166438574343, "region_id_1": "140000", "region_id_2": "140200", "region_id_3": "140202"}, {"id": 110988, "name": "\u6b27\u795e\u8bfa\u5962\u74f7\u4f53\u9a8c\u9986", "address": "\u5c71\u897f\u7701\u664b\u57ce\u5e02\u57ce\u533a\u9ec4\u534e\u8857\u4e0e\u767d\u6c34\u8857\u4ea4\u6c47\u5904\u5c45\u7136\u4e4b\u5bb6\u8d1f\u4e00\u5c42B1037", "telephone": "400186000", "preview_image": "brands_images/full/1381.jpg", "brand_id": 1381, "create_time": "NOW()", "longitude": 112.85160191258574, "latitude": 35.480765782058235, "region_id_1": "140000", "region_id_2": "140200", "region_id_3": "140202"}, {"id": 110989, "name": "\u6b27\u795e\u8bfa\u9676\u74f7", "address": "\u5c71\u897f\u7701\u664b\u57ce\u5e02\u6708\u661f\u5546\u4e1a\u5e7f\u573aB2-4-1001", "telephone": "400186000", "preview_image": "brands_images/full/1381.jpg", "brand_id": 1381, "create_time": "NOW()", "longitude": 112.86733275750684, "latitude": 35.49983446722556, "region_id_1": "140000", "region_id_2": "140200", "region_id_3": "140202"}, {"id": 110990, "name": "\u6b27\u795e\u8bfa\u5962\u74f7\u4f53\u9a8c\u9986", "address": "\u6714\u5dde\u5e02\u5c45\u7136\u4e4b\u5bb6", "telephone": "400186000", "preview_image": "brands_images/full/1381.jpg", "brand_id": 1381, "create_time": "NOW()", "longitude": 112.40893024051216, "latitude": 39.332059035370314, "region_id_1": "140000", "region_id_2": "140600", "region_id_3": "140602"}, {"id": 110991, "name": "\u6b27\u795e\u8bfa\u5962\u74f7\u4f53\u9a8c\u9986", "address": "\u5c71\u897f\u8fd0\u57ce\u6c38\u6d4e\u6ee8\u6cb3\u8def\u6ee8\u6cb3\u6e7e\u5c0f\u533a\u897f1-2", "telephone": "400186000", "preview_image": "brands_images/full/1381.jpg", "brand_id": 1381, "create_time": "NOW()", "longitude": 110.48894872130789, "latitude": 34.894671510754364, "region_id_1": "140000", "region_id_2": "140800", "region_id_3": "140881"}, {"id": 110992, "name": "\u6b27\u795e\u8bfa\u5962\u74f7\u4f53\u9a8c\u9986", "address": "\u5c71\u897f\u7701\u5ffb\u5dde\u5e02\u5ffb\u5e9c\u533a\u4e91\u4e2d\u8def\u4e1c\u65b9\u5bb6\u56edB1", "telephone": "400186000", "preview_image": "brands_images/full/1381.jpg", "brand_id": 1381, "create_time": "NOW()", "longitude": 112.75143135133735, "latitude": 38.416015837286, "region_id_1": "140000", "region_id_2": "140900", "region_id_3": "140902"}, {"id": 110993, "name": "\u6b27\u795e\u8bfa\u5962\u74f7\u4f53\u9a8c\u9986", "address": "\u5c71\u897f\u7701\u5ffb\u5dde\u5e02\u4ee3\u53bf\u65b0\u57ce\u533a\u946b\u57ce\u9996\u5e9c\u5c0f\u533a\u897f\u4fa7", "telephone": "400186000", "preview_image": "brands_images/full/1381.jpg", "brand_id": 1381, "create_time": "NOW()", "longitude": 112.9934908255485, "latitude": 39.094586499904025, "region_id_1": "140000", "region_id_2": "140900", "region_id_3": "140923"}, {"id": 110994, "name": "\u6b27\u795e\u8bfa\u5962\u74f7\u4f53\u9a8c\u9986", "address": "\u4e34\u6c7e\u5e02\u795e\u5dde\u88c5\u9970\u57ce\u4e1c\u533a1\u53f7", "telephone": "400186000", "preview_image": "brands_images/full/1381.jpg", "brand_id": 1381, "create_time": "NOW()", "longitude": 111.52012998769476, "latitude": 36.0662769232639, "region_id_1": "140000", "region_id_2": "141000", "region_id_3": "141002"}, {"id": 110995, "name": "\u6b27\u795e\u8bfa\u5962\u74f7\u4f53\u9a8c\u9986", "address": "\u4e34\u6c7e\u5e02\u4e34\u6c7e\u5f00\u53d1\u533a\u6cb3\u6c7e\u8def\u5c45\u7136\u4e4b\u5bb6\u4e00\u5c42", "telephone": "400186000", "preview_image": "brands_images/full/1381.jpg", "brand_id": 1381, "create_time": "NOW()", "longitude": 111.5227641617044, "latitude": 36.10857443513618, "region_id_1": "140000", "region_id_2": "141000", "region_id_3": "141002"}, {"id": 110996, "name": "\u6b27\u795e\u8bfa\u5962\u74f7\u4f53\u9a8c\u9986", "address": "\u4e34\u6c7e\u5e02\u7ffc\u57ce\u53bf\u89e3\u653e\u8857\u4fe1\u5408\u5c0f\u533a\u4e00\u5c42", "telephone": "400186000", "preview_image": "brands_images/full/1381.jpg", "brand_id": 1381, "create_time": "NOW()", "longitude": 111.71707665980503, "latitude": 35.74194095897238, "region_id_1": "140000", "region_id_2": "141000", "region_id_3": "141022"}, {"id": 110997, "name": "\u6b27\u795e\u8bfa\u5962\u74f7\u4f53\u9a8c\u9986", "address": "\u4e34\u6c7e\u5e02\u6d2a\u6d1e\u53bf\u65b0\u4e3d\u90fd\u88c5\u9970\u57ceB\u533a2\u63922\u53f7", "telephone": "400186000", "preview_image": "brands_images/full/1381.jpg", "brand_id": 1381, "create_time": "NOW()", "longitude": 111.70905441700754, "latitude": 36.24735593290693, "region_id_1": "140000", "region_id_2": "141000", "region_id_3": "141024"}, {"id": 110998, "name": "\u6b27\u795e\u8bfa\u5962\u74f7\u4f53\u9a8c\u9986", "address": "\u5415\u6881\u5e02\u79bb\u77f3\u533a\u4e03\u91cc\u6ee9\u7f8e\uff08\u7279\u597d\u8d85\u5e02\u80cc\u540e\uff09", "telephone": "400186000", "preview_image": "brands_images/full/1381.jpg", "brand_id": 1381, "create_time": "NOW()", "longitude": 111.31314199347, "latitude": 37.5523392549033, "region_id_1": "140000", "region_id_2": "141100", "region_id_3": "141102"}, {"id": 110999, "name": "\u6b27\u795e\u8bfa\u5962\u74f7\u4f53\u9a8c\u9986", "address": "\u5415\u6881\u5e02\u5c45\u7136\u4e4b\u5bb6", "telephone": "400186000", "preview_image": "brands_images/full/1381.jpg", "brand_id": 1381, "create_time": "NOW()", "longitude": 111.8050773292417, "latitude": 37.156020781411456, "region_id_1": "140000", "region_id_2": "141100", "region_id_3": "141181"}, {"id": 111000, "name": "\u6b27\u795e\u8bfa\u5962\u74f7\u4f53\u9a8c\u9986", "address": "\u5185\u8499\u53e4\u81ea\u6cbb\u533a\u547c\u548c\u6d69\u7279\u5e02\u65b0\u57ce\u533a\u5c45\u7136\u4e4b\u5bb61\u53f7\u697c1-2-033\u53f7", "telephone": "400186000", "preview_image": "brands_images/full/1381.jpg", "brand_id": 1381, "create_time": "NOW()", "longitude": 111.69941531142771, "latitude": 40.84170447608212, "region_id_1": "150000", "region_id_2": "150100", "region_id_3": "150102"}, {"id": 111001, "name": "\u6b27\u795e\u8bfa\u5962\u74f7\u9986", "address": "\u5185\u8499\u53e4\u81ea\u6cbb\u533a\u547c\u548c\u6d69\u7279\u5e02\u65b0\u57ce\u533a\u4e1c\u5e93\u8857\u5c45\u7136\u4e4b\u5bb6\u9753\u5c4b\u706f\u9970\u57ce\u5317\u4fa7", "telephone": "400186000", "preview_image": "brands_images/full/1381.jpg", "brand_id": 1381, "create_time": "NOW()", "longitude": 111.69941531142771, "latitude": 40.84170447608212, "region_id_1": "150000", "region_id_2": "150100", "region_id_3": "150102"}, {"id": 111002, "name": "\u6b27\u795e\u8bfa\u5962\u74f7\u4f53\u9a8c\u9986", "address": "\u5305\u5934\u5e02\u7a00\u571f\u9ad8\u65b0\u533a\u91d1\u8363\u5efa\u6750\u57ceC1-6\u53f7", "telephone": "400186000", "preview_image": "brands_images/full/1381.jpg", "brand_id": 1381, "create_time": "NOW()", "longitude": 109.86076827826808, "latitude": 40.650299006543605, "region_id_1": "150000", "region_id_2": "150200", "region_id_3": "150204"}, {"id": 111003, "name": "\u6b27\u795e\u8bfa\u5962\u74f7\u9986", "address": "\u5305\u5934\u5e02\u53cb\u8c0a\u5927\u8857\u548c\u52b3\u52a8\u8def\u7684\u6d77\u5929\u751f\u6d3b\u4f53\u9a8c\u9986", "telephone": "400186000", "preview_image": "brands_images/full/1381.jpg", "brand_id": 1381, "create_time": "NOW()", "longitude": 109.8818272408639, "latitude": 40.65030255893315, "region_id_1": "150000", "region_id_2": "150200", "region_id_3": "150204"}, {"id": 111004, "name": "\u6b27\u795e\u8bfa\u9676\u74f7", "address": "\u5305\u5934\u5e02\u4e09\u516b\u8def\u4e0e\u94a2\u94c1\u5927\u8857\u57ce\u5e02\u4eba\u5bb6", "telephone": "400186000", "preview_image": "brands_images/full/1381.jpg", "brand_id": 1381, "create_time": "NOW()", "longitude": 109.80911101959465, "latitude": 40.68336195899363, "region_id_1": "150000", "region_id_2": "150200", "region_id_3": "150203"}, {"id": 111005, "name": "\u6b27\u795e\u8bfa\u5962\u74f7\u4f53\u9a8c\u9986", "address": "\u5185\u8499\u53e4\u901a\u8fbd\u5e02\u7ecf\u6d4e\u6280\u672f\u5f00\u53d1\u533a\u521b\u4e1a\u5927\u9053\u5c45\u7136\u4e4b\u5bb61\u53f7\u95e8\u4e00\u5c42001", "telephone": "400186000", "preview_image": "brands_images/full/1381.jpg", "brand_id": 1381, "create_time": "NOW()", "longitude": 122.22892299976223, "latitude": 43.64681988807183, "region_id_1": "150000", "region_id_2": "150500", "region_id_3": "150502"}, {"id": 111006, "name": "\u6b27\u795e\u8bfa\u5962\u74f7\u4f53\u9a8c\u9986", "address": "\u6c88\u9633\u5e02\u94c1\u897f\u533a\u5317\u4e8c\u4e2d\u8def23-1\u53f7\uff081\u95e8\uff09G\u20142\u2014\u2014026B\uff08\u7ea2\u661f\u7f8e\u51ef\u9f99\uff09", "telephone": "400186000", "preview_image": "brands_images/full/1381.jpg", "brand_id": 1381, "create_time": "NOW()", "longitude": 123.38532580591608, "latitude": 41.810650059227385, "region_id_1": "210000", "region_id_2": "210100", "region_id_3": "210106"}, {"id": 111007, "name": "\u6b27\u795e\u8bfa\u5962\u74f7\u4f53\u9a8c\u9986", "address": "\u6c88\u9633\u5e02\u5927\u4e1c\u533a\u4e1c\u671b\u885723\u53f7\u9676\u74f7\u5927\u4e16\u754c\u4e00\u5c4229\u53f7", "telephone": "400186000", "preview_image": "brands_images/full/1381.jpg", "brand_id": 1381, "create_time": "NOW()", "longitude": 123.530250601638, "latitude": 41.84462413785125, "region_id_1": "210000", "region_id_2": "210100", "region_id_3": "210104"}, {"id": 111008, "name": "\u6b27\u795e\u8bfa\u5962\u74f7\u4f53\u9a8c\u9986", "address": "\u8fbd\u5b81\u7701\u4e1a\u4e4b\u5cf0\u5357\u4eac\u5357\u8857\u9053161\u53f7", "telephone": "400186000", "preview_image": "brands_images/full/1381.jpg", "brand_id": 1381, "create_time": "NOW()", "longitude": 123.40278853248634, "latitude": 41.76492223416524, "region_id_1": "120000", "region_id_2": "120100", "region_id_3": "120101"}, {"id": 111009, "name": "\u6b27\u795e\u8bfa\u5962\u74f7\u4f53\u9a8c\u9986", "address": "\u8fbd\u5b81\u7701\u5927\u8fde\u5e02\u6c99\u6cb3\u53e3\u533a\u4e94\u4e00\u8def105\u53f7\u5e78\u798f\u5bb6\u5c45\u4e16\u754c\u4e00\u697c\u4e34\u885733\u300134\u300135\u53f7", "telephone": "400186000", "preview_image": "brands_images/full/1381.jpg", "brand_id": 1381, "create_time": "NOW()", "longitude": 121.58517335931768, "latitude": 38.911039089833636, "region_id_1": "210000", "region_id_2": "210200", "region_id_3": "210204"}, {"id": 111010, "name": "\u6b27\u795e\u8bfa\u5962\u74f7\u9986", "address": "\u8425\u53e3\u5e02\u5317\u65b9\u9676\u74f7\u57ce\u4e8c\u671f1703", "telephone": "400186000", "preview_image": "brands_images/full/1381.jpg", "brand_id": 1381, "create_time": "NOW()", "longitude": 122.28516642875915, "latitude": 40.7112221565722, "region_id_1": "210000", "region_id_2": "210800", "region_id_3": "210802"}, {"id": 111011, "name": "\u6b27\u795e\u8bfa\u5962\u74f7\u4f53\u9a8c\u9986", "address": "\u8fbd\u5b81\u7701\u76d8\u9526\u5e02\u5174\u9686\u53f0\u533a\u5c45\u7136\u4e4b\u5bb61\u53f7\u99861-1-2028\u53f7", "telephone": "400186000", "preview_image": "brands_images/full/1381.jpg", "brand_id": 1381, "create_time": "NOW()", "longitude": 121.96962911034196, "latitude": 41.15583088755934, "region_id_1": "210000", "region_id_2": "211100", "region_id_3": "211103"}, {"id": 111012, "name": "\u6b27\u795e\u8bfa\u9676\u74f7", "address": "\u8fbd\u5b81\u7701\u671d\u9633\u5e02\u53cc\u5854\u533a\u53cb\u8c0a\u5927\u8857\u4e8c\u6bb57-17\u53f7", "telephone": "400186000", "preview_image": "brands_images/full/1381.jpg", "brand_id": 1381, "create_time": "NOW()", "longitude": 120.45164672402665, "latitude": 41.59081691391323, "region_id_1": "210000", "region_id_2": "211300", "region_id_3": "211302"}, {"id": 111013, "name": "\u6b27\u795e\u8bfa\u5962\u74f7\u4f53\u9a8c\u9986", "address": "\u8fbd\u5b81\u7701\u671d\u9633\u5e02\u671d\u9633\u53bf\u76db\u6cf0\u88c5\u9970\u6750\u6599\u57ce\u6b27\u795e\u8bfa\u9676\u74f7", "telephone": "400186000", "preview_image": "brands_images/full/1381.jpg", "brand_id": 1381, "create_time": "NOW()", "longitude": 120.45152729071587, "latitude": 41.59101465319589, "region_id_1": "210000", "region_id_2": "211300", "region_id_3": "211302"}, {"id": 111014, "name": "\u6b27\u795e\u8bfa\u5962\u74f7\u4f53\u9a8c\u9986", "address": "\u957f\u6625\u5e02\u4e8c\u9053\u533a\u60e0\u5de5\u8def18\u53f7\u4e1c\u6cf0\u5e02\u573a1\u53f7\u697c\u4e2d\u95f46\u4e2a\u95e8", "telephone": "400186000", "preview_image": "brands_images/full/1381.jpg", "brand_id": 1381, "create_time": "NOW()", "longitude": 125.38975001407533, "latitude": 43.90623770351187, "region_id_1": "220000", "region_id_2": "220100", "region_id_3": "220105"}, {"id": 111015, "name": "\u6b27\u795e\u8bfa\u5962\u74f7\u4f53\u9a8c\u9986", "address": "\u5409\u6797\u7701\u677e\u539f\u5e02\u5bb6\u5929\u4e0b\u5efa\u6750\u5bb6\u5c45\u5e7f\u573a1\u671f1\u53f7\u5929\u4e95", "telephone": "400186000", "preview_image": "brands_images/full/1381.jpg", "brand_id": 1381, "create_time": "NOW()", "longitude": 124.83299453234117, "latitude": 45.136048970084005, "region_id_1": "220000", "region_id_2": "220700", "region_id_3": "220702"}, {"id": 111016, "name": "\u6b27\u795e\u8bfa\u5962\u74f7\u4f53\u9a8c\u9986", "address": "\u5409\u6797\u7701\u677e\u539f\u5e02\u7ea2\u661f\u7f8e\u51ef\u9f99\u8d1f\u4e00\u5c42", "telephone": "400186000", "preview_image": "brands_images/full/1381.jpg", "brand_id": 1381, "create_time": "NOW()", "longitude": 124.82936423094472, "latitude": 45.14131209449141, "region_id_1": "220000", "region_id_2": "220700", "region_id_3": "220702"}, {"id": 111017, "name": "\u6b27\u795e\u8bfa\u9676\u74f7", "address": "\u9ed1\u9f99\u6c5f\u7701\u54c8\u5c14\u6ee8\u5e02\u79a7\u9f99\u5927\u8857227\u53f7", "telephone": "400186000", "preview_image": "brands_images/full/1381.jpg", "brand_id": 1381, "create_time": "NOW()", "longitude": 126.76026328026049, "latitude": 45.77884726730175, "region_id_1": "230000", "region_id_2": "230100", "region_id_3": "230104"}, {"id": 111018, "name": "\u6b27\u795e\u8bfa\u5962\u74f7\u4f53\u9a8c\u9986", "address": "\u9ed1\u9f99\u6c5f\u7701\u9f50\u9f50\u54c8\u5c14\u5e02\u9f99\u6c99\u533a\u4e8c\u8f7b\u5efa\u6750\u5bb6\u5c45\u5e7f\u573a\u4e8c\u671f\u4e8c\u697c\u4e8c\u53f7", "telephone": "400186000", "preview_image": "brands_images/full/1381.jpg", "brand_id": 1381, "create_time": "NOW()", "longitude": 123.95988733003168, "latitude": 47.33408537705939, "region_id_1": "230000", "region_id_2": "230200", "region_id_3": "230202"}, {"id": 111019, "name": "\u6b27\u795e\u8bfa\u5962\u74f7\u4f53\u9a8c\u9986", "address": "\u9ed1\u9f99\u6c5f\u7701\u53cc\u9e2d\u5c71\u5e02\u897f\u5e73\u884c\u8def\u4e09\u9a6c\u8def", "telephone": "400186000", "preview_image": "brands_images/full/1381.jpg", "brand_id": 1381, "create_time": "NOW()", "longitude": 131.15928523137134, "latitude": 46.64287124383823, "region_id_1": "230000", "region_id_2": "230500", "region_id_3": "230502"}, {"id": 111020, "name": "\u6b27\u795e\u8bfa\u5962\u74f7\u4f53\u9a8c\u9986", "address": "\u9ed1\u9f99\u6c5f\u7701\u5927\u5e86\u5e02\u8428\u5c14\u56fe\u533a\u4e1c\u98ce\u65b0\u6751\u6b63\u5927\u65b9\u76db\u4e00\u5c42", "telephone": "400186000", "preview_image": "brands_images/full/1381.jpg", "brand_id": 1381, "create_time": "NOW()", "longitude": 125.127831965131, "latitude": 46.584299421890705, "region_id_1": "230000", "region_id_2": "230600", "region_id_3": "230603"}, {"id": 111021, "name": "\u6b27\u795e\u8bfa\u5962\u74f7\u4f53\u9a8c\u9986", "address": "\u9ed1\u9f99\u6c5f\u7701\u4f73\u6728\u65af\u5e02\u5411\u9633\u533a\u901a\u6c5f\u8857\u4e0e\u897f\u6797\u8def\u4ea4\u6c47\u5904(\u897f\u5317\u89d2)", "telephone": "400186000", "preview_image": "brands_images/full/1381.jpg", "brand_id": 1381, "create_time": "NOW()", "longitude": 130.36884341683788, "latitude": 46.81574918058499, "region_id_1": 0, "region_id_2": 0, "region_id_3": 0}, {"id": 111022, "name": "\u6b27\u795e\u8bfa\u5962\u74f7\u4f53\u9a8c\u9986", "address": "\u9ed1\u9f99\u6c5f\u7701\u7ee5\u5316\u5e02\u5317\u6797\u533a\u5c45\u7136\u4e4b\u5bb6\u5927\u4e16\u754c\u5e97", "telephone": "400186000", "preview_image": "brands_images/full/1381.jpg", "brand_id": 1381, "create_time": "NOW()", "longitude": 126.95786274455425, "latitude": 46.74753677851546, "region_id_1": "230000", "region_id_2": "231200", "region_id_3": "231202"}, {"id": 111023, "name": "\u6b27\u795e\u8bfa\u5962\u74f7\u4f53\u9a8c\u9986", "address": "\u4e0a\u6d77\u5f90\u6c47\u533a\u5b9c\u5c71\u8def395\u53f7\u6b27\u96c5\u5e7f\u573a2F-05-17\u5ba4", "telephone": "400186000", "preview_image": "brands_images/full/1381.jpg", "brand_id": 1381, "create_time": "NOW()", "longitude": 121.43574278981879, "latitude": 31.193751771315252, "region_id_1": "310000", "region_id_2": "310100", "region_id_3": "310104"}, {"id": 111024, "name": "\u6b27\u795e\u8bfa\u5962\u74f7\u4f53\u9a8c\u9986", "address": "\u5357\u4eac\u5e02\u6c5f\u4e1c\u4e2d\u8def80\u53f7\u91d1\u76db\u56fd\u9645\u5bb6\u5c45\u4e8c\u697c", "telephone": "400186000", "preview_image": "brands_images/full/1381.jpg", "brand_id": 1381, "create_time": "NOW()", "longitude": 118.74261622344412, "latitude": 32.04056421620684, "region_id_1": "320000", "region_id_2": "320100", "region_id_3": "320105"}, {"id": 111025, "name": "\u6b27\u795e\u8bfa\u5962\u74f7\u4f53\u9a8c\u9986", "address": "\u5357\u4eac\u5e02\u6c5f\u4e1c\u4e2d\u8def88\u53f7\u91d1\u9675\u56fd\u9645\u5bb6\u5c45\u4e8c\u697cB8101-8103", "telephone": "400186000", "preview_image": "brands_images/full/1381.jpg", "brand_id": 1381, "create_time": "NOW()", "longitude": 118.74327862763903, "latitude": 32.039577515949595, "region_id_1": "320000", "region_id_2": "320100", "region_id_3": "320105"}, {"id": 111026, "name": "\u6b27\u795e\u8bfa\u5962\u74f7\u4f53\u9a8c\u9986", "address": "\u5357\u4eac\u5361\u5b50\u95e8\u5927\u885729\u53f7\u4e8c\u697cB8009-8012", "telephone": "400186000", "preview_image": "brands_images/full/1381.jpg", "brand_id": 1381, "create_time": "NOW()", "longitude": 118.80516651439262, "latitude": 31.99584439636963, "region_id_1": "320000", "region_id_2": "320100", "region_id_3": "320104"}, {"id": 111027, "name": "\u6b27\u795e\u8bfa\u5962\u74f7\u4f53\u9a8c\u9986", "address": "\u6c5f\u82cf\u5357\u4eac\u5e02\u6ea7\u6c34\u533a\u6d2a\u84dd\u5efa\u6750\u5e02\u573a", "telephone": "400186000", "preview_image": "brands_images/full/1381.jpg", "brand_id": 1381, "create_time": "NOW()", "longitude": 119.00285953465283, "latitude": 31.618527017948164, "region_id_1": "320000", "region_id_2": "320100", "region_id_3": "320117"}, {"id": 111028, "name": "\u6b27\u795e\u8bfa\u9676\u74f7", "address": "\u65e0\u9521\u534e\u53a6\u5bb6\u5c45\u6e2f\u5efa\u6750\u5e02\u573a\u6709\u9650\u516c\u53f8\u4e00\u697cA168\u53f7", "telephone": "400186000", "preview_image": "brands_images/full/1381.jpg", "brand_id": 1381, "create_time": "NOW()", "longitude": 120.34830372590363, "latitude": 31.591549572521085, "region_id_1": "320000", "region_id_2": "320200", "region_id_3": "320202"}, {"id": 111029, "name": "\u6b27\u795e\u8bfa\u9676\u74f7", "address": "\u65e0\u9521\u5e02\u9521\u6caa\u4e2d\u8def383-29\u53f7", "telephone": "400186000", "preview_image": "brands_images/full/1381.jpg", "brand_id": 1381, "create_time": "NOW()", "longitude": 120.32812365194417, "latitude": 31.595386776620447, "region_id_1": "320000", "region_id_2": "320200", "region_id_3": "320202"}, {"id": 111030, "name": "\u6b27\u795e\u8bfa\u5962\u74f7\u4f53\u9a8c\u9986", "address": "\u6c5f\u82cf\u5f90\u5dde\u5e02\u5347\u8f89\u5e02\u573a\u4e94\u53f7\u5385\u5357\u8fb9C096\u53f7", "telephone": "400186000", "preview_image": "brands_images/full/1381.jpg", "brand_id": 1381, "create_time": "NOW()", "longitude": 117.18810662317686, "latitude": 34.27155343109188, "region_id_1": "320000", "region_id_2": "320300", "region_id_3": "320311"}, {"id": 111031, "name": "\u6b27\u795e\u8bfa\u9676\u74f7", "address": "\u6c5f\u82cf\u7701\u5e38\u5dde\u5e02\u5929\u5b81\u533a\u4e07\u90fd\u56fd\u9645\u9676\u74f7\u57ceB8001", "telephone": "400186000", "preview_image": "brands_images/full/1381.jpg", "brand_id": 1381, "create_time": "NOW()", "longitude": 120.00176576036193, "latitude": 31.77780325637237, "region_id_1": "320000", "region_id_2": "320400", "region_id_3": "320402"}, {"id": 111032, "name": "\u5f20\u5bb6\u6e2f\u5e02\u6b27\u795e\u8bfa\u9676\u74f7", "address": "\u6c5f\u82cf\u7701\u5f20\u5bb6\u6e2f\u5e02\u91d1\u6e2f\u5927\u9053\u4e0e\u65b0\u6cfe\u4e2d\u8def\u4ea4\u754c\u5904 ", "telephone": "400186000", "preview_image": "brands_images/full/1381.jpg", "brand_id": 1381, "create_time": "NOW()", "longitude": 120.56177616246386, "latitude": 31.83490189893463, "region_id_1": "320000", "region_id_2": "320500", "region_id_3": "320582"}, {"id": 111033, "name": "\u6b27\u795e\u8bfa\u9676\u74f7", "address": "\u82cf\u5dde\u5e02\u5434\u4e2d\u533a\u90ed\u5df7\u597d\u5f97\u5bb6\u88c5\u9970\u57ce\u5357\u697c\u4e00\u697c153\u53f7", "telephone": "400186000", "preview_image": "brands_images/full/1381.jpg", "brand_id": 1381, "create_time": "NOW()", "longitude": 120.36577637266825, "latitude": 31.179869740165433, "region_id_1": "320000", "region_id_2": "320500", "region_id_3": "320506"}, {"id": 111034, "name": "\u6b27\u795e\u8bfa\u9676\u74f7", "address": "\u6c5f\u82cf\u7701\u6606\u5c71\u7389\u5c71\u9547\u6c5f\u6d66\u8def388\u53f72\u5e62", "telephone": "400186000", "preview_image": "brands_images/full/1381.jpg", "brand_id": 1381, "create_time": "NOW()", "longitude": 120.92972873333703, "latitude": 31.400955690128708, "region_id_1": "320000", "region_id_2": "320500", "region_id_3": "320583"}, {"id": 111035, "name": "\u6b27\u795e\u8bfa\u5962\u74f7\u4f53\u9a8c\u9986", "address": "\u6c5f\u82cf\u82cf\u5dde\u5434\u6c5f\u677e\u9675\u9547\uff08\u4e0e\u4ef2\u82f1\u5927\u9053\u4ea4\u754c\u5904\u5f80\u897f80\u7c73\uff09\u6c38\u5eb7\u8def785\u53f7\u3002", "telephone": "400186000", "preview_image": "brands_images/full/1381.jpg", "brand_id": 1381, "create_time": "NOW()", "longitude": 120.6367630000283, "latitude": 31.16928985898037, "region_id_1": "320000", "region_id_2": "320500", "region_id_3": "320509"}, {"id": 111036, "name": "\u6b27\u795e\u8bfa\u9676\u74f7\u5962\u74f7\u9986", "address": "\u5357\u901a\u5e02\u6fe0\u897f\u8def288\u53f7\u767e\u5b89\u5b9c\u5bb6\u96441\u697cA100-108\u53f7", "telephone": "400186000", "preview_image": "brands_images/full/1381.jpg", "brand_id": 1381, "create_time": "NOW()", "longitude": 120.85694015266066, "latitude": 32.04744646867427, "region_id_1": "320000", "region_id_2": "320600", "region_id_3": "320611"}, {"id": 111037, "name": "\u6b27\u795e\u8bfa\u5962\u74f7\u4f53\u9a8c\u9986", "address": "\u6c5f\u82cf\u5357\u901a\u5e02\u901a\u5dde\u533a\u91d1\u6865\u8def199\u53f7\uff08\u91d1\u8272\u57ce\u54c1\u5bf9\u9762\uff09", "telephone": "400186000", "preview_image": "brands_images/full/1381.jpg", "brand_id": 1381, "create_time": "NOW()", "longitude": 121.07648973738576, "latitude": 32.0606286261765, "region_id_1": "110000", "region_id_2": "110100", "region_id_3": "110112"}, {"id": 111038, "name": "\u6b27\u795e\u8bfa\u5962\u74f7\u4f53\u9a8c\u9986", "address": "\u6c5f\u82cf\u7701\u5982\u4e1c\u53bf\u6398\u6e2f\u9547\u82b3\u6cc9\u8def198\u53f7\uff08\u500d\u5f97\u6ee1\u5bb6\u5c45\u5e7f\u573a2\u53f7\u95e8\u8fdbA1068\uff09", "telephone": "400186000", "preview_image": "brands_images/full/1381.jpg", "brand_id": 1381, "create_time": "NOW()", "longitude": 121.17548170922879, "latitude": 32.30540465839577, "region_id_1": "320000", "region_id_2": "320600", "region_id_3": "320623"}, {"id": 111039, "name": "\u6b27\u795e\u8bfa\u5962\u74f7\u4f53\u9a8c\u9986", "address": "\u8fde\u4e91\u6e2f\u5e02\u5174\u9686\u88c5\u9970\u57ce\u4e8c\u53f7\u697c\u4e00\u697c\u4e1c\u5357\u89d2", "telephone": "400186000", "preview_image": "brands_images/full/1381.jpg", "brand_id": 1381, "create_time": "NOW()", "longitude": 119.21860675384919, "latitude": 34.58232143729361, "region_id_1": "210000", "region_id_2": "210900", "region_id_3": "210902"}, {"id": 111040, "name": "\u6b27\u795e\u8bfa\u9676\u74f7", "address": "\u6dee\u5b89\u5e02\u897f\u5b89\u8def48\u53f7-101-109\u53f7", "telephone": "400186000", "preview_image": "brands_images/full/1381.jpg", "brand_id": 1381, "create_time": "NOW()", "longitude": 119.00551732870755, "latitude": 33.59795302477897, "region_id_1": "210000", "region_id_2": "211200", "region_id_3": "211204"}, {"id": 111041, "name": "\u6b27\u795e\u8bfa\u5962\u74f7\u4f53\u9a8c\u9986", "address": "\u6c5f\u82cf\u76d0\u57ce\u5e02\u5f00\u653e\u5927\u9053147\u53f7\u5965\u534e\u56fd\u9645\u88c5\u9970\u57ce1\u697c", "telephone": "400186000", "preview_image": "brands_images/full/1381.jpg", "brand_id": 1381, "create_time": "NOW()", "longitude": 120.13782391779392, "latitude": 33.425058702970354, "region_id_1": "320000", "region_id_2": "320900", "region_id_3": "320902"}, {"id": 111042, "name": "\u6b27\u795e\u8bfa\u5962\u74f7\u4f53\u9a8c\u9986", "address": "\u6c5f\u82cf\u76d0\u57ce\u5e02\u4e1c\u53f0\u660e\u661f\u5bb6\u5c45\u57ce\u4e1c\u533a\u4e1c\u533a\u4e1c\u5357\u89d2", "telephone": "400186000", "preview_image": "brands_images/full/1381.jpg", "brand_id": 1381, "create_time": "NOW()", "longitude": 120.5637694714349, "latitude": 32.7914425482889, "region_id_1": "320000", "region_id_2": "320900", "region_id_3": "320981"}, {"id": 111043, "name": "\u6b27\u795e\u8bfa\u5962\u74f7\u4f53\u9a8c\u9986", "address": "\u6c5f\u82cf\u626c\u5dde\u5e02\u7ea2\u661f\u7f8e\u51ef\u9f99A\u5e62\u4e8c\u697cB8077-1\u6b27\u795e\u8bfa\u9676\u74f7", "telephone": "400186000", "preview_image": "brands_images/full/1381.jpg", "brand_id": 1381, "create_time": "NOW()", "longitude": 119.39525143577283, "latitude": 32.371360629357454, "region_id_1": "320000", "region_id_2": "321000", "region_id_3": "321003"}, {"id": 111044, "name": "\u6b27\u795e\u8bfa\u5962\u74f7\u4f53\u9a8c\u9986", "address": "\u6c5f\u82cf\u7701\u5b9d\u5e94\u53bf\u8303\u6c34\u4e1c\u56ed\u8def577-579", "telephone": "400186000", "preview_image": "brands_images/full/1381.jpg", "brand_id": 1381, "create_time": "NOW()", "longitude": 119.4035825231911, "latitude": 33.096679128675014, "region_id_1": "320000", "region_id_2": "321000", "region_id_3": "321023"}, {"id": 111045, "name": "\u6b27\u795e\u8bfa\u5962\u74f7\u4f53\u9a8c\u9986", "address": "\u6c5f\u82cf\u9547\u6c5f\u5e02\u6da6\u5dde\u533a\u5929\u6865\u8def8\u53f7\u6708\u661f\u4e5d\u6da6\u56fd\u9645\u5bb6\u5c45\u4e00\u697cA202", "telephone": "400186000", "preview_image": "brands_images/full/1381.jpg", "brand_id": 1381, "create_time": "NOW()", "longitude": 119.47291048609372, "latitude": 32.19839109255827, "region_id_1": "320000", "region_id_2": "321100", "region_id_3": "321111"}, {"id": 111046, "name": "\u6b27\u795e\u8bfa\u5962\u74f7\u4f53\u9a8c\u9986", "address": "\u6c5f\u82cf\u9547\u6c5f\u5e02\u4e01\u536f\u5f00\u53d1\u533a\u4ebf\u90fd\u5bb6\u5c45\u5efa\u6750\u57ce2B111-133", "telephone": "400186000", "preview_image": "brands_images/full/1381.jpg", "brand_id": 1381, "create_time": "NOW()", "longitude": 119.52740915965455, "latitude": 32.18426231471068, "region_id_1": "320000", "region_id_2": "321100", "region_id_3": "321102"}, {"id": 111047, "name": "\u6b27\u795e\u8bfa\u5962\u74f7\u4f53\u9a8c\u9986", "address": "\u6c5f\u82cf\u9547\u6c5f\u5e02\u4e01\u536f\u65b0\u533a\u7ecf\u516b\u8def9\u53f7\u5609\u79be\u5bb6\u88c5\u4ea7\u4e1a\u56ed3\u697c", "telephone": "400186000", "preview_image": "brands_images/full/1381.jpg", "brand_id": 1381, "create_time": "NOW()", "longitude": 119.5102939998917, "latitude": 32.184219043182964, "region_id_1": "320000", "region_id_2": "321100", "region_id_3": "321102"}, {"id": 111048, "name": "\u6b27\u795e\u8bfa\u5962\u74f7\u4f53\u9a8c\u9986", "address": "\u6c5f\u82cf\u9756\u6c5f\u767e\u5bcc\u7ec5\u5bb6\u5c45\u6e2f3\u671fA\u533a128-130\u53f7\u4e1c\u5927\u95e8\u7b2c2\u5bb6", "telephone": "400186000", "preview_image": "brands_images/full/1381.jpg", "brand_id": 1381, "create_time": "NOW()", "longitude": 120.25625741453493, "latitude": 31.982255009721587, "region_id_1": "320000", "region_id_2": "321200", "region_id_3": "321282"}, {"id": 111049, "name": "\u6b27\u795e\u8bfa\u5962\u74f7\u4f53\u9a8c\u9986", "address": "\u6c5f\u82cf\u6cf0\u5174\u53bf\u597d\u6765\u5c45\u5bb6\u9970\u5e7f\u573a1\u533a34-36\u53f7", "telephone": "400186000", "preview_image": "brands_images/full/1381.jpg", "brand_id": 1381, "create_time": "NOW()", "longitude": 120.03308103899128, "latitude": 32.202469075455355, "region_id_1": "320000", "region_id_2": "321200", "region_id_3": "321283"}, {"id": 111050, "name": "\u6b27\u795e\u8bfa\u5962\u74f7\u4f53\u9a8c\u9986", "address": "\u6c5f\u82cf\u6cf0\u5dde\u5e02\u6d77\u9675\u533a\u6708\u661f\u5bb6\u5c45\u5e7f\u573aA\u5e62\u4e00\u697c1021", "telephone": "400186000", "preview_image": "brands_images/full/1381.jpg", "brand_id": 1381, "create_time": "NOW()", "longitude": 119.96798398993892, "latitude": 32.503209340488766, "region_id_1": "320000", "region_id_2": "321200", "region_id_3": "321202"}, {"id": 111051, "name": "\u6b27\u795e\u8bfa\u5962\u74f7\u4f53\u9a8c\u9986", "address": "\u6c5f\u82cf\u7701\u6cf0\u5dde\u5e02\u59dc\u5830\u592a\u5b87\u5efa\u6750\u5e02\u573aB1003\u53f7", "telephone": "400186000", "preview_image": "brands_images/full/1381.jpg", "brand_id": 1381, "create_time": "NOW()", "longitude": 120.18021594294584, "latitude": 32.472834507218224, "region_id_1": "320000", "region_id_2": "321200", "region_id_3": "321204"}, {"id": 111052, "name": "\u6b27\u795e\u8bfa\u5962\u74f7\u4f53\u9a8c\u9986", "address": "\u6c5f\u82cf\u5bbf\u8fc1\u5e02\u4e49\u4e4c\u56fd\u9645\u5546\u8d38\u57ce\u9676\u74f7\u7cbe\u54c1\u533a", "telephone": "400186000", "preview_image": "brands_images/full/1381.jpg", "brand_id": 1381, "create_time": "NOW()", "longitude": 118.28657481444849, "latitude": 33.941380020523695, "region_id_1": "320000", "region_id_2": "321300", "region_id_3": "321302"}, {"id": 111053, "name": "\u6b27\u795e\u8bfa\u5962\u74f7\u4f53\u9a8c\u9986", "address": "\u6c5f\u82cf\u5bbf\u8fc1\u5e02\u6cd7\u6d2a\u53bf\u73af\u6d32\u4e07\u535a\u57ceC16\u680b116\u53f7", "telephone": "400186000", "preview_image": "brands_images/full/1381.jpg", "brand_id": 1381, "create_time": "NOW()", "longitude": 118.31255125250092, "latitude": 33.42595526613402, "region_id_1": "320000", "region_id_2": "321300", "region_id_3": "321324"}, {"id": 111054, "name": "\u6b27\u795e\u8bfa\u5962\u74f7\u4f53\u9a8c\u9986", "address": "\u6c5f\u82cf\u5bbf\u8fc1\u5e02\u6cd7\u9633\u53bf\u91d1\u4e09\u89d2\u56fd\u9645\u5bb6\u5c45\u5e7f\u573a", "telephone": "400186000", "preview_image": "brands_images/full/1381.jpg", "brand_id": 1381, "create_time": "NOW()", "longitude": 118.72389793329526, "latitude": 33.71527316371695, "region_id_1": "320000", "region_id_2": "321300", "region_id_3": "321323"}, {"id": 111055, "name": "\u6b27\u795e\u8bfa\u5962\u74f7\u4f53\u9a8c\u9986", "address": "\u6850\u4e61\u5e02\u4e16\u7eaa\u5927\u9053\u7ea2\u661f\u7f8e\u51ef\u9f99\u4e00\u697c", "telephone": "400186000", "preview_image": "brands_images/full/1381.jpg", "brand_id": 1381, "create_time": "NOW()", "longitude": 120.57722596442143, "latitude": 30.635618246749633, "region_id_1": "330000", "region_id_2": "330400", "region_id_3": "330483"}, {"id": 111056, "name": "\u676d\u5dde\u4e50\u666e\u8d38\u6613\u6709\u9650\u516c\u53f8", "address": "\u79cb\u6d9b\u5317\u8def116-118\u53f7\u676d\u5dde\u4f73\u597d\u4f73\u5c45\u9970\u5546\u57ceH3100/H3104/3106/31083102  ", "telephone": "400186000", "preview_image": "brands_images/full/1381.jpg", "brand_id": 1381, "create_time": "NOW()", "longitude": 120.20709216224454, "latitude": 30.271793257128344, "region_id_1": "330000", "region_id_2": "330100", "region_id_3": "330104"}, {"id": 111057, "name": "\u676d\u5dde\u4e50\u666e\u8d38\u6613\u6709\u9650\u516c\u53f8", "address": "\u897f\u6e56\u533a\u53e4\u58a9\u8def808\u53f7E\u5ea71\u5c421E4-5.12", "telephone": "400186000", "preview_image": "brands_images/full/1381.jpg", "brand_id": 1381, "create_time": "NOW()", "longitude": 120.10197074827967, "latitude": 30.3206707601867, "region_id_1": "330000", "region_id_2": "330100", "region_id_3": "330106"}, {"id": 111058, "name": "\u6b27\u795e\u8bfa\u5962\u74f7\u4f53\u9a8c\u9986", "address": "\u6d59\u6c5f\u7701\u676d\u5dde\u5e02\u6850\u5e90\u53bf\u5206\u6c34\u9547\u4e1c\u897f\u6865\u5934", "telephone": "400186000", "preview_image": "brands_images/full/1381.jpg", "brand_id": 1381, "create_time": "NOW()", "longitude": 119.45294992977567, "latitude": 29.93292208451091, "region_id_1": "330000", "region_id_2": "330100", "region_id_3": "330122"}, {"id": 111059, "name": "\u6b27\u795e\u8bfa\u5962\u74f7\u4f53\u9a8c\u9986", "address": "\u6d59\u6c5f\u7701\u676d\u5dde\u5bcc\u9633\u533a\u9999\u69df\u8def51\u53f7", "telephone": "400186000", "preview_image": "brands_images/full/1381.jpg", "brand_id": 1381, "create_time": "NOW()", "longitude": 119.9230123219462, "latitude": 30.054587346159707, "region_id_1": 0, "region_id_2": 0, "region_id_3": 0}, {"id": 111060, "name": "\u6b27\u795e\u8bfa\u5962\u74f7\u4f53\u9a8c\u9986", "address": "\u6d59\u6c5f\u7701\u676d\u5dde\u5e02\u4f59\u676d\u533a\u4e34\u5e73\u661f\u5149\u8857\u534e\u5b87\u5546\u57ce5\u5e62008\u53f7", "telephone": "400186000", "preview_image": "brands_images/full/1381.jpg", "brand_id": 1381, "create_time": "NOW()", "longitude": 120.33688214324275, "latitude": 30.44444347357425, "region_id_1": "330000", "region_id_2": "330100", "region_id_3": "330110"}, {"id": 111061, "name": "\u6b27\u795e\u8bfa\u5962\u74f7\u4f53\u9a8c\u9986", "address": "\u6d59\u6c5f\u7701\u676d\u5dde\u5e02\u6df3\u5b89\u53bf\u5343\u5c9b\u6e56\u9547\u9752\u6eaa\u65b0\u57ce\u88c5\u9970\u5e02\u573a", "telephone": "400186000", "preview_image": "brands_images/full/1381.jpg", "brand_id": 1381, "create_time": "NOW()", "longitude": 119.04015834788116, "latitude": 29.610411359075684, "region_id_1": "330000", "region_id_2": "330100", "region_id_3": "330127"}, {"id": 111062, "name": "\u6b27\u795e\u8bfa\u5962\u74f7\u4f53\u9a8c\u9986", "address": "\u5b81\u6ce2\u5e02\u911e\u5dde\u533a\u7ea2\u661f\u7f8e\u51ef\u9f99\u9676\u74f7\u7cbe\u54c1\u88571\u697cA15\u53f7", "telephone": "400186000", "preview_image": "brands_images/full/1381.jpg", "brand_id": 1381, "create_time": "NOW()", "longitude": 121.53783481354807, "latitude": 29.785458933259573, "region_id_1": "330000", "region_id_2": "330200", "region_id_3": "330212"}, {"id": 111063, "name": "\u6b27\u795e\u8bfa\u5962\u74f7\u4f53\u9a8c\u9986", "address": " \u6d59\u6c5f\u5b81\u6ce2\u5e02\u4f59\u59da\u4e30\u5c71\u8def330\u53f7", "telephone": "400186000", "preview_image": "brands_images/full/1381.jpg", "brand_id": 1381, "create_time": "NOW()", "longitude": 121.13676473276568, "latitude": 30.05944538470537, "region_id_1": "330000", "region_id_2": "330200", "region_id_3": "330281"}, {"id": 111064, "name": "\u6b27\u795e\u8bfa\u5962\u74f7\u4f53\u9a8c\u9986", "address": "\u6d59\u6c5f\u7701\u5b81\u6ce2\u5e02\u8c61\u5c71\u84ec\u83b1\u88c5\u6f62\u5e02\u573aC16-18-20", "telephone": "400186000", "preview_image": "brands_images/full/1381.jpg", "brand_id": 1381, "create_time": "NOW()", "longitude": 121.85866557564201, "latitude": 29.378771009448933, "region_id_1": "330000", "region_id_2": "330200", "region_id_3": "330225"}, {"id": 111065, "name": "\u6b27\u795e\u8bfa\u9676\u74f7", "address": "\u6d59\u6c5f\u7701\u6e29\u5dde\u5e02\u74ef\u6d77\u53cc\u5821\u897f\u8def198\u53f7\u6cf0\u6052\u5efa\u6750B\u5e62\u6b27\u795e\u8bfa\u9676\u74f7", "telephone": "400186000", "preview_image": "brands_images/full/1381.jpg", "brand_id": 1381, "create_time": "NOW()", "longitude": 120.66225627452222, "latitude": 27.96915614794457, "region_id_1": "330000", "region_id_2": "330300", "region_id_3": "330304"}, {"id": 111066, "name": "\u6b27\u795e\u8bfa\u5962\u74f7\u4f53\u9a8c\u9986", "address": "\u6d59\u6c5f\u7701\u6e29\u5dde\u5e02\u74ef\u6d77\u533a\u53cc\u5821\u897f\u8def198\u53f7\u6cf0\u6052\u5efa\u6750\u57ceK\u5e62", "telephone": "400186000", "preview_image": "brands_images/full/1381.jpg", "brand_id": 1381, "create_time": "NOW()", "longitude": 120.66173622659825, "latitude": 27.970630801596958, "region_id_1": "330000", "region_id_2": "330300", "region_id_3": "330304"}, {"id": 111067, "name": "\u6b27\u795e\u8bfa\u5962\u74f7\u4f53\u9a8c\u9986", "address": "\u6d59\u6c5f\u7701\u74ef\u5317\u9547\u5858\u5934\u5de5\u4e1a\u533a\u4e2d\u5174\u8def41\u53f7\uff08\u5c0f\u82f1\u9676\u74f7\u5e02\u573a\uff09", "telephone": "400186000", "preview_image": "brands_images/full/1381.jpg", "brand_id": 1381, "create_time": "NOW()", "longitude": 120.65834813980912, "latitude": 28.054168839903813, "region_id_1": "330000", "region_id_2": "330300", "region_id_3": "330324"}, {"id": 111068, "name": "\u6b27\u795e\u8bfa\u5962\u74f7\u4f53\u9a8c\u9986", "address": "\u6d59\u6c5f\u7701\u6e29\u5dde\u4e50\u6e05\u5e02\u84b2\u5c90\u5c71\u95e8\u6865\u897f\u5317", "telephone": "400186000", "preview_image": "brands_images/full/1381.jpg", "brand_id": 1381, "create_time": "NOW()", "longitude": 121.01617490317571, "latitude": 28.261838988770222, "region_id_1": "330000", "region_id_2": "330300", "region_id_3": "330382"}, {"id": 111069, "name": "\u6b27\u795e\u8bfa\u9676\u74f7", "address": "\u6d59\u6c5f\u7701\u5609\u5174\u5e02\u6d77\u5b81\u5efa\u6750\u5bb6\u5c45\u57ce\u65f6\u5c1a\u9986B122\u53f7", "telephone": "400186000", "preview_image": "brands_images/full/1381.jpg", "brand_id": 1381, "create_time": "NOW()", "longitude": 120.71387251554668, "latitude": 30.5030201659832, "region_id_1": "330000", "region_id_2": "330400", "region_id_3": "330481"}, {"id": 111070, "name": "\u6b27\u795e\u8bfa\u5962\u74f7\u4f53\u9a8c\u9986", "address": "\u5609\u5174\u5efa\u6750\u9676\u74f7\u5e02\u573a\u5317\u533a\u5e02\u573a\u8def107-108\u53f7", "telephone": "400186000", "preview_image": "brands_images/full/1381.jpg", "brand_id": 1381, "create_time": "NOW()", "longitude": 120.70727261937587, "latitude": 30.747339223919635, "region_id_1": "330000", "region_id_2": "330400", "region_id_3": "330402"}, {"id": 111071, "name": "\u6b27\u795e\u8bfa\u5962\u74f7\u4f53\u9a8c\u9986", "address": "\u6d59\u6c5f\u7701\u5609\u5174\u5e02\u79c0\u6d32\u533a\u5efa\u9676\u5e02\u573a\u5e02\u573a\u8def\u5317\u533a107-108\u53f7", "telephone": "400186000", "preview_image": "brands_images/full/1381.jpg", "brand_id": 1381, "create_time": "NOW()", "longitude": 120.71207420942423, "latitude": 30.741006635814802, "region_id_1": "330000", "region_id_2": "330400", "region_id_3": "330402"}, {"id": 111072, "name": "\u6b27\u795e\u8bfa\u5962\u74f7\u4f53\u9a8c\u9986", "address": "\u6d59\u6c5f\u7701\u5609\u5174\u5e02\u5e73\u6e56\u5e02\u5f53\u6e56\u8857\u9053\u534e\u90fd\u4e5d\u9f99\u5e7f\u573a15\u680b101\u53f7\u9676\u74f7\u7ecf\u8425\u90e8", "telephone": "400186000", "preview_image": "brands_images/full/1381.jpg", "brand_id": 1381, "create_time": "NOW()", "longitude": 121.0286066221769, "latitude": 30.720647554230577, "region_id_1": "330000", "region_id_2": "330400", "region_id_3": "330482"}, {"id": 111073, "name": "\u6b27\u795e\u8bfa\u5962\u74f7\u4f53\u9a8c\u9986", "address": "\u957f\u5174\u592a\u6e56\u8857\u9053\u9646\u6c47\u8def288\u53f7\u5bb6\u4e4b\u7a97\u73b0\u4ee3\u5bb6\u5c45\u5e7f\u573aA213A214A215", "telephone": "400186000", "preview_image": "brands_images/full/1381.jpg", "brand_id": 1381, "create_time": "NOW()", "longitude": 119.94165699013747, "latitude": 31.004986478183728, "region_id_1": "330000", "region_id_2": "330500", "region_id_3": "330522"}, {"id": 111074, "name": "\u6b27\u795e\u8bfa\u5962\u74f7\u9986", "address": "\u6e56\u5dde\u5e02\u5b89\u5409\u53bf\u8fce\u5bbe\u5927\u9053587-589\u53f7", "telephone": "400186000", "preview_image": "brands_images/full/1381.jpg", "brand_id": 1381, "create_time": "NOW()", "longitude": 119.68795094528436, "latitude": 30.62706479668611, "region_id_1": "330000", "region_id_2": "330500", "region_id_3": "330523"}, {"id": 111075, "name": "\u6b27\u795e\u8bfa\u5962\u74f7\u4f53\u9a8c\u9986", "address": "\u6e56\u5dde\u5e02\u5fb7\u6e05\u53bf\u6b66\u5eb7\u9547\u83ab\u5e72\u5c71\u5362\u7403\u5546\u8d38\u4e2d\u5fc3\u4e94\u53f7\u4ea4\u6613\u533a5055-5070\u6b27\u795e\u8bfa\u9676\u74f7", "telephone": "400186000", "preview_image": "brands_images/full/1381.jpg", "brand_id": 1381, "create_time": "NOW()", "longitude": 119.96153603203918, "latitude": 30.5340577489689, "region_id_1": "330000", "region_id_2": "330500", "region_id_3": "330521"}, {"id": 111076, "name": "\u6b27\u795e\u8bfa\u5962\u74f7\u4f53\u9a8c\u9986", "address": "\u6d59\u6c5f\u7701\u6e56\u5dde\u5e02\u4e8c\u73af\u897f\u8def2077\u53f7\u6e56\u5dde\u7ea2\u661f\u7f8e\u51ef\u9f99\u5bb6\u5c45\u751f\u6d3b\u5e7f\u573a\u8d1f\u4e00\u697cA8003\u53f7", "telephone": "400186000", "preview_image": "brands_images/full/1381.jpg", "brand_id": 1381, "create_time": "NOW()", "longitude": 120.08026032015512, "latitude": 30.84628842074043, "region_id_1": "330000", "region_id_2": "330500", "region_id_3": "330502"}, {"id": 111077, "name": "\u6b27\u795e\u8bfa\u5962\u74f7\u4f53\u9a8c\u9986", "address": "\u6d59\u6c5f\u7701\u7ecd\u5174\u5e02\u8d8a\u57ce\u533a\u6b63\u5927\u88c5\u9970\u57ce\u53571043\u53f7", "telephone": "400186000", "preview_image": "brands_images/full/1381.jpg", "brand_id": 1381, "create_time": "NOW()", "longitude": 120.61832665179529, "latitude": 30.0157929399522, "region_id_1": "330000", "region_id_2": "330600", "region_id_3": "330602"}, {"id": 111078, "name": "\u6b27\u795e\u8bfa\u5962\u74f7\u4f53\u9a8c\u9986", "address": "\u6d59\u6c5f\u7701\u7ecd\u5174\u5e02\u67ef\u6865\u533a\u5e73\u6c34\u9547\u897f\u6e56\u6865\u516c\u5bd37\u680b3-4\u53f7\u8425\u4e1a\u623f", "telephone": "400186000", "preview_image": "brands_images/full/1381.jpg", "brand_id": 1381, "create_time": "NOW()", "longitude": 120.63577710267445, "latitude": 29.920106324705635, "region_id_1": 0, "region_id_2": 0, "region_id_3": 0}, {"id": 111079, "name": "\u6b27\u795e\u8bfa\u9676\u74f7", "address": "\u6d59\u6c5f\u7701\u91d1\u534e\u5e02\u65b0\u6d59\u4e2d\u5efa\u6750\u5e02\u573aA\u5ea7D\u5c42\u53172\u53f7\u95e8", "telephone": "400186000", "preview_image": "brands_images/full/1381.jpg", "brand_id": 1381, "create_time": "NOW()", "longitude": 119.70998684538165, "latitude": 29.090359725114702, "region_id_1": "330000", "region_id_2": "330700", "region_id_3": "330703"}, {"id": 111080, "name": "\u6b27\u795e\u8bfa\u9676\u74f7", "address": "\u6d59\u6c5f\u7701\u6d66\u6c5f\u53bf\u6d66\u9633\u8857\u9053\u6c5f\u6ee8\u4e2d\u8def42\u53f7", "telephone": "400186000", "preview_image": "brands_images/full/1381.jpg", "brand_id": 1381, "create_time": "NOW()", "longitude": 119.90361726812935, "latitude": 29.45314704858872, "region_id_1": "330000", "region_id_2": "330700", "region_id_3": "330726"}, {"id": 111081, "name": "\u6b27\u795e\u8bfa\u5962\u74f7\u4f53\u9a8c\u9986", "address": "\u6d59\u6c5f\u7701\u91d1\u534e\u5e02\u4e49\u4e4c\u5e02\u621a\u7ee7\u5149\u8def487\u53f7", "telephone": "400186000", "preview_image": "brands_images/full/1381.jpg", "brand_id": 1381, "create_time": "NOW()", "longitude": 120.04667382908912, "latitude": 29.293330791389817, "region_id_1": "330000", "region_id_2": "330700", "region_id_3": "330782"}, {"id": 111082, "name": "\u6b27\u795e\u8bfa\u5962\u74f7\u4f53\u9a8c\u9986", "address": "\u6d59\u6c5f\u7701\u91d1\u534e\u5e02\u82b1\u5ddd\u5efa\u6750\u5e02\u573a4\u885717-24\u53f7\u6b27\u795e\u8bfa\u9676\u74f7", "telephone": "400186000", "preview_image": "brands_images/full/1381.jpg", "brand_id": 1381, "create_time": "NOW()", "longitude": 119.97620975677367, "latitude": 28.91381228627602, "region_id_1": "330000", "region_id_2": "330700", "region_id_3": "330784"}, {"id": 111083, "name": "\u6b27\u795e\u8bfa\u5962\u74f7\u4f53\u9a8c\u9986", "address": "\u8862\u5dde\u5e02\u65b0\u51e4\u671d\u5efa\u7b51\u88c5\u9970\u6750\u6599\u5e02\u573a\u9676\u74f7\u536b\u6d74\u99861012\u53f7\u30011014\u53f7", "telephone": "400186000", "preview_image": "brands_images/full/1381.jpg", "brand_id": 1381, "create_time": "NOW()", "longitude": 118.87584165150854, "latitude": 28.95691044753569, "region_id_1": "330000", "region_id_2": "330800", "region_id_3": "330802"}, {"id": 111084, "name": "\u6b27\u795e\u8bfa\u5962\u74f7\u4f53\u9a8c\u9986", "address": "\u6d59\u6c5f\u7701\u5f00\u5316\u53bf\u4e94\u6d32\u57ce32\u680b/\u534e\u57e0\u9547\u89e3\u653e\u8def392\u53f7", "telephone": "400186000", "preview_image": "brands_images/full/1381.jpg", "brand_id": 1381, "create_time": "NOW()", "longitude": 118.35773628348711, "latitude": 29.016926488822012, "region_id_1": "330000", "region_id_2": "330800", "region_id_3": "330824"}, {"id": 111085, "name": "\u6b27\u795e\u8bfa\u5962\u74f7\u4f53\u9a8c \u9986", "address": "\u821f\u5c71\u5e02\u5b9a\u6d77\u533a\u4e34\u57ce\u8857\u9053\u6d77\u5929\u5927\u90531188\u53f7\u79d1\u6765\u534e\u56fd\u9645\u5bb6\u5c45\u5e7f\u573a4\u5e62101-105\u5ba4", "telephone": "400186000", "preview_image": "brands_images/full/1381.jpg", "brand_id": 1381, "create_time": "NOW()", "longitude": 122.23215706179393, "latitude": 29.979474195076005, "region_id_1": "330000", "region_id_2": "330900", "region_id_3": "330902"}, {"id": 111086, "name": "\u6b27\u795e\u8bfa\u5962\u74f7\u4f53\u9a8c\u9986", "address": "\u6d59\u6c5f\u7701\u5929\u53f0\u53bf\u59cb\u4e30\u65b0\u57ce\u6c47\u6cc9\u4e1c\u885735-41\u53f7", "telephone": "400186000", "preview_image": "brands_images/full/1381.jpg", "brand_id": 1381, "create_time": "NOW()", "longitude": 121.00648282081316, "latitude": 29.159322119913917, "region_id_1": "330000", "region_id_2": "331000", "region_id_3": "331023"}, {"id": 111087, "name": "\u6b27\u795e\u8bfa\u5962\u74f7\u9986", "address": "\u6d59\u6c5f\u7701\u4e3d\u6c34\u5e02\u83b2\u90fd\u533a\u5bff\u5143\u8def1519\u53f71\u53f7\u697c\u4e00\u5c42A1-A2\u53f7", "telephone": "400186000", "preview_image": "brands_images/full/1381.jpg", "brand_id": 1381, "create_time": "NOW()", "longitude": 119.84995169271907, "latitude": 28.447361330679005, "region_id_1": "330000", "region_id_2": "331100", "region_id_3": "331102"}, {"id": 111088, "name": "\u6b27\u795e\u8bfa\u4f53\u9a8c\u9986", "address": "\u5408\u80a5\u5e02\u5305\u6cb3\u533a\u4e1c\u6d41\u8def218\u53f7\u671b\u6e56\u7f8e\u5bb6\u5c45\u5e02\u573a\u5185\u74f7\u7816\u533a56-58\u53f7", "telephone": "400186000", "preview_image": "brands_images/full/1381.jpg", "brand_id": 1381, "create_time": "NOW()", "longitude": 117.27270014288203, "latitude": 31.821498168253346, "region_id_1": "340000", "region_id_2": "340100", "region_id_3": "340111"}, {"id": 111089, "name": "\u6b27\u795e\u8bfa\u9676\u74f7\u4f53\u9a8c\u9986", "address": "\u5929\u957f\u5e02\u5929\u6da6\u57ce\u5bb6\u5c45\u5e7f\u573a\u4e8c\u697cA\u680b104-106\u53f7\u5546\u94fa", "telephone": "400186000", "preview_image": "brands_images/full/1381.jpg", "brand_id": 1381, "create_time": "NOW()", "longitude": 119.02456467894436, "latitude": 32.679531003880264, "region_id_1": "340000", "region_id_2": "341100", "region_id_3": "341181"}, {"id": 111090, "name": "\u6b27\u795e\u8bfa\u5962\u74f7\u9986", "address": "\u829c\u6e56\u5e02\u955c\u6e56\u533a\u5f0b\u6c5f\u5317\u8def\u6b27\u4e9a\u8fbe\u6b63\u5143\u5bb6\u5c45\u5e97\u4e00\u697cA1-33\u300134\u300135\u300136\u53f7", "telephone": "400186000", "preview_image": "brands_images/full/1381.jpg", "brand_id": 1381, "create_time": "NOW()", "longitude": 118.4033891577281, "latitude": 31.357628717372183, "region_id_1": "340000", "region_id_2": "340200", "region_id_3": "340202"}, {"id": 111091, "name": "\u6b27\u795e\u8bfa\u5962\u74f7\u4f53\u9a8c\u9986", "address": "\u868c\u57e0\u5e02\u5149\u5f69\u5927\u5e02\u573a\u4e00\u533a03\u680b109\u53f7", "telephone": "400186000", "preview_image": "brands_images/full/1381.jpg", "brand_id": 1381, "create_time": "NOW()", "longitude": 117.36656022290593, "latitude": 32.92332823468539, "region_id_1": "340000", "region_id_2": "340300", "region_id_3": "340303"}, {"id": 111092, "name": "\u6b27\u795e\u8bfa\u5962\u74f7\u4f53\u9a8c\u9986", "address": "\u9a6c\u978d\u5c71\u5e02\u82b1\u5c71\u533a\u4e1c\u6e90\u7f8e\u5bb6\u4e50\u505c\u8f66\u573a\u5317\u4e00\u697c", "telephone": "400186000", "preview_image": "brands_images/full/1381.jpg", "brand_id": 1381, "create_time": "NOW()", "longitude": 118.52645607027262, "latitude": 31.697481485476228, "region_id_1": "340000", "region_id_2": "340500", "region_id_3": "340503"}, {"id": 111093, "name": "\u6b27\u795e\u8bfa\u9676\u74f7", "address": "\u798f\u5dde\u5e02\u664b\u5b89\u533a\u8fde\u6c5f\u5317\u8def293\u53f7\u798f\u5dde\u559c\u76c8\u95e8\u529e\u516c\u697c\u4e00\u697c", "telephone": "400186000", "preview_image": "brands_images/full/1381.jpg", "brand_id": 1381, "create_time": "NOW()", "longitude": 119.34225881327863, "latitude": 26.09232388816583, "region_id_1": "350000", "region_id_2": "350100", "region_id_3": "350111"}, {"id": 111094, "name": "\u6b27\u795e\u8bfa\u5962\u74f7\u4f53\u9a8c\u9986", "address": "\u798f\u5efa\u7701\u798f\u5dde\u8fde\u6c5f\u53bf\u6587\u7b14\u897f\u8def\u9f99\u534e\u4e8c\u671f\u5317\u95e833#8\u53f7\u5e97", "telephone": "400186000", "preview_image": "brands_images/full/1381.jpg", "brand_id": 1381, "create_time": "NOW()", "longitude": 119.5409798228581, "latitude": 26.21949120682757, "region_id_1": "350000", "region_id_2": "350100", "region_id_3": "350122"}, {"id": 111095, "name": "\u6b27\u795e\u8bfa\u9676\u74f7", "address": "\u53a6\u95e8\u5e02\u91d1\u6e56\u8def118\u53f7\u5409\u5bb6\u5bb6\u4e16\u754c\u5c55\u9986D128-138\u53f7", "telephone": "400186000", "preview_image": "brands_images/full/1381.jpg", "brand_id": 1381, "create_time": "NOW()", "longitude": 118.1589881280853, "latitude": 24.515601857991673, "region_id_1": "350000", "region_id_2": "350200", "region_id_3": "350206"}, {"id": 111096, "name": "\u6b27\u795e\u8bfa\u9676\u74f7", "address": "\u53a6\u95e8\u5e02\u949f\u5b85\u8def69\u53f7\u7ea2\u661f\u7f8e\u51ef\u9f99\u5546\u573a\u8d1f\u4e00\u697c", "telephone": "400186000", "preview_image": "brands_images/full/1381.jpg", "brand_id": 1381, "create_time": "NOW()", "longitude": 118.1719639490539, "latitude": 24.538378700468144, "region_id_1": "350000", "region_id_2": "350200", "region_id_3": "350206"}, {"id": 111097, "name": "\u6b27\u795e\u8bfa\u5962\u74f7\u4f53\u9a8c\u9986", "address": "\u798f\u5efa\u7701\u53a6\u95e8\u6d77\u6ca7\u533a\u6ca7\u6797\u8def190\u53f7\u6b27\u795e\u8bfa\u9676\u74f7", "telephone": "400186000", "preview_image": "brands_images/full/1381.jpg", "brand_id": 1381, "create_time": "NOW()", "longitude": 118.03944839689402, "latitude": 24.497125722251013, "region_id_1": "350000", "region_id_2": "350200", "region_id_3": "350205"}, {"id": 111098, "name": "\u6b27\u795e\u8bfa\u5962\u74f7\u4f53\u9a8c\u9986", "address": "\u798f\u5efa\u7701\u8386\u7530\u5e02\u8354\u57ce\u533a\u4e1c\u5733\u8def\u7ea2\u661f\u7f8e\u51ef\u9f99\u4e8c\u697cB8102-B8103", "telephone": "400186000", "preview_image": "brands_images/full/1381.jpg", "brand_id": 1381, "create_time": "NOW()", "longitude": 119.0308166595808, "latitude": 25.455165774165714, "region_id_1": "350000", "region_id_2": "350300", "region_id_3": "350304"}, {"id": 111099, "name": "\u6b27\u795e\u8bfa\u5962\u74f7\u4f53\u9a8c\u9986", "address": "\u798f\u5efa\u7701\u4e09\u660e\u5e02\u5c24\u6eaa\u53bf\u7d2b\u9633\u5927\u90531\u53f73\u680b", "telephone": "400186000", "preview_image": "brands_images/full/1381.jpg", "brand_id": 1381, "create_time": "NOW()", "longitude": 118.19448518233449, "latitude": 26.175209217895983, "region_id_1": "350000", "region_id_2": "350400", "region_id_3": "350426"}, {"id": 111100, "name": "\u6b27\u795e\u8bfa\u5962\u74f7\u4f53\u9a8c\u9986", "address": "\u798f\u5efa\u6cc9\u5dde\u5e02\u664b\u6c5f\u5e02\u9676\u57ce\u8def\u9644\u8fd1", "telephone": "400186000", "preview_image": "brands_images/full/1381.jpg", "brand_id": 1381, "create_time": "NOW()", "longitude": 118.4822754379457, "latitude": 24.826340859368344, "region_id_1": "350000", "region_id_2": "350500", "region_id_3": "350582"}, {"id": 111101, "name": "\u6b27\u795e\u8bfa\u5962\u74f7\u4f53\u9a8c\u9986", "address": "\u798f\u5efa\u6cc9\u5dde\u5e02\u6d1b\u6c5f\u533a\u5c45\u7136\u4e4b\u5bb6\u00a0\u4e00\u697c", "telephone": "400186000", "preview_image": "brands_images/full/1381.jpg", "brand_id": 1381, "create_time": "NOW()", "longitude": 118.67345258205832, "latitude": 24.939942993554435, "region_id_1": "350000", "region_id_2": "350500", "region_id_3": "350504"}, {"id": 111102, "name": "\u6b27\u795e\u8bfa\u5962\u74f7\u4f53\u9a8c\u9986", "address": "\u798f\u5efa\u7701\u9f99\u5ca9\u5e02\u95fd\u897f\u4ea4\u6613\u57ce\u7ea2\u661f\u7f8e\u51ef\u9f99", "telephone": "400186000", "preview_image": "brands_images/full/1381.jpg", "brand_id": 1381, "create_time": "NOW()", "longitude": 117.0046912217164, "latitude": 25.105003009159585, "region_id_1": "350000", "region_id_2": "350800", "region_id_3": "350802"}, {"id": 111103, "name": "\u6b27\u795e\u8bfa\u5962\u74f7\u4f53\u9a8c\u9986", "address": "\u798f\u5efa\u7701\u9f99\u5ca9\u5e02\u4e0a\u676d\u53bf\u91d1\u5c71\u5efa\u6750\u57ceA3\u5e62\u6b27\u795e\u8bfa\u9676\u74f7", "telephone": "400186000", "preview_image": "brands_images/full/1381.jpg", "brand_id": 1381, "create_time": "NOW()", "longitude": 116.41485324471573, "latitude": 25.06159163976064, "region_id_1": "350000", "region_id_2": "350800", "region_id_3": "350823"}, {"id": 111104, "name": "\u6b27\u795e\u8bfa\u5962\u74f7\u4f53\u9a8c\u9986", "address": "\u798f\u5efa\u7701\u9f99\u5ca9\u5e02\u957f\u6c40\u53bf\u73af\u57ce\u5317\u8def 55\u4e001\u53f7\u5e97 ", "telephone": "400186000", "preview_image": "brands_images/full/1381.jpg", "brand_id": 1381, "create_time": "NOW()", "longitude": 116.36034336391337, "latitude": 25.84881115731565, "region_id_1": "350000", "region_id_2": "350800", "region_id_3": "350821"}, {"id": 111105, "name": "\u6b27\u795e\u8bfa\u9676\u74f7\u5962\u74f7\u9986", "address": "\u6c5f\u897f\u7701\u5357\u660c\u5e02\u89e3\u653e\u4e1c\u8def\u9999\u6c5f\u5bb6\u5c45\u54c1\u724c\u5de5\u5382\u6279\u53d1\u57ceB\u9986B101\u53f7", "telephone": "400186000", "preview_image": "brands_images/full/1381.jpg", "brand_id": 1381, "create_time": "NOW()", "longitude": 115.9557774353167, "latitude": 28.656147969734057, "region_id_1": "360000", "region_id_2": "360100", "region_id_3": "360111"}, {"id": 111106, "name": "\u6b27\u795e\u8bfa\u5962\u74f7\u4f53\u9a8c\u9986", "address": "\u6c5f\u897f\u7701\u5357\u660c\u5e02\u629a\u6cb3\u5357\u8def27\u53f7\u5de8\u6c47\u5efa\u6750\u5bb6\u5c45\u5e7f\u573a2\u697cF101-107\u53f7", "telephone": "400186000", "preview_image": "brands_images/full/1381.jpg", "brand_id": 1381, "create_time": "NOW()", "longitude": 115.909291999056, "latitude": 28.65476615551367, "region_id_1": "360000", "region_id_2": "360100", "region_id_3": "360104"}, {"id": 111107, "name": "\u6b27\u795e\u8bfa\u5962\u74f7\u4f53\u9a8c\u9986", "address": "\u6c5f\u897f\u7701\u5357\u660c\u5e02\u4f55\u574a\u897f\u8def\u5357\u660c\u5e02\u5e02\u5efa\u6750\u5927\u5e02\u573a\u7efc\u5408\u697c1-6\u53f7", "telephone": "400186000", "preview_image": "brands_images/full/1381.jpg", "brand_id": 1381, "create_time": "NOW()", "longitude": 115.9085930275389, "latitude": 28.642111668259457, "region_id_1": "360000", "region_id_2": "360100", "region_id_3": "360104"}, {"id": 111108, "name": "\u6b27\u795e\u8bfa\u9676\u74f7\u5962\u74f7\u4f53\u9a8c\u9986", "address": "\u6c5f\u897f\u7701\u666f\u5fb7\u9547\u8c6a\u5fb7\u5e7f\u573a\u4e00\u671f\u4e1c\u885757-65\u53f7", "telephone": "400186000", "preview_image": "brands_images/full/1381.jpg", "brand_id": 1381, "create_time": "NOW()", "longitude": 117.18652262527252, "latitude": 29.303562768448288, "region_id_1": "360000", "region_id_2": "360200", "region_id_3": "360202"}, {"id": 111109, "name": "\u6b27\u795e\u8bfa\u5962\u74f7\u4f53\u9a8c\u9986", "address": "\u6c5f\u897f\u7701\u5fb7\u5b89\u53bf\u91d1\u5e26\u6cb3\u5c0f\u533a7\u680b4\u4e009\u95e8\u9762", "telephone": "400186000", "preview_image": "brands_images/full/1381.jpg", "brand_id": 1381, "create_time": "NOW()", "longitude": 115.70992962000362, "latitude": 29.312293978515363, "region_id_1": "360000", "region_id_2": "360400", "region_id_3": "360426"}, {"id": 111110, "name": "\u6b27\u795e\u8bfa\u5962\u74f7\u4f53\u9a8c\u9986", "address": "\u6c5f\u897f\u7701\u65b0\u4f59\u5e02\u4e1c\u65b9\u5df4\u9ece\u9676\u74f7\u57ce-F-001\u53f7", "telephone": "400186000", "preview_image": "brands_images/full/1381.jpg", "brand_id": 1381, "create_time": "NOW()", "longitude": 114.93765555587267, "latitude": 27.81836661016207, "region_id_1": "360000", "region_id_2": "360500", "region_id_3": "360502"}, {"id": 111111, "name": "\u6b27\u795e\u8bfa\u5962\u74f7\u9986", "address": "\u6c5f\u897f\u7701\u8d63\u5dde\u5e02\u5174\u56fd\u53bf\u5c06\u519b\u5927\u9053\u5357\u6bb5", "telephone": "400186000", "preview_image": "brands_images/full/1381.jpg", "brand_id": 1381, "create_time": "NOW()", "longitude": 115.36322591362564, "latitude": 26.34309574902551, "region_id_1": "360000", "region_id_2": "360700", "region_id_3": "360732"}, {"id": 111112, "name": "\u6b27\u795e\u8bfa\u5962\u74f7\u4f53\u9a8c\u9986", "address": "\u6c5f\u897f\u7701\u8d63\u5dde\u5e02\u5b9a\u5357\u53bf\u4eac\u4e5d\u5927\u9053\u51e4\u51f0\u9152\u5e97\u5f80\u524d50\u7c73\u9a8f\u8f89\u5efa\u6750", "telephone": "400186000", "preview_image": "brands_images/full/1381.jpg", "brand_id": 1381, "create_time": "NOW()", "longitude": 115.02414077669899, "latitude": 24.778599297346084, "region_id_1": "360000", "region_id_2": "360700", "region_id_3": "360728"}, {"id": 111113, "name": "\u6b27\u795e\u8bfa\u5962\u74f7\u4f53\u9a8c\u9986", "address": "\u6c5f\u897f\u7701\u8d63\u5dde\u5e02\u745e\u91d1\u5e02\u57ce\u5317\u5efa\u6750\u5e02\u573a\u6b27\u795e\u8bfa\u5962\u74f7\u4f53\u9a8c\u9986", "telephone": "400186000", "preview_image": "brands_images/full/1381.jpg", "brand_id": 1381, "create_time": "NOW()", "longitude": 115.98586699622572, "latitude": 25.921831361760486, "region_id_1": "360000", "region_id_2": "360700", "region_id_3": "360781"}, {"id": 111114, "name": "\u6b27\u795e\u8bfa\u5962\u74f7\u4f53\u9a8c\u9986", "address": "\u6c5f\u897f\u7701\u8d63\u5dde\u5e02\u9f99\u5357\u53bf\u52e4\u4e1a\u8857\u6c47\u68ee\u5927\u9053\u548c\u9ec4\u6c99\u8def\u53e3\u4ea4\u6c47\u5904", "telephone": "400186000", "preview_image": "brands_images/full/1381.jpg", "brand_id": 1381, "create_time": "NOW()", "longitude": 114.8275452199385, "latitude": 24.900070166065003, "region_id_1": "360000", "region_id_2": "360700", "region_id_3": "360727"}, {"id": 111115, "name": "\u6b27\u795e\u8bfa\u5962\u74f7\u4f53\u9a8c\u9986", "address": "\u6c5f\u897f\u7701\u8d63\u5dde\u5e02\u5ba2\u5bb6\u5927\u9053\u91d1\u65b0\u5efa\u6750\u57ceC3-C5", "telephone": "400186000", "preview_image": "brands_images/full/1381.jpg", "brand_id": 1381, "create_time": "NOW()", "longitude": 114.91068424016497, "latitude": 25.83968175819828, "region_id_1": "360000", "region_id_2": "360700", "region_id_3": "360702"}, {"id": 111116, "name": "\u6b27\u795e\u8bfa\u9676\u74f7", "address": "\u6c5f\u897f\u7701\u5409\u5b89\u5e02\u5409\u5dde\u533a\u9633\u660e\u897f\u8def\u5b9c\u5bb6\u516c\u56ed\u5c0f\u533a\u5927\u95e8\u53f3\u4fa71\u53f7\u5546\u94fa", "telephone": "400186000", "preview_image": "brands_images/full/1381.jpg", "brand_id": 1381, "create_time": "NOW()", "longitude": 114.97772865204922, "latitude": 27.12250535710117, "region_id_1": "360000", "region_id_2": "360800", "region_id_3": "360802"}, {"id": 111117, "name": "\u6b27\u795e\u8bfa\u5962\u74f7\u4f53\u9a8c\u9986", "address": "\u6c5f\u897f\u7701\u5409\u5b89\u5e02\u6c38\u65b0\u53bf\u9f99\u6e7e\u534e\u5ead24\u680b-1\u81f35\u53f7\u95e8\u9762", "telephone": "400186000", "preview_image": "brands_images/full/1381.jpg", "brand_id": 1381, "create_time": "NOW()", "longitude": 114.26012207732062, "latitude": 26.966484263812024, "region_id_1": "360000", "region_id_2": "360800", "region_id_3": "360830"}, {"id": 111118, "name": "\u6b27\u795e\u8bfa\u9676\u74f7", "address": "\u6c5f\u897f\u7701\u5b9c\u6625\u5e02\u8881\u5dde\u533a\u56fd\u9645\u5546\u8d38\u57ce45\u680b7-8\u53f7", "telephone": "400186000", "preview_image": "brands_images/full/1381.jpg", "brand_id": 1381, "create_time": "NOW()", "longitude": 114.40649664017197, "latitude": 27.840897805918498, "region_id_1": "360000", "region_id_2": "360900", "region_id_3": "360902"}, {"id": 111119, "name": "\u6b27\u795e\u8bfa\u9676\u74f7\u4f53\u9a8c\u9986", "address": "\u629a\u5dde\u5e02\u9ad8\u65b0\u6280\u672f\u4ea7\u4e1a\u5f00\u53d1\u533a\u534e\u7f8e\u7acb\u5bb6\u5efa\u6750\u5bb6\u5c45\u5e7f\u573a15\u680b1-13\u53f7", "telephone": "400186000", "preview_image": "brands_images/full/1381.jpg", "brand_id": 1381, "create_time": "NOW()", "longitude": 116.36459728246801, "latitude": 27.96398511122394, "region_id_1": "360000", "region_id_2": "361000", "region_id_3": "361002"}, {"id": 111120, "name": "\u6b27\u795e\u8bfa\u5962\u74f7\u4f53\u9a8c\u9986", "address": "\u6c5f\u897f\u7701\u5e7f\u660c\u53bf\u65f4\u6c5f\u9547\u6cbf\u6cb3\u8def(\u7231\u83b2\u540d\u82d1C10\u53f7)", "telephone": "400186000", "preview_image": "brands_images/full/1381.jpg", "brand_id": 1381, "create_time": "NOW()", "longitude": 116.33529877069336, "latitude": 26.84868560937181, "region_id_1": "360000", "region_id_2": "361000", "region_id_3": "361030"}, {"id": 111121, "name": "\u6b27\u795e\u8bfa\u5962\u74f7\u4f53\u9a8c\u9986", "address": "\u6c5f\u897f\u7701\u629a\u5dde\u5e02\u4e50\u5b89\u53bf\u5546\u8d38\u5927\u905344\u53f7", "telephone": "400186000", "preview_image": "brands_images/full/1381.jpg", "brand_id": 1381, "create_time": "NOW()", "longitude": 115.83829020106243, "latitude": 27.4243809976561, "region_id_1": "360000", "region_id_2": "361000", "region_id_3": "361025"}, {"id": 111122, "name": "\u6b27\u795e\u8bfa\u5962\u74f7\u4f53\u9a8c\u9986", "address": "\u6c5f\u897f\u7701\u4e0a\u9976\u5e02\u6c5f\u5357\u5546\u8d38\u57ceF1\u680b101", "telephone": "400186000", "preview_image": "brands_images/full/1381.jpg", "brand_id": 1381, "create_time": "NOW()", "longitude": 117.98506108179369, "latitude": 28.4727237219103, "region_id_1": "360000", "region_id_2": "361100", "region_id_3": "361102"}, {"id": 111123, "name": "\u6b27\u795e\u8bfa\u5962\u74f7\u4f53\u9a8c\u9986", "address": "\u6d4e\u5357\u5e02\u5929\u6865\u533a\u5317\u56ed\u5927\u8857225\u53f7\u7ea2\u661f\u7f8e\u51ef\u9f99\u8d1f\u4e00\u5c42\u897f\u5385", "telephone": "400186000", "preview_image": "brands_images/full/1381.jpg", "brand_id": 1381, "create_time": "NOW()", "longitude": 117.05282375551069, "latitude": 36.697029825947546, "region_id_1": "370000", "region_id_2": "370100", "region_id_3": "370105"}, {"id": 111124, "name": "\u6b27\u795e\u8bfa\u5962\u74f7\u4f53\u9a8c\u9986", "address": "\u6d4e\u5357\u5e02\u5929\u6865\u533a\u5317\u56ed\u5927\u8857408\u53f7\u94f6\u5ea7\u5bb6\u5c45\u4e00\u697c", "telephone": "400186000", "preview_image": "brands_images/full/1381.jpg", "brand_id": 1381, "create_time": "NOW()", "longitude": 117.02085273722398, "latitude": 36.69057046630788, "region_id_1": "370000", "region_id_2": "370100", "region_id_3": "370105"}, {"id": 111125, "name": "\u6b27\u795e\u8bfa\u5962\u74f7\u4f53\u9a8c\u9986", "address": "\u5c71\u4e1c\u7701\u6d4e\u5357\u5e02\u5929\u6865\u533a\u5317\u56ed\u5927\u8857\u7ea2\u661f\u7f8e\u51ef\u9f99\u6b27\u795e\u8bfa\u5962\u74f7\u7cbe\u54c1\u9986", "telephone": "400186000", "preview_image": "brands_images/full/1381.jpg", "brand_id": 1381, "create_time": "NOW()", "longitude": 117.03956897294812, "latitude": 36.6918177773046, "region_id_1": "370000", "region_id_2": "370100", "region_id_3": "370105"}, {"id": 111126, "name": "\u6b27\u795e\u8bfa\u5962\u74f7\u4f53\u9a8c\u9986", "address": "\u5c71\u4e1c\u7701\u6d4e\u5357\u5e02\u5929\u6865\u533a\u5317\u56ed\u5927\u8857408\u53f7\u94f6\u5ea7\u5bb6\u5c45\u5317\u56ed\u5e97\u6b27\u795e\u8bfa\u5962\u74f7\u4f53\u9a8c\u9986", "telephone": "400186000", "preview_image": "brands_images/full/1381.jpg", "brand_id": 1381, "create_time": "NOW()", "longitude": 117.02112306070786, "latitude": 36.68974611377466, "region_id_1": "370000", "region_id_2": "370100", "region_id_3": "370105"}, {"id": 111127, "name": "\u6b27\u795e\u8bfa\u5962\u74f7\u4f53\u9a8c\u9986", "address": "\u5c71\u4e1c\u7701\u6d4e\u5357\u5e02\u4e2d\u533a\u82f1\u96c4\u5c71\u8def\u4e07\u6cf0", "telephone": "400186000", "preview_image": "brands_images/full/1381.jpg", "brand_id": 1381, "create_time": "NOW()", "longitude": 117.00901731329938, "latitude": 36.625802331918834, "region_id_1": "370000", "region_id_2": "370100", "region_id_3": "370103"}, {"id": 111128, "name": "\u6b27\u795e\u8bfa\u5962\u74f7\u4f53\u9a8c\u9986", "address": "\u5c71\u4e1c\u7701\u6d4e\u5357\u5e02\u5929\u6865\u533a\u5927\u660e\u6e56\u5e97\u57ce\u5e02\u4eba\u5bb6", "telephone": "400186000", "preview_image": "brands_images/full/1381.jpg", "brand_id": 1381, "create_time": "NOW()", "longitude": 117.02964813630273, "latitude": 36.67944709753063, "region_id_1": "370000", "region_id_2": "370100", "region_id_3": "370102"}, {"id": 111129, "name": "\u6b27\u795e\u8bfa\u5962\u74f7\u4f53\u9a8c\u9986", "address": "\u5c71\u4e1c\u7701\u6d4e\u5357\u5e02\u4e1a\u4e4b\u5cf0\u5929\u6865\u533a\u5357\u5168\u798f\u5e97", "telephone": "400186000", "preview_image": "brands_images/full/1381.jpg", "brand_id": 1381, "create_time": "NOW()", "longitude": 117.06294032663855, "latitude": 36.69862292701368, "region_id_1": "370000", "region_id_2": "370100", "region_id_3": "370112"}, {"id": 111130, "name": "\u6b27\u795e\u8bfa\u5962\u74f7\u4f53\u9a8c\u9986", "address": "\u5c71\u4e1c\u7701\u5fb7\u5dde\u5e02\u57ce\u5e02\u4eba\u5bb6\u88c5\u9970\u516c\u53f82\u697c", "telephone": "400186000", "preview_image": "brands_images/full/1381.jpg", "brand_id": 1381, "create_time": "NOW()", "longitude": 116.29888962936555, "latitude": 37.45920399309089, "region_id_1": "370000", "region_id_2": "371400", "region_id_3": "371402"}, {"id": 111131, "name": "\u6b27\u795e\u8bfa\u5962\u74f7\u4f53\u9a8c\u9986", "address": "\u5c71\u4e1c\u7701\u90b9\u57ce\u5e02\u5343\u6cc9\u5bb6\u5c45\u751f\u6d3b\u99863\u671f3\u53f7\u95e81F079", "telephone": "400186000", "preview_image": "brands_images/full/1381.jpg", "brand_id": 1381, "create_time": "NOW()", "longitude": 117.089581751128, "latitude": 35.35404254087814, "region_id_1": "370000", "region_id_2": "370800", "region_id_3": "370883"}, {"id": 111132, "name": "\u6b27\u795e\u8bfa\u5962\u74f7\u4f53\u9a8c\u9986", "address": "\u5c71\u4e1c\u7701\u9752\u5c9b\u5e02\u5d02\u5c71\u533a\u8fbd\u9633\u4e1c\u8def9\u53f7\u9ad8\u79d1\u56ed\u88c5\u9970\u57ce\u4e00\u671fA1-A2", "telephone": "400186000", "preview_image": "brands_images/full/1381.jpg", "brand_id": 1381, "create_time": "NOW()", "longitude": 120.44269740838351, "latitude": 36.12010144625158, "region_id_1": "370000", "region_id_2": "370200", "region_id_3": "370212"}, {"id": 111133, "name": "\u6b27\u795e\u8bfa\u9676\u74f7\u4f53\u9a8c\u9986", "address": "\u5c71\u4e1c\u7701\u6dc4\u535a\u9ad8\u65b0\u533a\u5c45\u7136\u4e4b\u5bb6DS82-1-1-003", "telephone": "400186000", "preview_image": "brands_images/full/1381.jpg", "brand_id": 1381, "create_time": "NOW()", "longitude": 118.05056704839015, "latitude": 36.85903643806385, "region_id_1": "370000", "region_id_2": "370300", "region_id_3": "370303"}, {"id": 111134, "name": "\u6b27\u795e\u8bfa\u9676\u74f7\u4f53\u9a8c\u9986", "address": "\u5c71\u4e1c\u7701\u6dc4\u535a\u5e02\u4e34\u6dc4\u533a\u8f9b\u5316\u8def2188\u53f7\u5c45\u7136\u4e4b\u5bb6\u4e00\u5c421-1-046", "telephone": "400186000", "preview_image": "brands_images/full/1381.jpg", "brand_id": 1381, "create_time": "NOW()", "longitude": 118.28451290458055, "latitude": 36.834073161024975, "region_id_1": "370000", "region_id_2": "370300", "region_id_3": "370305"}, {"id": 111135, "name": "\u6b27\u795e\u8bfa\u5962\u74f7\u4f53\u9a8c\u9986", "address": "\u5c71\u4e1c\u7701\u6dc4\u535a\u5e02\u6dc4\u5ddd\u5efa\u6750\u57ce\u7687\u51a0\u7cbe\u54c1\u5e02\u573a3024\u53f7\u6b27\u795e\u8bfa", "telephone": "400186000", "preview_image": "brands_images/full/1381.jpg", "brand_id": 1381, "create_time": "NOW()", "longitude": 118.01574060524328, "latitude": 36.7234508016333, "region_id_1": "370000", "region_id_2": "370300", "region_id_3": "370302"}, {"id": 111136, "name": "\u6b27\u795e\u8bfa\u5962\u74f7\u4f53\u9a8c\u9986", "address": "\u5c71\u4e1c\u7701\u6dc4\u535a\u5e02\u4e34\u6dc4\u533a\u4e34\u6dc4\u5927\u9053\u548c\u4e00\u8bfa\u8def\u897f\u5317\u89d2", "telephone": "400186000", "preview_image": "brands_images/full/1381.jpg", "brand_id": 1381, "create_time": "NOW()", "longitude": 118.23207918434672, "latitude": 36.827274797267, "region_id_1": "370000", "region_id_2": "370300", "region_id_3": "370305"}, {"id": 111137, "name": "\u6b27\u795e\u8bfa\u9676\u74f7", "address": "\u5c71\u4e1c\u67a3\u5e84\u5e02\u5e02\u4e2d\u533a\u534e\u5c71\u8def\u68ee\u535a\u5efa\u6750\u9986\u4e8c\u697c\u5357\u9996", "telephone": "400186000", "preview_image": "brands_images/full/1381.jpg", "brand_id": 1381, "create_time": "NOW()", "longitude": 117.55395298562927, "latitude": 34.84666781174446, "region_id_1": "370000", "region_id_2": "370100", "region_id_3": "370103"}, {"id": 111138, "name": "\u6b27\u795e\u8bfa\u5962\u74f7\u4f53\u9a8c\u9986", "address": "\u5c71\u4e1c\u7701\u67a3\u5e84\u5e02\u6ed5\u5dde\u5e02\u5317\u8f9b\u8def\u4e0e\u79d1\u5723\u8def\u4ea4\u6c47\u5904\uff08\u7ea2\u661f\u7f8e\u51ef\u9f99\u8d1f\u4e00\u697cA8013\u3001A8039\uff09", "telephone": "400186000", "preview_image": "brands_images/full/1381.jpg", "brand_id": 1381, "create_time": "NOW()", "longitude": 117.18717825677129, "latitude": 35.11280645292814, "region_id_1": "370000", "region_id_2": "370400", "region_id_3": "370481"}, {"id": 111139, "name": "\u6b27\u795e\u8bfa\u5962\u74f7\u4f53\u9a8c \u9986", "address": "\u5c71\u4e1c\u67a3\u5e84\u6021\u666f\u4e3d\u5bb6\u56fd\u9645\u5efa\u6750\u5bb6\u5c45\u9986", "telephone": "400186000", "preview_image": "brands_images/full/1381.jpg", "brand_id": 1381, "create_time": "NOW()", "longitude": 117.27930538329689, "latitude": 34.80788307838604, "region_id_1": "370000", "region_id_2": "370400", "region_id_3": "370403"}, {"id": 111140, "name": "\u6b27\u795e\u8bfa\u5962\u74f7\u9986", "address": "\u5c71\u4e1c\u7701\u70df\u53f0\u5e02\u6d77\u9633\u5e02\u5e73\u9876\u6751\u70df\u51e4\u8def\u897f\u95e8\u5e02\u623f", "telephone": "400186000", "preview_image": "brands_images/full/1381.jpg", "brand_id": 1381, "create_time": "NOW()", "longitude": 121.21765271708963, "latitude": 36.751007122355425, "region_id_1": "370000", "region_id_2": "370600", "region_id_3": "370687"}, {"id": 111141, "name": "\u6b27\u795e\u8bfa\u9676\u74f7", "address": "\u5c71\u4e1c\u7701\u6f4d\u574a\u5e02\u6f4d\u57ce\u533a\u5929\u575b\u9676\u74f7\u7cbe\u54c1\u5546\u53a61\u697c29\u53f7", "telephone": "400186000", "preview_image": "brands_images/full/1381.jpg", "brand_id": 1381, "create_time": "NOW()", "longitude": 119.11388529064992, "latitude": 36.72870917632001, "region_id_1": "370000", "region_id_2": "370700", "region_id_3": "370702"}, {"id": 111142, "name": "\u6b27\u795e\u8bfa\u9676\u74f7", "address": "\u5c71\u4e1c\u7701\u6f4d\u574a\u5e02\u7ea2\u661f\u7f8e\u51ef\u9f99\u5efa\u6750\u8d85\u5e022\u697c", "telephone": "400186000", "preview_image": "brands_images/full/1381.jpg", "brand_id": 1381, "create_time": "NOW()", "longitude": 119.14263382297052, "latitude": 36.71611487305138, "region_id_1": "370000", "region_id_2": "370700", "region_id_3": "370705"}, {"id": 111143, "name": "\u6b27\u795e\u8bfa\u5962\u74f7\u4f53\u9a8c\u9986", "address": "\u5c71\u4e1c\u7701\u6f4d\u574a\u5e02\u5bff\u5149\u5e02\u94f6\u6d77\u8def\u4e0e\u5e7f\u573a\u8857\u4ea4\u53c9\u53e3\u8def\u5357\u4e2d\u767e\u76ca\u5bb6\u56ed\u5efa\u6750\u5e02\u573a\u4e00\u697c", "telephone": "400186000", "preview_image": "brands_images/full/1381.jpg", "brand_id": 1381, "create_time": "NOW()", "longitude": 118.75613431282625, "latitude": 36.8844223533142, "region_id_1": "370000", "region_id_2": "370700", "region_id_3": "370783"}, {"id": 111144, "name": "\u6b27\u795e\u8bfa\u5962\u74f7\u4f53\u9a8c\u9986", "address": "\u5c71\u4e1c\u7701\u6d4e\u5b81\u5e02\u4efb\u57ce\u533a\u91d1\u5b87\u88c5\u9970\u57ceB\u99861-027", "telephone": "400186000", "preview_image": "brands_images/full/1381.jpg", "brand_id": 1381, "create_time": "NOW()", "longitude": 116.60436256730671, "latitude": 35.43691686475435, "region_id_1": "370000", "region_id_2": "370800", "region_id_3": "370811"}, {"id": 111145, "name": "\u6b27\u795e\u8bfa\u5962\u74f7\u4f53\u9a8c\u9986\uff08\u51e4\u51f0\u57ce\u65d7\u8230\u5e97\uff09", "address": "\u6cb3\u5357\u7701\u90d1\u5dde\u5e02\u91d1\u6c34\u533a\u90d1\u6c74\u8def\u51e4\u51f0\u57ce\u5317\u57ce\u4e00\u697c\u4e1c\u5357\u533a38-47\u53f7", "telephone": "400186000", "preview_image": "brands_images/full/1381.jpg", "brand_id": 1381, "create_time": "NOW()", "longitude": 113.71890052503845, "latitude": 34.750525952853444, "region_id_1": "410000", "region_id_2": "410100", "region_id_3": "410105"}, {"id": 111146, "name": "\u6b27\u795e\u8bfa\u5962\u74f7\u4f53\u9a8c\u9986", "address": "\u90d1\u5dde\u5e02\u90d1\u4e1c\u65b0\u533a\u7ea2\u661f\u7f8e\u51ef\u9f99\u5efa\u6750\u4e8c\u697cC8031-C8032\u53f7", "telephone": "400186000", "preview_image": "brands_images/full/1381.jpg", "brand_id": 1381, "create_time": "NOW()", "longitude": 113.80347112268193, "latitude": 34.819064968473725, "region_id_1": "410000", "region_id_2": "410100", "region_id_3": "410105"}, {"id": 111147, "name": "\u6b27\u795e\u8bfa\u5962\u74f7\u4f53\u9a8c\u9986", "address": "\u6cb3\u5357\u90d1\u5dde\u5e02\u65b0\u5bc6\u5e02\u672a\u6765\u5927\u9053\u4e0e\u5d69\u5c71\u5927\u9053\u4ea4\u53c9\u53e3\u897f\u5317\u89d2", "telephone": "400186000", "preview_image": "brands_images/full/1381.jpg", "brand_id": 1381, "create_time": "NOW()", "longitude": 113.34427360351431, "latitude": 34.53592684061899, "region_id_1": "410000", "region_id_2": "410100", "region_id_3": "410183"}, {"id": 111148, "name": "\u6b27\u795e\u8bfa\u5962\u74f7\u4f53\u9a8c\u9986", "address": "\u6cb3\u5357\u90d1\u5dde\u5e02\u91d1\u6c34\u533a\u82b1\u56ed\u8def70-1\u53f7\u7f8e\u5de2\u88c5\u9970", "telephone": "400186000", "preview_image": "brands_images/full/1381.jpg", "brand_id": 1381, "create_time": "NOW()", "longitude": 113.68833133046617, "latitude": 34.777466726158046, "region_id_1": "410000", "region_id_2": "410100", "region_id_3": "410105"}, {"id": 111149, "name": "\u6b27\u795e\u8bfa\u5962\u74f7\u4f53\u9a8c\u9986", "address": "\u6cb3\u5357\u90d1\u5dde\u5e02\u4e8c\u4e03\u533a\u5d69\u5c71\u5357\u8def169-4\u8d85\u51e1\u88c5\u9970", "telephone": "400186000", "preview_image": "brands_images/full/1381.jpg", "brand_id": 1381, "create_time": "NOW()", "longitude": 113.63483345009095, "latitude": 34.73688275576255, "region_id_1": "410000", "region_id_2": "410100", "region_id_3": "410103"}, {"id": 111150, "name": "\u6b27\u795e\u8bfa\u5962\u74f7\u4f53\u9a8c\u9986", "address": "\u6cb3\u5357\u7701\u6d1b\u9633\u5e02\u897f\u5de5\u533a\u5c45\u7136\u4e4b\u5bb6\u4e00\u697c1-045", "telephone": "400186000", "preview_image": "brands_images/full/1381.jpg", "brand_id": 1381, "create_time": "NOW()", "longitude": 112.43866208678978, "latitude": 34.66467982848273, "region_id_1": "410000", "region_id_2": "410300", "region_id_3": "410303"}, {"id": 111151, "name": "\u6b27\u795e\u8bfa\u5962\u74f7\u4f53\u9a8c\u9986", "address": "\u6cb3\u5357\u7701\u6d1b\u9633\u5e02\u897f\u5de5\u533a\u6b27\u4e9a\u8fbe\u5bb6\u5c45\u8d1f\u4e00\u697cA\u533a15\u53f7", "telephone": "400186000", "preview_image": "brands_images/full/1381.jpg", "brand_id": 1381, "create_time": "NOW()", "longitude": 112.40712572440373, "latitude": 34.689693743301575, "region_id_1": "410000", "region_id_2": "410300", "region_id_3": "410305"}, {"id": 111152, "name": "\u6b27\u795e\u8bfa\u5962\u74f7\u4f53\u9a8c\u9986", "address": "\u6cb3\u5357\u6d1b\u9633\u5e02\u897f\u5de5\u533a\u738b\u57ce\u5927\u9053\u4e0e\u4e5d\u90fd\u8def\u4ea4\u53c9\u53e3\u2014\u2014\u5c45\u7136\u4e4b\u5bb6\u81f3\u5c0a\u6bbf\u4e00\u697c\u4e2d\u53851-045", "telephone": "400186000", "preview_image": "brands_images/full/1381.jpg", "brand_id": 1381, "create_time": "NOW()", "longitude": 112.43797164917478, "latitude": 34.66466268232441, "region_id_1": "410000", "region_id_2": "410300", "region_id_3": "410303"}, {"id": 111153, "name": "\u6b27\u795e\u8bfa\u5962\u74f7\u4f53\u9a8c\u9986", "address": "\u6cb3\u5357\u7701\u5e73\u9876\u5c71\u5e02\u65b0\u534e\u533a\u5e73\u897f\u5efa\u6750\u57ce\u5609\u82d1\u897f\u4e00\u5c42\u4e8c\u533a", "telephone": "400186000", "preview_image": "brands_images/full/1381.jpg", "brand_id": 1381, "create_time": "NOW()", "longitude": 113.28970774388779, "latitude": 33.74800041906396, "region_id_1": "130000", "region_id_2": "130100", "region_id_3": "130105"}, {"id": 111154, "name": "\u6b27\u795e\u8bfa\u5962\u74f7\u4f53\u9a8c\u9986", "address": "\u6cb3\u5357\u5b89\u9633\u5e02\u6587\u5cf0\u533a\u5c45\u5bb6\u5b9c\u88c5\u9970\u6750\u6599\u5e02\u573a\u4e00\u697c\u4e2d\u5385", "telephone": "400186000", "preview_image": "brands_images/full/1381.jpg", "brand_id": 1381, "create_time": "NOW()", "longitude": 114.41852222060922, "latitude": 36.03414766584498, "region_id_1": "410000", "region_id_2": "410500", "region_id_3": "410502"}, {"id": 111155, "name": "\u6b27\u795e\u8bfa\u5962\u74f7\u4f53\u9a8c\u9986", "address": "\u6cb3\u5357\u7701\u65b0\u4e61\u5e02\u7ea2\u65d7\u533a\u5e73\u539f\u8def348\u53f7\u91d1\u8c37\u65f6\u4ee3\u5e7f\u573a", "telephone": "400186000", "preview_image": "brands_images/full/1381.jpg", "brand_id": 1381, "create_time": "NOW()", "longitude": 113.89928568912255, "latitude": 35.311552874494794, "region_id_1": "410000", "region_id_2": "410700", "region_id_3": "410702"},