[{"city": "株洲市", "name": "株州胜威门控科技有限公司", "address": "湖南省株州芦淞区建设中路861号红港建材五栋1-2号", "phone_number": "18908436999", "id": 110456, "preview_image": "brands_images/full/1421.jpg", "brand_id": 1421, "create_time": "NOW()", "longitude": 113.13875251898534, "latitude": 27.85923291031633, "region_id_1": "430000", "region_id_2": "430200", "region_id_3": "430203"}, {"city": "长沙市", "name": "湖南联鑫驰泰智能门窗有限公司", "address": "湖南省长沙市芙蓉区留园路214号", "phone_number": "13387314222", "id": 110457, "preview_image": "brands_images/full/1421.jpg", "brand_id": 1421, "create_time": "NOW()", "longitude": 113.01897396788448, "latitude": 28.21094513342015, "region_id_1": "430000", "region_id_2": "430100", "region_id_3": "430102"}, {"city": "长沙市", "name": "欧雅照明", "address": "红星美凯龙负一楼", "phone_number": "15802603601", "id": 110458, "preview_image": "brands_images/full/1421.jpg", "brand_id": 1421, "create_time": "NOW()", "longitude": 116.44566304799645, "latitude": 40.031080880467705, "region_id_1": "110000", "region_id_2": "110100", "region_id_3": "110105"}, {"city": "株洲市", "name": "株洲金格照明", "address": "株洲市五金机电灯饰城4栋2楼5-6号", "phone_number": "15073368989", "id": 110459, "preview_image": "brands_images/full/1421.jpg", "brand_id": 1421, "create_time": "NOW()", "longitude": 113.13169534107074, "latitude": 27.82743292766265, "region_id_1": "430000", "region_id_2": "430200", "region_id_3": "430211"}, {"city": "衡阳市", "name": "衡江五金水暖店", "address": "衡东商业步行街104号（金果超市对面）", "phone_number": "18216058650", "id": 110460, "preview_image": "brands_images/full/1421.jpg", "brand_id": 1421, "create_time": "NOW()", "longitude": 112.95317373967352, "latitude": 27.098189440201917, "region_id_1": "430000", "region_id_2": "430400", "region_id_3": "430424"}, {"city": "株洲市", "name": "福星灯饰城", "address": "荷塘区中南建材批发市场A14栋5-6号", "phone_number": "15973353329", "id": 110461, "preview_image": "brands_images/full/1421.jpg", "brand_id": 1421, "create_time": "NOW()", "longitude": 113.18333464619317, "latitude": 27.853927194826138, "region_id_1": "430000", "region_id_2": "430200", "region_id_3": "430202"}, {"city": "衡阳市", "name": "振鹏照明", "address": "衡阳县装饰材料市场振鹏水电城", "phone_number": "13975429778", "id": 110462, "preview_image": "brands_images/full/1421.jpg", "brand_id": 1421, "create_time": "NOW()", "longitude": 112.35157940823194, "latitude": 27.1096261138625, "region_id_1": "430000", "region_id_2": "430400", "region_id_3": "430421"}, {"city": "长沙市", "name": "长沙湘艺机电设备有限公司", "address": "长沙市中城丽景香山1008门面", "phone_number": "13739095848", "id": 110463, "preview_image": "brands_images/full/1421.jpg", "brand_id": 1421, "create_time": "NOW()", "longitude": 113.03828422339191, "latitude": 28.158150823523794, "region_id_1": "430000", "region_id_2": "430100", "region_id_3": "430111"}, {"city": "永州市", "name": "诚帅电器经营部", "address": "永州市冷水滩区育才路颐园K、M门面", "phone_number": "18174696668", "id": 110464, "preview_image": "brands_images/full/1421.jpg", "brand_id": 1421, "create_time": "NOW()", "longitude": 111.62802938401218, "latitude": 26.44265696172294, "region_id_1": "430000", "region_id_2": "431100", "region_id_3": "431103"}, {"city": "长沙市", "name": "长沙市欧雅照明电器发展有限公司(直营店)", "address": "长沙市雨花区万家丽路中段36号", "phone_number": "18900780358", "id": 110465, "preview_image": "brands_images/full/1421.jpg", "brand_id": 1421, "create_time": "NOW()", "longitude": 113.03744480545552, "latitude": 28.20136916664195, "region_id_1": "430000", "region_id_2": "430100", "region_id_3": "430102"}, {"city": "郴州市", "name": "湖南郴州临武灯饰", "address": "湖南省郴州市临武县防疫站1--2号", "phone_number": "13873541008", "id": 110466, "preview_image": "brands_images/full/1421.jpg", "brand_id": 1421, "create_time": "NOW()", "longitude": 112.5680411046603, "latitude": 25.343997179339624, "region_id_1": "430000", "region_id_2": "431000", "region_id_3": "431025"}, {"city": "郴州市", "name": "湖南郴州宝莲灯灯饰", "address": "湖南省郴州市燕泉建材商业广场1幢2楼", "phone_number": "0735-2376708", "id": 110467, "preview_image": "brands_images/full/1421.jpg", "brand_id": 1421, "create_time": "NOW()", "longitude": 113.022112367064, "latitude": 25.789205399624464, "region_id_1": "430000", "region_id_2": "431000", "region_id_3": "431002"}, {"city": "郴州市", "name": "湖南株洲茶陵专卖店", "address": "湖南省株洲市茶陵县朝阳路世纪新城17栋15-16号", "phone_number": "13647337567", "id": 110468, "preview_image": "brands_images/full/1421.jpg", "brand_id": 1421, "create_time": "NOW()", "longitude": 113.6524812712022, "latitude": 26.806729309467535, "region_id_1": "430000", "region_id_2": "430200", "region_id_3": "430224"}, {"city": "郴州市", "name": "株洲帝豪灯饰经营部石峰区店", "address": "湖南省株洲市石峰区株洲商城3栋2楼", "phone_number": "0731-2821363", "id": 110469, "preview_image": "brands_images/full/1421.jpg", "brand_id": 1421, "create_time": "NOW()", "longitude": 113.1361055719705, "latitude": 27.865396621502583, "region_id_1": "430000", "region_id_2": "430200", "region_id_3": "430204"}, {"city": "郴州市", "name": "株洲福星灯饰专卖店", "address": "株洲市中南建材市场，亿家惠超市富1楼10号", "phone_number": "13789066516", "id": 110470, "preview_image": "brands_images/full/1421.jpg", "brand_id": 1421, "create_time": "NOW()", "longitude": 113.18295400091141, "latitude": 27.855072338763964, "region_id_1": "430000", "region_id_2": "430200", "region_id_3": "430202"}, {"city": "永州市", "name": "湖南永州彩虹灯饰", "address": "永州市冷水滩育才路湘发建材市场二楼", "phone_number": "13037467098", "id": 110471, "preview_image": "brands_images/full/1421.jpg", "brand_id": 1421, "create_time": "NOW()", "longitude": 111.62792023989275, "latitude": 26.42387977656383, "region_id_1": "430000", "region_id_2": "431100", "region_id_3": "431103"}, {"city": "益阳市", "name": "湖南益阳亚太灯饰银城大市场专卖店", "address": "益阳市银城大市场D区1楼", "phone_number": "13707379136", "id": 110472, "preview_image": "brands_images/full/1421.jpg", "brand_id": 1421, "create_time": "NOW()", "longitude": 112.40116710331439, "latitude": 28.57099798633495, "region_id_1": "430000", "region_id_2": "430900", "region_id_3": "430903"}, {"city": "怀化市", "name": "湖南怀化明可达河西滨江花园专卖店", "address": "怀化市河西滨江花园灯具市场7、8、9号", "phone_number": "13974540688", "id": 110473, "preview_image": "brands_images/full/1421.jpg", "brand_id": 1421, "create_time": "NOW()", "longitude": 109.96668578141646, "latitude": 27.54191394251475, "region_id_1": "430000", "region_id_2": "431200", "region_id_3": "431202"}, {"city": "邵阳市", "name": "武冈市志高灯饰专卖店", "address": "湖南省邵阳市武冈市新建材市场", "phone_number": "15842935018", "id": 110474, "preview_image": "brands_images/full/1421.jpg", "brand_id": 1421, "create_time": "NOW()", "longitude": 110.7458153391878, "latitude": 26.78657807262229, "region_id_1": "430000", "region_id_2": "430500", "region_id_3": "430581"}, {"city": "娄底市", "name": "娄底市楠博旺灯饰五江大汉店", "address": "湖南省娄底市五江大汉精品建材市场三楼", "phone_number": "0738-8622999", "id": 110475, "preview_image": "brands_images/full/1421.jpg", "brand_id": 1421, "create_time": "NOW()", "longitude": 111.99639635657, "latitude": 27.741073302349072, "region_id_1": "430000", "region_id_2": "431300", "region_id_3": "431302"}, {"city": "长沙市", "name": "长沙欧雅海威大厦专卖店", "address": "长沙南湖市场海威大厦35号", "phone_number": "0731-2950805", "id": 110476, "preview_image": "brands_images/full/1421.jpg", "brand_id": 1421, "create_time": "NOW()", "longitude": 113.01900081284634, "latitude": 28.209902368699286, "region_id_1": "430000", "region_id_2": "430100", "region_id_3": "430102"}, {"city": "长沙市", "name": "长沙宁乡鸿祥灯饰专卖店", "address": "湖南省宁乡县玉潭镇新康路水晶郦城27号", "phone_number": "0731-87802981", "id": 110477, "preview_image": "brands_images/full/1421.jpg", "brand_id": 1421, "create_time": "NOW()", "longitude": 112.56575698427386, "latitude": 28.27473541400627, "region_id_1": "430000", "region_id_2": "430100", "region_id_3": "430124"}, {"city": "长沙市", "name": "长沙米兰灯饰喜来登专卖店", "address": "湖南省长沙市长建喜来登灯饰广场一楼", "phone_number": "0731-84675358", "id": 110478, "preview_image": "brands_images/full/1421.jpg", "brand_id": 1421, "create_time": "NOW()", "longitude": 113.023592589493, "latitude": 28.18663970133985, "region_id_1": "430000", "region_id_2": "430100", "region_id_3": "430111"}, {"city": "深圳市", "name": "辉煌灯饰", "address": "深圳龙华万众城", "phone_number": "13537596986", "id": 110479, "preview_image": "brands_images/full/1421.jpg", "brand_id": 1421, "create_time": "NOW()", "longitude": 114.0448195849991, "latitude": 22.634954173509346, "region_id_1": "440000", "region_id_2": "440300", "region_id_3": "440306"}, {"city": "广州市", "name": "广州市协鑫自动门材料有限公司", "address": "广州市南岸路20号广东装饰材料市场318铺", "phone_number": "020-81931210", "id": 110480, "preview_image": "brands_images/full/1421.jpg", "brand_id": 1421, "create_time": "NOW()", "longitude": 113.23742589956021, "latitude": 23.13404902235143, "region_id_1": "440000", "region_id_2": "440100", "region_id_3": "440103"}, {"city": "茂名市", "name": "茂名市茂南建厦玻璃店", "address": "茂名市计量物流广场C4座80号", "phone_number": "13727766658", "id": 110481, "preview_image": "brands_images/full/1421.jpg", "brand_id": 1421, "create_time": "NOW()", "longitude": 110.93124533067585, "latitude": 21.66822571882161, "region_id_1": "440000", "region_id_2": "440900", "region_id_3": "440902"}, {"city": "惠州市", "name": "惠城区德斯玛门控总汇", "address": "惠州市惠城区麦地南路33号雍逸园D4栋7号", "phone_number": "0752-2143123", "id": 110482, "preview_image": "brands_images/full/1421.jpg", "brand_id": 1421, "create_time": "NOW()", "longitude": 114.41743844773774, "latitude": 23.065818772405347, "region_id_1": "440000", "region_id_2": "441300", "region_id_3": "441302"}, {"city": "中山市", "name": "中山市德雷士自动门控有限公司", "address": "中山市石岐区宏基46号首层松下自动门", "phone_number": "0760-88834678", "id": 110483, "preview_image": "brands_images/full/1421.jpg", "brand_id": 1421, "create_time": "NOW()", "longitude": 113.39320599867435, "latitude": 22.5420617902086, "region_id_1": 0, "region_id_2": 0, "region_id_3": 0}, {"city": "清远市", "name": "清远市清城区汇辉自动门装饰材料商行", "address": "清远市桥北一路汇博美居广场C馆旁", "phone_number": "0763-3303079", "id": 110484, "preview_image": "brands_images/full/1421.jpg", "brand_id": 1421, "create_time": "NOW()", "longitude": 113.04412575230774, "latitude": 23.721023840972595, "region_id_1": "440000", "region_id_2": "441800", "region_id_3": "441802"}, {"city": "茂名市", "name": "茂名市建厦玻璃店", "address": "茂名市计星路计星物流广场", "phone_number": "0668-8991228", "id": 110485, "preview_image": "brands_images/full/1421.jpg", "brand_id": 1421, "create_time": "NOW()", "longitude": 110.91815043661703, "latitude": 21.65079368720665, "region_id_1": "440000", "region_id_2": "440900", "region_id_3": "440902"}, {"city": "湛江市", "name": "湛江市赤坎区川大装饰材料商行", "address": "湛江市海田建材批发城B栋9-16号", "phone_number": "0759-8206288", "id": 110486, "preview_image": "brands_images/full/1421.jpg", "brand_id": 1421, "create_time": "NOW()", "longitude": 110.39178982608443, "latitude": 21.288511064636737, "region_id_1": "440000", "region_id_2": "440800", "region_id_3": "440802"}, {"city": "佛山市", "name": "佛山市索玛自动门控有限公司", "address": "佛山市雾岗路与魁奇路交界的新华艺市场南区3座35-36号", "phone_number": "0757-82722788", "id": 110487, "preview_image": "brands_images/full/1421.jpg", "brand_id": 1421, "create_time": "NOW()", "longitude": 113.10083642591388, "latitude": 23.017071800159304, "region_id_1": "440000", "region_id_2": "440600", "region_id_3": "440604"}, {"city": "珠海市", "name": "珠海市香洲区雅洁恒装饰材料商行", "address": "珠海市香洲区前山路120号", "phone_number": "0756-8977348", "id": 110488, "preview_image": "brands_images/full/1421.jpg", "brand_id": 1421, "create_time": "NOW()", "longitude": 113.53644691528064, "latitude": 22.25150572313635, "region_id_1": "440000", "region_id_2": "440400", "region_id_3": "440402"}, {"city": "珠海市", "name": "珠海市香洲区伟和实业发展公司", "address": "珠海市香洲区前山翠微西路601号立洲商贸大厦1楼", "phone_number": "13902874338、 0756-2277386", "id": 110489, "preview_image": "brands_images/full/1421.jpg", "brand_id": 1421, "create_time": "NOW()", "longitude": 113.53812274642931, "latitude": 22.258870414253963, "region_id_1": "440000", "region_id_2": "440400", "region_id_3": "440402"}, {"city": "江门市", "name": "江门市蓬江区振鸿建材有限公司", "address": "江门市建设三路113号12座117室、202室（D6区05、06一层04、05、06二层）号铺", "phone_number": "0750-3102233", "id": 110490, "preview_image": "brands_images/full/1421.jpg", "brand_id": 1421, "create_time": "NOW()", "longitude": 113.07205059505971, "latitude": 22.630724993424113, "region_id_1": "440000", "region_id_2": "440700", "region_id_3": "440703"}, {"city": "汕头市", "name": "汕头市金盛五金装饰材料有限公司", "address": "汕头市潮南区峡山金光南路金盛大厦", "phone_number": "0754-87762163", "id": 110491, "preview_image": "brands_images/full/1421.jpg", "brand_id": 1421, "create_time": "NOW()", "longitude": 116.41853604218666, "latitude": 23.247967813259457, "region_id_1": "440000", "region_id_2": "440500", "region_id_3": "440514"}, {"city": "东莞市", "name": "东莞泓珲门控科技有限公司", "address": "东莞市寮步镇镇向西黄沙河东路51-53号", "phone_number": "0769-88902200", "id": 110492, "preview_image": "brands_images/full/1421.jpg", "brand_id": 1421, "create_time": "NOW()", "longitude": 113.8553911910866, "latitude": 23.032407762535907, "region_id_1": 0, "region_id_2": 0, "region_id_3": 0}, {"city": "深圳市", "name": "深圳市时润安自动门系统有限公司", "address": "深圳市龙岗区坂田街道雅园路22号中广大厦22-3", "phone_number": "13631583135", "id": 110493, "preview_image": "brands_images/full/1421.jpg", "brand_id": 1421, "create_time": "NOW()", "longitude": 114.0717653016947, "latitude": 22.622594152968855, "region_id_1": "440000", "region_id_2": "440300", "region_id_3": "440307"}, {"city": "深圳市", "name": "深圳市百事达建材有限公司", "address": "深圳市福田区福华路福新装饰市场80号", "phone_number": "13922815482", "id": 110494, "preview_image": "brands_images/full/1421.jpg", "brand_id": 1421, "create_time": "NOW()", "longitude": 114.07589071674788, "latitude": 22.54071424498886, "region_id_1": "440000", "region_id_2": "440300", "region_id_3": "440304"}, {"city": "深圳市", "name": "深圳市乙元兴自动门有限公司", "address": "广东省深圳市龙岗区横岗镇六约金塘工业区金塘路3号一楼", "phone_number": "13316902818、0755-25621702、13609615560", "id": 110495, "preview_image": "brands_images/full/1421.jpg", "brand_id": 1421, "create_time": "NOW()", "longitude": 114.18957341606685, "latitude": 22.629180997041928, "region_id_1": "440000", "region_id_2": "440300", "region_id_3": "440307"}, {"city": "广州市", "name": "广州市铂普精密门控有限公司", "address": "广州市海珠区三虼宄蚨南街7号首层一楼", "phone_number": "020-84176089", "id": 110496, "preview_image": "brands_images/full/1421.jpg", "brand_id": 1421, "create_time": "NOW()", "longitude": 113.31442882751118, "latitude": 23.06938368408347, "region_id_1": "440000", "region_id_2": "440100", "region_id_3": "440105"}, {"city": "广州市", "name": "广州市鑫志灏自动门有限公司", "address": "广州市荔湾区南岸路18号后座自编1-5号A3、A16档（连档）", "phone_number": "13802772530、 020-83302130、020-81726836", "id": 110497, "preview_image": "brands_images/full/1421.jpg", "brand_id": 1421, "create_time": "NOW()", "longitude": 113.23701972174095, "latitude": 23.133586212991975, "region_id_1": "440000", "region_id_2": "440100", "region_id_3": "440103"}, {"city": "广州市", "name": "广州岚清艺楷科技发展有限公司", "address": "广州市越秀区东华南路96号海印摄影城A09-A10", "phone_number": "18702002026", "id": 110498, "preview_image": "brands_images/full/1421.jpg", "brand_id": 1421, "create_time": "NOW()", "longitude": 113.2909869164222, "latitude": 23.124026819674928, "region_id_1": "440000", "region_id_2": "440100", "region_id_3": "440104"}, {"city": "云浮市", "name": "新兴金碧灯饰松下专卖店", "address": "肇庆市新兴县新城镇皇岗大道新洲大道大桥侧", "phone_number": "13827797398", "id": 110499, "preview_image": "brands_images/full/1421.jpg", "brand_id": 1421, "create_time": "NOW()", "longitude": 112.23372758797304, "latitude": 22.707052370757452, "region_id_1": "440000", "region_id_2": "445300", "region_id_3": "445321"}, {"city": "中山市", "name": "中山天朗灯饰松下专卖店", "address": "中山市石岐拱辰路13号", "phone_number": "13902593328", "id": 110500, "preview_image": "brands_images/full/1421.jpg", "brand_id": 1421, "create_time": "NOW()", "longitude": 113.38314991764621, "latitude": 22.52796616483422, "region_id_1": 0, "region_id_2": 0, "region_id_3": 0}, {"city": "韶关市", "name": "韶关艳阳天灯饰松下专卖店", "address": "韶关市武江区工业西路前进建材城C2-23、24号", "phone_number": "13415691058", "id": 110501, "preview_image": "brands_images/full/1421.jpg", "brand_id": 1421, "create_time": "NOW()", "longitude": 113.56474603702323, "latitude": 24.802624430266945, "region_id_1": "440000", "region_id_2": "440200", "region_id_3": "440203"}, {"city": "广州市", "name": "曼联灯饰", "address": "广州市黄石西路欧亚达建材城B1区6-7档", "phone_number": "13602881002", "id": 110502, "preview_image": "brands_images/full/1421.jpg", "brand_id": 1421, "create_time": "NOW()", "longitude": 113.29604949678311, "latitude": 23.222799449888328, "region_id_1": "440000", "region_id_2": "440100", "region_id_3": "440111"}, {"city": "深圳市", "name": "深圳新基乐建材科技有限公司", "address": "深圳市罗湖区笋岗街道宝安北路4006号百利玛五楼5009", "phone_number": "13480774800", "id": 110503, "preview_image": "brands_images/full/1421.jpg", "brand_id": 1421, "create_time": "NOW()", "longitude": 114.11539871318256, "latitude": 22.574360493571135, "region_id_1": "440000", "region_id_2": "440300", "region_id_3": "440303"}, {"city": "广州市", "name": "广州唯品建材有限公司", "address": "广州市天河区广利路85号首层", "phone_number": "13798094152", "id": 110504, "preview_image": "brands_images/full/1421.jpg", "brand_id": 1421, "create_time": "NOW()", "longitude": 113.3263118822849, "latitude": 23.136984816643714, "region_id_1": "440000", "region_id_2": "440100", "region_id_3": "440106"}, {"city": "广州市", "name": "广州理雄建材科技有限公司", "address": "广州市海珠区滨江西路174号远洋汇富商务中心506室", "phone_number": "13907534766", "id": 110505, "preview_image": "brands_images/full/1421.jpg", "brand_id": 1421, "create_time": "NOW()", "longitude": 113.2665329545833, "latitude": 23.114355408772905, "region_id_1": "440000", "region_id_2": "440100", "region_id_3": "440105"}, {"city": "珠海市", "name": "珠海乐松电器有限公司", "address": "珠海市香洲海燕路9号第一层B铺", "phone_number": "13924700036", "id": 110506, "preview_image": "brands_images/full/1421.jpg", "brand_id": 1421, "create_time": "NOW()", "longitude": 113.58688339291882, "latitude": 22.28003667236273, "region_id_1": "440000", "region_id_2": "440400", "region_id_3": "440402"}, {"city": "潮州市", "name": "潮州市银华对外商业公司", "address": "潮州市潮枫路邦尼花园首层松下电器生活馆", "phone_number": "13076457645", "id": 110507, "preview_image": "brands_images/full/1421.jpg", "brand_id": 1421, "create_time": "NOW()", "longitude": 116.63369228318474, "latitude": 23.668468208395176, "region_id_1": "440000", "region_id_2": "445100", "region_id_3": "445102"}, {"city": "广州市", "name": "广州金松电器营销有限公司", "address": "广州市越秀财富广场", "phone_number": "18620261261", "id": 110508, "preview_image": "brands_images/full/1421.jpg", "brand_id": 1421, "create_time": "NOW()", "longitude": 113.33537834864151, "latitude": 23.142006660505896, "region_id_1": "440000", "region_id_2": "440100", "region_id_3": "440106"}, {"city": "广州市", "name": "广州市协鑫自动门控材料有限公司", "address": "广州市南岸路20号广东装饰材料市场318铺", "phone_number": "13902258846、020-81931210、020-81375956", "id": 110509, "preview_image": "brands_images/full/1421.jpg", "brand_id": 1421, "create_time": "NOW()", "longitude": 113.23742589956021, "latitude": 23.13404902235143, "region_id_1": "440000", "region_id_2": "440100", "region_id_3": "440103"}, {"city": "深圳市", "name": "深圳晶辉光电商行", "address": "深圳市福田区 八卦路78号又一居灯饰城1019", "phone_number": "13714334833", "id": 110510, "preview_image": "brands_images/full/1421.jpg", "brand_id": 1421, "create_time": "NOW()", "longitude": 114.10708540682627, "latitude": 22.571231635846974, "region_id_1": "440000", "region_id_2": "440300", "region_id_3": "440304"}, {"city": "深圳市", "name": "鑫富迪灯饰", "address": "深圳市福田区福强路乐安居204--205", "phone_number": "13613090333", "id": 110511, "preview_image": "brands_images/full/1421.jpg", "brand_id": 1421, "create_time": "NOW()", "longitude": 114.04272301270227, "latitude": 22.529427010670112, "region_id_1": "440000", "region_id_2": "440300", "region_id_3": "440304"}, {"city": "深圳市", "name": "丽晶灯饰", "address": "深圳市沙井镇新沙路雨宝安大道交界华美居3楼003店", "phone_number": "13724371571", "id": 110512, "preview_image": "brands_images/full/1421.jpg", "brand_id": 1421, "create_time": "NOW()", "longitude": 113.83041111057507, "latitude": 22.741155987162387, "region_id_1": "440000", "region_id_2": "440300", "region_id_3": "440306"}, {"city": "深圳市", "name": "永丰灯饰", "address": "深圳市龙华新区梅龙路国安局四楼", "phone_number": "13826544895", "id": 110513, "preview_image": "brands_images/full/1421.jpg", "brand_id": 1421, "create_time": "NOW()", "longitude": 114.04581138704454, "latitude": 22.658893093915918, "region_id_1": "440000", "region_id_2": "440300", "region_id_3": "440306"}, {"city": "深圳市", "name": "华威灯饰", "address": "深圳宝安82区新湖路华美居A3-009", "phone_number": "13808852074", "id": 110514, "preview_image": "brands_images/full/1421.jpg", "brand_id": 1421, "create_time": "NOW()", "longitude": 113.88551070199539, "latitude": 22.569582893190283, "region_id_1": "440000", "region_id_2": "440300", "region_id_3": "440306"}, {"city": "佛山市", "name": "佛山千灯松下销售店", "address": "南海区丹桂路华南（国际）电光源灯饰城", "phone_number": "13542522220", "id": 110515, "preview_image": "brands_images/full/1421.jpg", "brand_id": 1421, "create_time": "NOW()", "longitude": 113.04138132585018, "latitude": 23.07826538746965, "region_id_1": "440000", "region_id_2": "440600", "region_id_3": "440605"}, {"city": "佛山市", "name": "佛山市禅城区中贺电器经营部", "address": "禅城区城北华南五金城C区8路13号", "phone_number": "13929936139", "id": 110516, "preview_image": "brands_images/full/1421.jpg", "brand_id": 1421, "create_time": "NOW()", "longitude": 113.11107428894324, "latitude": 23.065763351134084, "region_id_1": "440000", "region_id_2": "440600", "region_id_3": "440604"}, {"city": "四会市", "name": "四会晶辉灯饰松下旗舰店", "address": "四会市城中区仓丰大道信华装饰城B区41-50卡", "phone_number": "13929846804", "id": 110517, "preview_image": "brands_images/full/1421.jpg", "brand_id": 1421, "create_time": "NOW()", "longitude": 112.69178929399403, "latitude": 23.36095158485664, "region_id_1": "440000", "region_id_2": "441200", "region_id_3": "441284"}, {"city": "中山市", "name": "中山光立方松下旗舰店", "address": "中山古镇灯饰城", "phone_number": "13702582658", "id": 110518, "preview_image": "brands_images/full/1421.jpg", "brand_id": 1421, "create_time": "NOW()", "longitude": 113.19205383572448, "latitude": 22.667467253576422, "region_id_1": 0, "region_id_2": 0, "region_id_3": 0}, {"city": "广州市", "name": "广州市百通光电器材有限公司", "address": "广州市白云区黄石西路268号飞马装饰材料总汇灯饰布艺区1楼", "phone_number": "13710570132", "id": 110519, "preview_image": "brands_images/full/1421.jpg", "brand_id": 1421, "create_time": "NOW()", "longitude": 113.25984446101258, "latitude": 23.21133668029741, "region_id_1": "440000", "region_id_2": "440100", "region_id_3": "440111"}, {"city": "梅州市", "name": "梅州市金辉灯饰专卖店", "address": "梅州市梅江区梅江四路南辉世纪城一层", "phone_number": "13823835301", "id": 110520, "preview_image": "brands_images/full/1421.jpg", "brand_id": 1421, "create_time": "NOW()", "longitude": 116.11595202018196, "latitude": 24.290750354900847, "region_id_1": 0, "region_id_2": 0, "region_id_3": 0}, {"city": "深圳市", "name": "富丽城灯饰", "address": "深圳市盐田区东海与永安路交汇处东海家居广场2楼219号", "phone_number": "13530837991", "id": 110521, "preview_image": "brands_images/full/1421.jpg", "brand_id": 1421, "create_time": "NOW()", "longitude": 114.25398700731678, "latitude": 22.597520319201134, "region_id_1": "440000", "region_id_2": "440300", "region_id_3": "440308"}, {"city": "深圳市", "name": "深圳市百丽辉照明电气工贸发展有限公司", "address": "深圳市宝安区福永镇大洋路凤城花园h栋一楼", "phone_number": "13902935270", "id": 110522, "preview_image": "brands_images/full/1421.jpg", "brand_id": 1421, "create_time": "NOW()", "longitude": 113.83037262267553, "latitude": 22.70126306805614, "region_id_1": "440000", "region_id_2": "440300", "region_id_3": "440306"}, {"city": "廉江市", "name": "廉江市鼎和实业有限公司", "address": "廉江市中环四路19号", "phone_number": "13376717777", "id": 110523, "preview_image": "brands_images/full/1421.jpg", "brand_id": 1421, "create_time": "NOW()", "longitude": 110.28338084305676, "latitude": 21.622729461498622, "region_id_1": "440000", "region_id_2": "440800", "region_id_3": "440881"}, {"city": "深圳市", "name": "美斯灯饰", "address": "深圳市龙华新区五和大道 乐康家具城", "phone_number": "18665866874", "id": 110524, "preview_image": "brands_images/full/1421.jpg", "brand_id": 1421, "create_time": "NOW()", "longitude": 114.05133955106636, "latitude": 22.70233284295199, "region_id_1": "440000", "region_id_2": "440300", "region_id_3": "440306"}, {"city": "深圳市", "name": "深圳市四象家居装饰材料有限公司", "address": "广东省深圳市福田区金地工业区102栋213室", "phone_number": "0755-88308025", "id": 110525, "preview_image": "brands_images/full/1421.jpg", "brand_id": 1421, "create_time": "NOW()", "longitude": 114.04501198676809, "latitude": 22.52829112309635, "region_id_1": "440000", "region_id_2": "440300", "region_id_3": "440304"}, {"city": "东莞市", "name": "东莞市东城宝华灯饰经营部", "address": "东莞市东城区红荔路47号", "phone_number": "13825087898", "id": 110526, "preview_image": "brands_images/full/1421.jpg", "brand_id": 1421, "create_time": "NOW()", "longitude": 113.88859379879281, "latitude": 22.994027901454654, "region_id_1": 0, "region_id_2": 0, "region_id_3": 0}, {"city": "湛江市", "name": "湛江市恒和装饰材料有限公司", "address": "湛江开发区乐华装饰材料市场夹板场8-21号", "phone_number": "0759-2668080", "id": 110527, "preview_image": "brands_images/full/1421.jpg", "brand_id": 1421, "create_time": "NOW()", "longitude": 110.4196623649981, "latitude": 21.222321287505345, "region_id_1": "440000", "region_id_2": "440800", "region_id_3": "440803"}, {"city": "东莞市", "name": "东莞市大家门窗有限公司", "address": "东莞市东城育华路万佳花园D座1-2铺", "phone_number": "0769-22010246", "id": 110528, "preview_image": "brands_images/full/1421.jpg", "brand_id": 1421, "create_time": "NOW()", "longitude": 113.78095849396162, "latitude": 23.062413667793912, "region_id_1": 0, "region_id_2": 0, "region_id_3": 0}, {"city": "清远市", "name": "清远市清城区汇辉自动门装饰材料商行", "address": "清远市桥北一路汇博美居广场C馆旁", "phone_number": "13926689465", "id": 110529, "preview_image": "brands_images/full/1421.jpg", "brand_id": 1421, "create_time": "NOW()", "longitude": 113.04412575230774, "latitude": 23.721023840972595, "region_id_1": "440000", "region_id_2": "441800", "region_id_3": "441802"}, {"city": "湛江市", "name": "湛江市广通影视设备有限公司", "address": "湛江市开发区乐山东路35号银隆广场A801（皇冠假日酒店旁）", "phone_number": "0759-2132956", "id": 110530, "preview_image": "brands_images/full/1421.jpg", "brand_id": 1421, "create_time": "NOW()", "longitude": 110.40070950393093, "latitude": 21.238319963295908, "region_id_1": "440000", "region_id_2": "440800", "region_id_3": "440803"}, {"city": "湛江市", "name": "廉江盈宏专卖店", "address": "广东省廉江市罗州大道西31号", "phone_number": "0759-6681888", "id": 110531, "preview_image": "brands_images/full/1421.jpg", "brand_id": 1421, "create_time": "NOW()", "longitude": 110.28453354509355, "latitude": 21.626896505581666, "region_id_1": "440000", "region_id_2": "440800", "region_id_3": "440881"}, {"city": "湛江市", "name": "湛江惠松海田专卖店", "address": "广东省湛江市海田建筑材料综合批发市场", "phone_number": "0759-3352078", "id": 110532, "preview_image": "brands_images/full/1421.jpg", "brand_id": 1421, "create_time": "NOW()", "longitude": 110.37312026182923, "latitude": 21.270804824421592, "region_id_1": "440000", "region_id_2": "440800", "region_id_3": "440802"}, {"city": "潮州市", "name": "潮州群升邦妮花园专卖店", "address": "潮州潮枫路邦妮花园A幢首层", "phone_number": "0754-2279988", "id": 110533, "preview_image": "brands_images/full/1421.jpg", "brand_id": 1421, "create_time": "NOW()", "longitude": 116.63321379446687, "latitude": 23.669482749323134, "region_id_1": "440000", "region_id_2": "445100", "region_id_3": "445102"}, {"city": "潮安市", "name": "汕头潮安永隆庵埠文里专卖店", "address": "广东省潮州市潮安县庵埠文里东畔永隆灯具家电商场", "phone_number": "0768-6668997", "id": 110534, "preview_image": "brands_images/full/1421.jpg", "brand_id": 1421, "create_time": "NOW()", "longitude": 116.69374997844197, "latitude": 23.460946765267455, "region_id_1": 0, "region_id_2": 0, "region_id_3": 0}, {"city": "云浮市", "name": "云浮俊华灯饰专卖店", "address": "广东省云浮市新兴县新城镇大园路", "phone_number": "13902373277", "id": 110535, "preview_image": "brands_images/full/1421.jpg", "brand_id": 1421, "create_time": "NOW()", "longitude": 112.23372758797304, "latitude": 22.707052370757452, "region_id_1": "440000", "region_id_2": "445300", "region_id_3": "445321"}, {"city": "韶关市", "name": "韶关市新津灯饰", "address": "广东省韶关市工业大道", "phone_number": "0751-8778889", "id": 110536, "preview_image": "brands_images/full/1421.jpg", "brand_id": 1421, "create_time": "NOW()", "longitude": 113.52260768976801, "latitude": 24.6765520469925, "region_id_1": "440000", "region_id_2": "440200", "region_id_3": "440205"}, {"city": "佛山市", "name": "佛山雅照华南灯饰专卖店", "address": "广东省佛山市南海区罗村北湖三路华南(国际)电光源灯饰城A区2路21号", "phone_number": 0, "id": 110537, "preview_image": "brands_images/full/1421.jpg", "brand_id": 1421, "create_time": "NOW()", "longitude": 113.05457936945612, "latitude": 23.059341407249423, "region_id_1": "440000", "region_id_2": "440600", "region_id_3": "440605"}, {"city": "阳江市", "name": "阳江市祥晖西平路专卖店", "address": "广东省阳江市西平北路新平花园C9号", "phone_number": "0662-2860668", "id": 110538, "preview_image": "brands_images/full/1421.jpg", "brand_id": 1421, "create_time": "NOW()", "longitude": 111.9714318176421, "latitude": 21.876533610766735, "region_id_1": "440000", "region_id_2": "441700", "region_id_3": "441702"}, {"city": "汕头市", "name": "汕头翁开民灯饰专卖店", "address": "广东省汕头市峡山峡华路611号-617号二街1-16号", "phone_number": "0754-87760006", "id": 110539, "preview_image": "brands_images/full/1421.jpg", "brand_id": 1421, "create_time": "NOW()", "longitude": 116.72865028834109, "latitude": 23.383908453269196, "region_id_1": "440000", "region_id_2": "440500", "region_id_3": "440507"}, {"city": "汕头市", "name": "汕头群升国穗专卖店B店", "address": "广东省汕头市中山东路国瑞建材城1号馆三楼C27-39", "phone_number": "0754-88466766", "id": 110540, "preview_image": "brands_images/full/1421.jpg", "brand_id": 1421, "create_time": "NOW()", "longitude": 116.75050129138936, "latitude": 23.358402848311588, "region_id_1": "440000", "region_id_2": "440500", "region_id_3": "440507"}, {"city": "惠州市", "name": "惠州旭瑞灯饰专卖店", "address": "广东省惠州市演达一路三环装饰城3楼3A11", "phone_number": "0752-7821156", "id": 110541, "preview_image": "brands_images/full/1421.jpg", "brand_id": 1421, "create_time": "NOW()", "longitude": 114.41987342339804, "latitude": 23.06912145834824, "region_id_1": "440000", "region_id_2": "441300", "region_id_3": "441302"}, {"city": "广州市", "name": "广州天彩灯饰马会专卖店", "address": "广东省广州市天河区黄埔大道688号2层2132室", "phone_number": "020-87018010", "id": 110542, "preview_image": "brands_images/full/1421.jpg", "brand_id": 1421, "create_time": "NOW()", "longitude": 113.35415126833543, "latitude": 23.125087202948073, "region_id_1": "440000", "region_id_2": "440100", "region_id_3": "440106"}, {"city": "广州市", "name": "广州彩宇维家思专卖店", "address": "广东省广州市黄埔大道维家思广场452", "phone_number": "020-22385005 / 15302246924", "id": 110543, "preview_image": "brands_images/full/1421.jpg", "brand_id": 1421, "create_time": "NOW()", "longitude": 113.33415624441935, "latitude": 23.131245100232924, "region_id_1": "440000", "region_id_2": "440100", "region_id_3": "440106"}, {"city": "河源市", "name": "河源市新绿源装饰新风路店", "address": "河源市新风路北20号万隆公园一号29号门店", "phone_number": "13829316979", "id": 110544, "preview_image": "brands_images/full/1421.jpg", "brand_id": 1421, "create_time": "NOW()", "longitude": 114.70741755138434, "latitude": 23.772367965354665, "region_id_1": "440000", "region_id_2": "441600", "region_id_3": "441602"}, {"city": "深圳市", "name": "深圳四象家居装饰材料有限公司", "address": "广东省深圳市罗湖区梨园路3栋3号笋岗店乐安居1栋21号", "phone_number": "0755-82471768", "id": 110545, "preview_image": "brands_images/full/1421.jpg", "brand_id": 1421, "create_time": "NOW()", "longitude": 114.11302326283852, "latitude": 22.571082083997446, "region_id_1": "440000", "region_id_2": "440300", "region_id_3": "440303"}, {"city": "厦门市", "name": "厦门鑫博强建材有限公司", "address": "厦门市湖里区江头建材市场西四区201-207号", "phone_number": "13395992289", "id": 110546, "preview_image": "brands_images/full/1421.jpg", "brand_id": 1421, "create_time": "NOW()", "longitude": 118.14273784519486, "latitude": 24.505416282641946, "region_id_1": "350000", "region_id_2": "350200", "region_id_3": "350206"}, {"city": "莆田市", "name": "莆田市秀屿区笏石建军五金批发部", "address": "福建省莆田市秀屿区笏石镇北埔村下店路九层楼第3、4、5坎店面", "phone_number": "0594-5823666", "id": 110547, "preview_image": "brands_images/full/1421.jpg", "brand_id": 1421, "create_time": "NOW()", "longitude": 119.11144751829877, "latitude": 25.319743026787084, "region_id_1": "350000", "region_id_2": "350300", "region_id_3": "350305"}, {"city": "莆田市", "name": "莆田市城厢区鑫博强自动门五金店", "address": "福建省莆田市城厢区南门壶山西路381号", "phone_number": "13607530198（专卖店）", "id": 110548, "preview_image": "brands_images/full/1421.jpg", "brand_id": 1421, "create_time": "NOW()", "longitude": 119.0135770809173, "latitude": 25.429942526225606, "region_id_1": "350000", "region_id_2": "350300", "region_id_3": "350302"}, {"city": "福州市", "name": "福州元泉建材有限公司", "address": "福州市连江北路44号（9-13）号店面", "phone_number": "13615053683（专卖店）", "id": 110549, "preview_image": "brands_images/full/1421.jpg", "brand_id": 1421, "create_time": "NOW()", "longitude": 119.33702765780407, "latitude": 26.10269771704341, "region_id_1": "350000", "region_id_2": "350100", "region_id_3": "350111"}, {"city": "福州市", "name": "左海家居建材城", "address": "左海家居建材城", "phone_number": "18950267916", "id": 110550, "preview_image": "brands_images/full/1421.jpg", "brand_id": 1421, "create_time": "NOW()", "longitude": 117.32429522174634, "latitude": 34.28517168074537, "region_id_1": "320000", "region_id_2": "320300", "region_id_3": "320305"}, {"city": "三明市", "name": "三明灵动空间", "address": "三明红星美凯龙一楼1106号", "phone_number": "13225055988", "id": 110551, "preview_image": "brands_images/full/1421.jpg", "brand_id": 1421, "create_time": "NOW()", "longitude": 117.64219393404412, "latitude": 26.270835279362192, "region_id_1": "350000", "region_id_2": "350400", "region_id_3": "350402"}, {"city": "龙岩市", "name": "万佳灯具家居广场", "address": "龙洲商贸城7-8商场二楼", "phone_number": "13959497989", "id": 110552, "preview_image": "brands_images/full/1421.jpg", "brand_id": 1421, "create_time": "NOW()", "longitude": 116.1201875348013, "latitude": 25.086376818396893, "region_id_1": "350000", "region_id_2": "350800", "region_id_3": "350824"}, {"city": "厦门市", "name": "厦门瑞鑫和装饰材料有限公司", "address": "厦门市湖里区钟宅路67号海鸿楼3410室", "phone_number": "13850088779", "id": 110553, "preview_image": "brands_images/full/1421.jpg", "brand_id": 1421, "create_time": "NOW()", "longitude": 118.17142775049518, "latitude": 24.537898203674747, "region_id_1": "350000", "region_id_2": "350200", "region_id_3": "350206"}, {"city": "莆田市", "name": "福建莆田建军五金批发部", "address": "莆田市秀屿区笏石镇北埔村下店路九层楼第3、4、5坎店面", "phone_number": "13348326888", "id": 110554, "preview_image": "brands_images/full/1421.jpg", "brand_id": 1421, "create_time": "NOW()", "longitude": 119.11144751829877, "latitude": 25.319743026787084, "region_id_1": "350000", "region_id_2": "350300", "region_id_3": "350305"}, {"city": "福州市", "name": "正扬灯饰城", "address": "福清渔溪", "phone_number": "13799721808", "id": 110555, "preview_image": "brands_images/full/1421.jpg", "brand_id": 1421, "create_time": "NOW()", "longitude": 119.37754701318562, "latitude": 25.638120577122514, "region_id_1": "350000", "region_id_2": "350100", "region_id_3": "350181"}, {"city": "福清市", "name": "福清市中佳电器有限公司", "address": "福清市清昌大道红星美凯龙一层A8002松下展厅", "phone_number": "0591-85200888", "id": 110556, "preview_image": "brands_images/full/1421.jpg", "brand_id": 1421, "create_time": "NOW()", "longitude": 119.33276245832883, "latitude": 25.71214636775315, "region_id_1": "350000", "region_id_2": "350100", "region_id_3": "350181"}, {"city": "福清市", "name": "福清市中佳电器有限公司", "address": "福清市清荣大道广益建材市场5号楼二层", "phone_number": "0591-85200888", "id": 110557, "preview_image": "brands_images/full/1421.jpg", "brand_id": 1421, "create_time": "NOW()", "longitude": 119.35568366662913, "latitude": 25.728485040801896, "region_id_1": "350000", "region_id_2": "350100", "region_id_3": "350181"}, {"city": "邵武市", "name": "邵武东祥灯饰文化广场店", "address": "福建省邵武市熙春路文化广场店面353号一二层店面", "phone_number": "0599-6129333", "id": 110558, "preview_image": "brands_images/full/1421.jpg", "brand_id": 1421, "create_time": "NOW()", "longitude": 117.50075088069507, "latitude": 27.33963135216424, "region_id_1": "350000", "region_id_2": "350700", "region_id_3": "350781"}, {"city": "龙岩市", "name": "龙岩港鹏灯饰", "address": "福建省龙岩市罗桥港鹏大厦", "phone_number": "0597-2295715", "id": 110559, "preview_image": "brands_images/full/1421.jpg", "brand_id": 1421, "create_time": "NOW()", "longitude": 117.01799673877318, "latitude": 25.07868543351518, "region_id_1": "350000", "region_id_2": "350800", "region_id_3": "350802"}, {"city": "莆田市", "name": "福建莆田皇朝灯饰批发城", "address": "福建省莆田市荔城区西社小区13号楼", "phone_number": "0594--2216666", "id": 110560, "preview_image": "brands_images/full/1421.jpg", "brand_id": 1421, "create_time": "NOW()", "longitude": 119.02562556134552, "latitude": 25.434279867609746, "region_id_1": "350000", "region_id_2": "350300", "region_id_3": "350304"}, {"city": "莆田市", "name": "莆田市星宇凤凰路专卖店", "address": "福建省莆田市城厢区凤办月塘居委会凤凰路392号", "phone_number": "13808568886", "id": 110561, "preview_image": "brands_images/full/1421.jpg", "brand_id": 1421, "create_time": "NOW()", "longitude": 119.00424261086103, "latitude": 25.434220568043475, "region_id_1": "350000", "region_id_2": "350300", "region_id_3": "350302"}, {"city": "漳州市", "name": "漳州日新专卖店", "address": "福建省漳州南昌路东段灯具市场B栋9-17号", "phone_number": "0596-2962005", "id": 110562, "preview_image": "brands_images/full/1421.jpg", "brand_id": 1421, "create_time": "NOW()", "longitude": 117.68414282507412, "latitude": 24.515277331114188, "region_id_1": "350000", "region_id_2": "350600", "region_id_3": "350603"}, {"city": "厦门市", "name": "厦门恒通专卖店", "address": "厦门凤屿路海峡灯饰城恒通照明", "phone_number": "0592-5800745", "id": 110563, "preview_image": "brands_images/full/1421.jpg", "brand_id": 1421, "create_time": "NOW()", "longitude": 118.12337816132506, "latitude": 24.478213876062515, "region_id_1": "350000", "region_id_2": "350200", "region_id_3": "350203"}, {"city": "厦门市", "name": "厦门豪胜吉家专卖店", "address": "福建省厦门市吉家家世界B2区56-57-58号", "phone_number": "0592-5778956", "id": 110564, "preview_image": "brands_images/full/1421.jpg", "brand_id": 1421, "create_time": "NOW()", "longitude": 118.1589881280853, "latitude": 24.515601857991673, "region_id_1": "350000", "region_id_2": "350200", "region_id_3": "350206"}, {"city": "厦门市", "name": "厦门南靖王誉专卖店", "address": "厦门市南靖县紫金新村大门边", "phone_number": "13606999692", "id": 110565, "preview_image": "brands_images/full/1421.jpg", "brand_id": 1421, "create_time": "NOW()", "longitude": 118.10388604566381, "latitude": 24.489230612469232, "region_id_1": "350000", "region_id_2": "350200", "region_id_3": "350203"}, {"city": "厦门市", "name": "厦门新汇友喜盈门专卖店", "address": "厦门市集美区喜盈门建材超市", "phone_number": "0592-6688930", "id": 110566, "preview_image": "brands_images/full/1421.jpg", "brand_id": 1421, "create_time": "NOW()", "longitude": 118.02941167016351, "latitude": 24.640972798478703, "region_id_1": "350000", "region_id_2": "350200", "region_id_3": "350211"}, {"city": "晋江市", "name": "晋江市青阳世纪大道店", "address": "福建省晋江市青阳世纪大道福景店面117号", "phone_number": "13905059530", "id": 110567, "preview_image": "brands_images/full/1421.jpg", "brand_id": 1421, "create_time": "NOW()", "longitude": 118.5667327134229, "latitude": 24.800112946206422, "region_id_1": "350000", "region_id_2": "350500", "region_id_3": "350582"}, {"city": "石狮市", "name": "石狮永虹子芳路专卖店", "address": "福建省石狮市子芳路狮城帝宛小区门口", "phone_number": "0595-88580273", "id": 110568, "preview_image": "brands_images/full/1421.jpg", "brand_id": 1421, "create_time": "NOW()", "longitude": 118.65120338533015, "latitude": 24.739444028719195, "region_id_1": "350000", "region_id_2": "350500", "region_id_3": "350581"}, {"city": "宁德市", "name": "屏南乐欣东环北路店", "address": "福建省宁德市屏南县东环北路488号", "phone_number": "15160170980", "id": 110569, "preview_image": "brands_images/full/1421.jpg", "brand_id": 1421, "create_time": "NOW()", "longitude": 118.99641958851295, "latitude": 26.918403623503853, "region_id_1": "350000", "region_id_2": "350900", "region_id_3": "350923"}, {"city": "宁德市", "name": "宁德市蕉城区蕉南尚品灯饰先锋大厦店", "address": "福建省宁德市蕉城区先锋大厦1号楼二层铺位", "phone_number": "15880022275", "id": 110570, "preview_image": "brands_images/full/1421.jpg", "brand_id": 1421, "create_time": "NOW()", "longitude": 119.54131525283033, "latitude": 26.659158124003373, "region_id_1": "350000", "region_id_2": "350900", "region_id_3": "350902"}, {"city": "三明市", "name": "福建省三明新潮流", "address": "福建省三明市列东江滨新村106--107号", "phone_number": "13960524970", "id": 110571, "preview_image": "brands_images/full/1421.jpg", "brand_id": 1421, "create_time": "NOW()", "longitude": 117.64094256662166, "latitude": 26.26825520061394, "region_id_1": "350000", "region_id_2": "350400", "region_id_3": "350402"}, {"city": "三明市", "name": "宁化县文达灯饰", "address": "福建省三明市宁化县中山街13号", "phone_number": "0598--6834520", "id": 110572, "preview_image": "brands_images/full/1421.jpg", "brand_id": 1421, "create_time": "NOW()", "longitude": 116.66418698666084, "latitude": 26.26671887183682, "region_id_1": "350000", "region_id_2": "350400", "region_id_3": "350424"}, {"city": "福清市", "name": "福清港头雅居灯饰", "address": "福建省福清市港头镇锦江路雅居灯饰", "phone_number": "13799390390", "id": 110573, "preview_image": "brands_images/full/1421.jpg", "brand_id": 1421, "create_time": "NOW()", "longitude": 119.48931926562393, "latitude": 25.55678613327279, "region_id_1": "350000", "region_id_2": "350100", "region_id_3": "350181"}, {"city": "福清市", "name": "福清银华灯饰", "address": "福建省福清市水南新亚乐园88号银华灯饰", "phone_number": "0591--85238086", "id": 110574, "preview_image": "brands_images/full/1421.jpg", "brand_id": 1421, "create_time": "NOW()", "longitude": 119.38896254945615, "latitude": 25.717922069234287, "region_id_1": "350000", "region_id_2": "350100", "region_id_3": "350181"}, {"city": "连江市", "name": "连江天都灯饰连江天都大厦店", "address": "福建省福州市连江天都大厦一楼", "phone_number": "0591--26210888", "id": 110575, "preview_image": "brands_images/full/1421.jpg", "brand_id": 1421, "create_time": "NOW()", "longitude": 119.56833930310485, "latitude": 26.301591411272835, "region_id_1": "350000", "region_id_2": "350100", "region_id_3": "350122"}, {"city": "福州市", "name": "福州韵坊新南方店", "address": "福建省福州市连江北路293-2号新南方家居建材旗舰中心3楼301", "phone_number": "0591-83298839", "id": 110576, "preview_image": "brands_images/full/1421.jpg", "brand_id": 1421, "create_time": "NOW()", "longitude": 119.34483004122373, "latitude": 26.092876140738525, "region_id_1": "350000", "region_id_2": "350100", "region_id_3": "350111"}, {"city": "福州市", "name": "福清时代灯饰", "address": "福清市清龙大道广益家居市场8号楼3层", "phone_number": "0591-86093608", "id": 110577, "preview_image": "brands_images/full/1421.jpg", "brand_id": 1421, "create_time": "NOW()", "longitude": 119.35621690077967, "latitude": 25.72997666929317, "region_id_1": "350000", "region_id_2": "350100", "region_id_3": "350181"}, {"city": "咸阳市", "name": "陕西华商建材有限公司咸阳", "address": "人民路亚典灯饰城二层5-7号", "phone_number": "13289258534", "id": 110578, "preview_image": "brands_images/full/1421.jpg", "brand_id": 1421, "create_time": "NOW()", "longitude": 111.66154013346478, "latitude": 40.807747537718036, "region_id_1": "150000", "region_id_2": "150100", "region_id_3": "150104"}, {"city": "宝鸡市", "name": "宝鸡美灯宜灯饰连锁", "address": "陈仓区红星美凯龙负一层美灯宜灯饰超市", "phone_number": "13891701677", "id": 110579, "preview_image": "brands_images/full/1421.jpg", "brand_id": 1421, "create_time": "NOW()", "longitude": 106.9235808947518, "latitude": 34.48254008247867, "region_id_1": "610000", "region_id_2": "610300", "region_id_3": "610303"}, {"city": "西安市", "name": "西安韦曲专卖店", "address": "西安市长安区城南建材城二楼", "phone_number": "13468888750", "id": 110580, "preview_image": "brands_images/full/1421.jpg", "brand_id": 1421, "create_time": "NOW()", "longitude": 108.85699468744927, "latitude": 34.14448831937598, "region_id_1": "130000", "region_id_2": "130100", "region_id_3": "130102"}, {"city": "汉中市", "name": "汉台区华夏嘉义配件经营部", "address": "汉中市华夏建材城", "phone_number": "13389165600", "id": 110581, "preview_image": "brands_images/full/1421.jpg", "brand_id": 1421, "create_time": "NOW()", "longitude": 107.0125531471738, "latitude": 33.095604268143994, "region_id_1": "610000", "region_id_2": "610700", "region_id_3": "610702"}, {"city": "西安市", "name": "西安锐豪门业有限公司", "address": "西安市未央区北三环大明宫建材家居批发市场玻璃型材区1排6号", "phone_number": "13201588000", "id": 110582, "preview_image": "brands_images/full/1421.jpg", "brand_id": 1421, "create_time": "NOW()", "longitude": 108.98478151453314, "latitude": 34.37356829486354, "region_id_1": "610000", "region_id_2": "610100", "region_id_3": "610112"}, {"city": "西安市", "name": "西安永正自动门有限公司", "address": "西安市未央区太华北路788号大明宫塑钢铝型材不锈钢市场D区18号", "phone_number": "029-86701955、13008451378", "id": 110583, "preview_image": "brands_images/full/1421.jpg", "brand_id": 1421, "create_time": "NOW()", "longitude": 108.97961994090336, "latitude": 34.3361209078061, "region_id_1": "610000", "region_id_2": "610100", "region_id_3": "610112"}, {"city": "榆林市", "name": "榆林西部三辰松下专卖店", "address": "榆林市西部三辰建材中心灯具城二层C座2-B06-08", "phone_number": "0912-3596583", "id": 110584, "preview_image": "brands_images/full/1421.jpg", "brand_id": 1421, "create_time": "NOW()", "longitude": 109.74589879516333, "latitude": 38.279439240070595, "region_id_1": "610000", "region_id_2": "610800", "region_id_3": "610802"}, {"city": "榆林市", "name": "榆林靖边松下专卖店", "address": "陕西省榆林市靖边县民生路松下灯具开关", "phone_number": "18392271678", "id": 110585, "preview_image": "brands_images/full/1421.jpg", "brand_id": 1421, "create_time": "NOW()", "longitude": 108.79895929706174, "latitude": 37.59632494751459, "region_id_1": "610000", "region_id_2": "610800", "region_id_3": "610824"}, {"city": "宝鸡市", "name": "宝鸡新冠森松下专卖店", "address": "宝鸡市陈仓区新冠森国际建材家居生活馆二层西二区051号", "phone_number": "0917-3435958", "id": 110586, "preview_image": "brands_images/full/1421.jpg", "brand_id": 1421, "create_time": "NOW()", "longitude": 106.9235808947518, "latitude": 34.48254008247867, "region_id_1": "610000", "region_id_2": "610300", "region_id_3": "610303"}, {"city": "西安市", "name": "西安大明宫五金机电松下专卖店", "address": "西安市北辰大道88号大明宫五金机电城前排12-13号", "phone_number": "029-62698811", "id": 110587, "preview_image": "brands_images/full/1421.jpg", "brand_id": 1421, "create_time": "NOW()", "longitude": 108.99880415337445, "latitude": 34.3391046995579, "region_id_1": "610000", "region_id_2": "610100", "region_id_3": "610112"}, {"city": "西安市", "name": "西安东大明宫松下专卖店", "address": "西安市灞桥区半引路大明宫建材市场负一层FD3-16号", "phone_number": "029-83563072", "id": 110588, "preview_image": "brands_images/full/1421.jpg", "brand_id": 1421, "create_time": "NOW()", "longitude": 109.06247725883752, "latitude": 34.23841691761237, "region_id_1": "610000", "region_id_2": "610100", "region_id_3": "610111"}, {"city": "西安市", "name": "西安红星美凯龙龙首松下专卖店", "address": "西安市未央区未央路80号盛龙广场F8192-8193", "phone_number": "029-68755545", "id": 110589, "preview_image": "brands_images/full/1421.jpg", "brand_id": 1421, "create_time": "NOW()", "longitude": 108.95198669350054, "latitude": 34.30501058926067, "region_id_1": "610000", "region_id_2": "610100", "region_id_3": "610112"}, {"city": "西安市", "name": "西安红星美凯龙太白松下专卖店", "address": "西安市太白北路1号红星美凯龙负1层1-9-010", "phone_number": "029-85562010", "id": 110590, "preview_image": "brands_images/full/1421.jpg", "brand_id": 1421, "create_time": "NOW()", "longitude": 108.93019103953903, "latitude": 34.24086400183328, "region_id_1": "610000", "region_id_2": "610100", "region_id_3": "610103"}, {"city": "西安市", "name": "西安北大明宫松下专卖店", "address": "西安市未央区北二环大明宫建材家居城1层1-C-15", "phone_number": "029-88119891", "id": 110591, "preview_image": "brands_images/full/1421.jpg", "brand_id": 1421, "create_time": "NOW()", "longitude": 108.97518779134768, "latitude": 34.31910975861748, "region_id_1": "610000", "region_id_2": "610100", "region_id_3": "610112"}, {"city": "西安市", "name": "西安粤港台松下专卖店", "address": "西安市雁塔区粤港台灯饰城1层G区23-24号", "phone_number": "029-85534881", "id": 110592, "preview_image": "brands_images/full/1421.jpg", "brand_id": 1421, "create_time": "NOW()", "longitude": 108.97231009569732, "latitude": 34.22962713885746, "region_id_1": "610000", "region_id_2": "610100", "region_id_3": "610113"}, {"city": "渭南市", "name": "渭南中天松下专卖店", "address": "陕西省渭南市高新区中天建材城4F", "phone_number": "0913-2336998", "id": 110593, "preview_image": "brands_images/full/1421.jpg", "brand_id": 1421, "create_time": "NOW()", "longitude": 109.4624195839554, "latitude": 34.50733949758758, "region_id_1": "610000", "region_id_2": "610500", "region_id_3": "610502"}, {"city": "重庆市", "name": "重庆欧赛德自动门有限公司", "address": "重庆市九龙坡区滩子口玻璃门窗市场1号附1-4号", "phone_number": "18680801896", "id": 110594, "preview_image": "brands_images/full/1421.jpg", "brand_id": 1421, "create_time": "NOW()", "longitude": 106.53461044827655, "latitude": 29.502223755364977, "region_id_1": "500000", "region_id_2": "500100", "region_id_3": "500107"}, {"city": "重庆市", "name": "重庆市宗翔装饰材料有限公司", "address": "重庆市八一路恒通云鼎14-8", "phone_number": "023-63730532", "id": 110595, "preview_image": "brands_images/full/1421.jpg", "brand_id": 1421, "create_time": "NOW()", "longitude": 106.58283074154436, "latitude": 29.560534517307172, "region_id_1": "500000", "region_id_2": "500100", "region_id_3": "500103"}, {"city": "重庆市", "name": "重庆市北部新区祺鑫家用电器经营部", "address": "重庆市渝北区金开大道居然之家一楼L1046", "phone_number": "13983960831", "id": 110596, "preview_image": "brands_images/full/1421.jpg", "brand_id": 1421, "create_time": "NOW()", "longitude": 106.56786047034416, "latitude": 29.677424043483345, "region_id_1": "500000", "region_id_2": "500100", "region_id_3": "500112"}, {"city": "重庆市", "name": "重庆铠睿灯巢专卖店", "address": "江北区金源广场灯巢国际灯饰城368-1", "phone_number": "13320248090", "id": 110597, "preview_image": "brands_images/full/1421.jpg", "brand_id": 1421, "create_time": "NOW()", "longitude": 106.53173732410387, "latitude": 29.562124520029386, "region_id_1": "330000", "region_id_2": "330200", "region_id_3": "330205"}, {"city": "重庆市", "name": "重庆商社家佳喜专卖店", "address": "重庆渝中区临江门家佳喜装饰广场三楼6-2号", "phone_number": "15823112842", "id": 110598, "preview_image": "brands_images/full/1421.jpg", "brand_id": 1421, "create_time": "NOW()", "longitude": 106.57867430979854, "latitude": 29.566775951024564, "region_id_1": "500000", "region_id_2": "500100", "region_id_3": "500103"}, {"city": "重庆市", "name": "重庆铠睿照明南坪专卖店", "address": "重庆市南岸区南坪灯饰广场四楼407号", "phone_number": "13320248090", "id": 110599, "preview_image": "brands_images/full/1421.jpg", "brand_id": 1421, "create_time": "NOW()", "longitude": 106.57088916126838, "latitude": 29.534881306034155, "region_id_1": "500000", "region_id_2": "500100", "region_id_3": "500108"}, {"city": "重庆市", "name": "重庆铠睿建玛特专卖店", "address": "重庆市江北区红旗河沟路建玛特城负一层C厅145室", "phone_number": "13320248090", "id": 110600, "preview_image": "brands_images/full/1421.jpg", "brand_id": 1421, "create_time": "NOW()", "longitude": 106.53145229176567, "latitude": 29.587896648624362, "region_id_1": "330000", "region_id_2": "330200", "region_id_3": "330205"}, {"city": "上海市", "name": "上海至泰智能科技有限公司", "address": "上海市翔殷路128号上海理工大学科技园1号楼B136-317 /上海市杨浦区军工路1205号城大建材商场二楼B328", "phone_number": "021-68568185 、13122852950", "id": 110601, "preview_image": "brands_images/full/1421.jpg", "brand_id": 1421, "create_time": "NOW()", "longitude": 121.55786257305054, "latitude": 31.315326876516, "region_id_1": "310000", "region_id_2": "310100", "region_id_3": "310110"}, {"city": "上海市", "name": "上海秉峰宜山路家饰佳", "address": "宜山路450号家饰佳灯具区4065", "phone_number": "13585907576", "id": 110602, "preview_image": "brands_images/full/1421.jpg", "brand_id": 1421, "create_time": "NOW()", "longitude": 121.4334328654711, "latitude": 31.190319510708417, "region_id_1": "310000", "region_id_2": "310100", "region_id_3": "310104"}, {"city": "上海市", "name": "上海永玑贸易有限公司", "address": "上海市共和新路4727号新陆商务大厦905室", "phone_number": "13917065164", "id": 110603, "preview_image": "brands_images/full/1421.jpg", "brand_id": 1421, "create_time": "NOW()", "longitude": 121.45371360405804, "latitude": 31.325686280383966, "region_id_1": "230000", "region_id_2": "230500", "region_id_3": "230506"}, {"city": "上海市", "name": "上海思元实业有限公司", "address": "上海市丹巴路777号", "phone_number": "021-52656838、13601964761", "id": 110604, "preview_image": "brands_images/full/1421.jpg", "brand_id": 1421, "create_time": "NOW()", "longitude": 121.3927790003962, "latitude": 31.241345867899252, "region_id_1": "310000", "region_id_2": "310100", "region_id_3": "310107"}, {"city": "上海市", "name": "上海元闰门窗有限公司", "address": "上海市浦东新区浦东南路2179弄5号楼1002室", "phone_number": "021-36031891、13917884883", "id": 110605, "preview_image": "brands_images/full/1421.jpg", "brand_id": 1421, "create_time": "NOW()", "longitude": 121.52318679909364, "latitude": 31.21224650983454, "region_id_1": "310000", "region_id_2": "310100", "region_id_3": "310115"}, {"city": "上海市", "name": "上海阳锦自动门窗有限公司", "address": "上海长宁区定西路1232号（大盈商务楼）1号楼607室", "phone_number": "021-51701028、021-51701149", "id": 110606, "preview_image": "brands_images/full/1421.jpg", "brand_id": 1421, "create_time": "NOW()", "longitude": 121.42947764786999, "latitude": 31.22066491053489, "region_id_1": "310000", "region_id_2": "310100", "region_id_3": "310105"}, {"city": "上海市", "name": "上海信亚五金有限公司", "address": "上海市青浦区北青公路与崧建路6588号交叉口", "phone_number": "021-5223 2599", "id": 110607, "preview_image": "brands_images/full/1421.jpg", "brand_id": 1421, "create_time": "NOW()", "longitude": 121.20245478921743, "latitude": 31.19143223061389, "region_id_1": "310000", "region_id_2": "310100", "region_id_3": "310118"}, {"city": "济南市", "name": "山东熙达建材有限公司", "address": "济南市天桥区李庄铝材市场", "phone_number": "13573797863", "id": 110608, "preview_image": "brands_images/full/1421.jpg", "brand_id": 1421, "create_time": "NOW()", "longitude": 117.03274487207372, "latitude": 36.72228687189054, "region_id_1": "370000", "region_id_2": "370100", "region_id_3": "370105"}, {"city": "济南市", "name": "济南亿宁智能科技有限公司", "address": "济南市天桥区李庄铝材市场", "phone_number": "13969120803", "id": 110609, "preview_image": "brands_images/full/1421.jpg", "brand_id": 1421, "create_time": "NOW()", "longitude": 117.03274487207372, "latitude": 36.72228687189054, "region_id_1": "370000", "region_id_2": "370100", "region_id_3": "370105"}, {"city": "济南市", "name": "济南澳巴赫电子科技有限公司", "address": "济南市天桥区清河北路中段黄台装饰材料批发市场北区东口", "phone_number": "13708920891", "id": 110610, "preview_image": "brands_images/full/1421.jpg", "brand_id": 1421, "create_time": "NOW()", "longitude": 117.04341206315716, "latitude": 36.71048878478985, "region_id_1": "370000", "region_id_2": "370100", "region_id_3": "370105"}, {"city": "威海市", "name": "威海瑞昌照明有限公司", "address": "威海市古寨西路158号热电集团办公大楼1层北", "phone_number": "13306310026", "id": 110611, "preview_image": "brands_images/full/1421.jpg", "brand_id": 1421, "create_time": "NOW()", "longitude": 122.09515616637304, "latitude": 37.52086087745123, "region_id_1": "370000", "region_id_2": "371000", "region_id_3": "371002"}, {"city": "淄博市", "name": "淄博先箭之明居然之家店", "address": "张店区柳泉路与政通路交汇处（火炬大厦北邻）居然之家", "phone_number": "13011647318", "id": 110612, "preview_image": "brands_images/full/1421.jpg", "brand_id": 1421, "create_time": "NOW()", "longitude": 118.06401667611274, "latitude": 36.845426268591304, "region_id_1": "370000", "region_id_2": "370300", "region_id_3": "370303"}, {"city": "烟台市", "name": "烟台市中意住建品有限公司", "address": "山东省烟台市幸福中路60号乐天家居5楼商务办公502室", "phone_number": "0535-6505899", "id": 110613, "preview_image": "brands_images/full/1421.jpg", "brand_id": 1421, "create_time": "NOW()", "longitude": 121.36275247397913, "latitude": 37.572485696905474, "region_id_1": "370000", "region_id_2": "370600", "region_id_3": "370602"}, {"city": "山东省", "name": "龙口小于空调销售有限公司", "address": "山东省龙口市港城大道492号", "phone_number": "0535-8537010", "id": 110614, "preview_image": "brands_images/full/1421.jpg", "brand_id": 1421, "create_time": "NOW()", "longitude": 120.52092804151737, "latitude": 37.64648179395105, "region_id_1": "370000", "region_id_2": "370600", "region_id_3": "370681"}, {"city": "济宁市", "name": "邹城新时代灯具城", "address": "济宁市邹城千泉家居装饰城", "phone_number": "13053728282", "id": 110615, "preview_image": "brands_images/full/1421.jpg", "brand_id": 1421, "create_time": "NOW()", "longitude": 116.98837870108898, "latitude": 35.37739982184324, "region_id_1": "370000", "region_id_2": "370800", "region_id_3": "370883"}, {"city": "淄博市", "name": "淄博先箭之明有限公司", "address": "张店区柳泉路与政通路交汇处（火炬大厦北邻）居然之家", "phone_number": "15706438550", "id": 110616, "preview_image": "brands_images/full/1421.jpg", "brand_id": 1421, "create_time": "NOW()", "longitude": 118.06401667611274, "latitude": 36.845426268591304, "region_id_1": "370000", "region_id_2": "370300", "region_id_3": "370303"}, {"city": "威海市", "name": "文登正泰电子有限公司", "address": "文登市龙山路甲78-5", "phone_number": "024-25651991", "id": 110617, "preview_image": "brands_images/full/1421.jpg", "brand_id": 1421, "create_time": "NOW()", "longitude": 122.05311499959059, "latitude": 37.20908695951878, "region_id_1": 0, "region_id_2": 0, "region_id_3": 0}, {"city": "菏泽市", "name": "菏泽市开发区松下照明专卖店", "address": "菏泽市人民南路银座家居负一层", "phone_number": "13953070659", "id": 110618, "preview_image": "brands_images/full/1421.jpg", "brand_id": 1421, "create_time": "NOW()", "longitude": 115.50053526322704, "latitude": 35.20786603899952, "region_id_1": "370000", "region_id_2": "371700", "region_id_3": "371702"}, {"city": "滕州市", "name": "滕州市永臣机电设备有限公司", "address": "山东省滕州市嘉德花园C026门头房", "phone_number": "13963280116", "id": 110619, "preview_image": "brands_images/full/1421.jpg", "brand_id": 1421, "create_time": "NOW()", "longitude": 117.1476161952944, "latitude": 35.06579087186254, "region_id_1": "370000", "region_id_2": "370400", "region_id_3": "370481"}, {"city": "青岛市", "name": "青岛海福瑞电工设备有限公司", "address": "青岛市崂山区西韩新苑63号楼瀚晨商务中心258室", "phone_number": "13906421846", "id": 110620, "preview_image": "brands_images/full/1421.jpg", "brand_id": 1421, "create_time": "NOW()", "longitude": 120.435618940626, "latitude": 36.13003536014445, "region_id_1": "370000", "region_id_2": "370200", "region_id_3": "370212"}, {"city": "青岛市", "name": "青岛石田电子有限公司", "address": "青岛市四方区重庆南路229号B区06-01", "phone_number": "15306393825", "id": 110621, "preview_image": "brands_images/full/1421.jpg", "brand_id": 1421, "create_time": "NOW()", "longitude": 120.40815458813363, "latitude": 36.14327955071487, "region_id_1": "370000", "region_id_2": "370200", "region_id_3": "370203"}, {"city": "青岛市", "name": "青岛四通电工设备工程有限公司", "address": "青岛市四方区重庆南路146号-5", "phone_number": "13953236144", "id": 110622, "preview_image": "brands_images/full/1421.jpg", "brand_id": 1421, "create_time": "NOW()", "longitude": 120.39010344163957, "latitude": 36.12453606031883, "region_id_1": "370000", "region_id_2": "370200", "region_id_3": "370203"}, {"city": "济南市", "name": "济南欣视野门控工程有限公司", "address": "济南市天桥区清河北路中段黄台装饰材料批发市场北区22号", "phone_number": "0531-88610847、13335127158", "id": 110623, "preview_image": "brands_images/full/1421.jpg", "brand_id": 1421, "create_time": "NOW()", "longitude": 117.04341206315716, "latitude": 36.71048878478985, "region_id_1": "370000", "region_id_2": "370100", "region_id_3": "370105"}, {"city": "威海市", "name": "威海博朗文登市中和专卖店", "address": "山东省文登市香山路25-38号", "phone_number": "0631-8468366", "id": 110624, "preview_image": "brands_images/full/1421.jpg", "brand_id": 1421, "create_time": "NOW()", "longitude": 122.06974640476851, "latitude": 37.20087440109074, "region_id_1": 0, "region_id_2": 0, "region_id_3": 0}, {"city": "威海市", "name": "威海博朗乐天家居专卖店店(耐思照明）", "address": "山东省威海市青岛南路乐天家居3楼", "phone_number": "0631-5302566", "id": 110625, "preview_image": "brands_images/full/1421.jpg", "brand_id": 1421, "create_time": "NOW()", "longitude": 122.156790434532, "latitude": 37.433108400053634, "region_id_1": "370000", "region_id_2": "371000", "region_id_3": "371002"}, {"city": "威海市", "name": "威海乳山市皇冠灯饰专卖店", "address": "山东省乳山市新华街283-5号商贸城建材城", "phone_number": "0631-3600666", "id": 110626, "preview_image": "brands_images/full/1421.jpg", "brand_id": 1421, "create_time": "NOW()", "longitude": 121.55697246727325, "latitude": 36.91681808431877, "region_id_1": "370000", "region_id_2": "371000", "region_id_3": "371083"}, {"city": "威海市", "name": "威海文登市东方灯具专卖店", "address": "山东省文登市凤山路峰山路57-1号", "phone_number": "0631-8469329", "id": 110627, "preview_image": "brands_images/full/1421.jpg", "brand_id": 1421, "create_time": "NOW()", "longitude": 122.05909908150804, "latitude": 37.20406189657425, "region_id_1": 0, "region_id_2": 0, "region_id_3": 0}, {"city": "威海市", "name": "威海荣成市高峰灯饰博隆专卖店", "address": "山东省荣成市博隆装饰会展中心A馆2楼", "phone_number": "0631-3614666", "id": 110628, "preview_image": "brands_images/full/1421.jpg", "brand_id": 1421, "create_time": "NOW()", "longitude": 122.40692581531471, "latitude": 37.12868609187592, "region_id_1": "370000", "region_id_2": "371000", "region_id_3": "371082"}, {"city": "威海市", "name": "威海奥士照明亿特隆专卖店", "address": "威海市新威路128号亿特隆装饰建材城1002室", "phone_number": "0631-5279980", "id": 110629, "preview_image": "brands_images/full/1421.jpg", "brand_id": 1421, "create_time": "NOW()", "longitude": 122.13072623131258, "latitude": 37.503351024838516, "region_id_1": "370000", "region_id_2": "371000", "region_id_3": "371002"}, {"city": "烟台市", "name": "烟台海阳市恒基灯饰海政路专卖店", "address": "山东省海阳市海政路", "phone_number": "0535-3237739", "id": 110630, "preview_image": "brands_images/full/1421.jpg", "brand_id": 1421, "create_time": "NOW()", "longitude": 121.17041713283136, "latitude": 36.783605320858086, "region_id_1": "370000", "region_id_2": "370600", "region_id_3": "370687"}, {"city": "烟台市", "name": "烟台莱阳市宜家灯饰盛隆专卖店", "address": "山东省莱阳市龙门西路盛隆装饰材料城", "phone_number": "0535-3365353", "id": 110631, "preview_image": "brands_images/full/1421.jpg", "brand_id": 1421, "create_time": "NOW()", "longitude": 120.6701276054662, "latitude": 36.963753199709316, "region_id_1": "370000", "region_id_2": "370600", "region_id_3": "370682"}, {"city": "烟台市", "name": "烟台莱州市区鸿利灯饰云峰家世界专卖店", "address": "山东省莱州市云峰北路云峰家世界A区52-56号", "phone_number": "0535-2267808", "id": 110632, "preview_image": "brands_images/full/1421.jpg", "brand_id": 1421, "create_time": "NOW()", "longitude": 119.96818488249164, "latitude": 37.19241374995794, "region_id_1": "370000", "region_id_2": "370600", "region_id_3": "370683"}, {"city": "烟台市", "name": "烟台龙口市意佳灯饰和平路专卖店", "address": "山东省龙口市开发区和平路625号", "phone_number": "0535-8902575", "id": 110633, "preview_image": "brands_images/full/1421.jpg", "brand_id": 1421, "create_time": "NOW()", "longitude": 120.34232759276826, "latitude": 37.651214347240774, "region_id_1": "370000", "region_id_2": "370600", "region_id_3": "370681"}, {"city": "烟台市", "name": "烟台龙口市黄城嘉诚灯饰胶东市场专卖店", "address": "山东省龙口市通海路胶东装饰材料市场2-22室", "phone_number": "0535-8955491", "id": 110634, "preview_image": "brands_images/full/1421.jpg", "brand_id": 1421, "create_time": "NOW()", "longitude": 120.51333628199143, "latitude": 37.6368568802682, "region_id_1": "370000", "region_id_2": "370600", "region_id_3": "370681"}, {"city": "烟台市", "name": "烟台蓬莱市新光源照明专卖店", "address": "山东省蓬莱市钟楼南路208号兴源家居广场", "phone_number": "0535-5642504", "id": 110635, "preview_image": "brands_images/full/1421.jpg", "brand_id": 1421, "create_time": "NOW()", "longitude": 120.76290206262028, "latitude": 37.810933162678225, "region_id_1": "370000", "region_id_2": "370600", "region_id_3": "370684"}, {"city": "烟台市", "name": "烟台招远市春宇灯饰专卖店", "address": "山东省招远市河西路彩虹桥南", "phone_number": "0535-8266613", "id": 110636, "preview_image": "brands_images/full/1421.jpg", "brand_id": 1421, "create_time": "NOW()", "longitude": 120.41621155223571, "latitude": 37.3673058584149, "region_id_1": "370000", "region_id_2": "370600", "region_id_3": "370685"}, {"city": "烟台市", "name": "烟台牟平区耀华灯饰通海路专卖店", "address": "烟台市牟平区通海路建设局对面", "phone_number": "0535-4318959", "id": 110637, "preview_image": "brands_images/full/1421.jpg", "brand_id": 1421, "create_time": "NOW()", "longitude": 121.6044976077364, "latitude": 37.408367097289315, "region_id_1": "370000", "region_id_2": "370600", "region_id_3": "370612"}, {"city": "烟台市", "name": "烟台莱山区科百达照明永盛市场专卖店", "address": "烟台市莱山区轸大路3号楼5-6号永盛建材城1层", "phone_number": "0535-6883389", "id": 110638, "preview_image": "brands_images/full/1421.jpg", "brand_id": 1421, "create_time": "NOW()", "longitude": 121.4431119079173, "latitude": 37.44894973142301, "region_id_1": "370000", "region_id_2": "370600", "region_id_3": "370613"}, {"city": "烟台市", "name": "烟台松源照明港务局市场专卖店", "address": "烟台市芝罘区海港路港务局灯具市场1楼12号", "phone_number": "0535-2126606", "id": 110639, "preview_image": "brands_images/full/1421.jpg", "brand_id": 1421, "create_time": "NOW()", "longitude": 121.396234816727, "latitude": 37.55034708113216, "region_id_1": "370000", "region_id_2": "370600", "region_id_3": "370602"}, {"city": "烟台市", "name": "烟台松源照明雪域专卖店", "address": "烟台市芝罘区南大街150号1-1-3", "phone_number": "0535-2126606", "id": 110640, "preview_image": "brands_images/full/1421.jpg", "brand_id": 1421, "create_time": "NOW()", "longitude": 121.37059127111353, "latitude": 37.549711544156665, "region_id_1": "370000", "region_id_2": "370600", "region_id_3": "370602"}, {"city": "烟台市", "name": "烟台松源照明黄务乐天家居专卖店", "address": "烟台市莱山区黄务立交桥乐天家居广场3楼", "phone_number": "0535-2126606", "id": 110641, "preview_image": "brands_images/full/1421.jpg", "brand_id": 1421, "create_time": "NOW()", "longitude": 121.36709711510355, "latitude": 37.47134647302795, "region_id_1": "370000", "region_id_2": "370600", "region_id_3": "370602"}, {"city": "烟台市", "name": "烟台松源照明幸福乐天家居专卖店", "address": "烟台市芝罘区幸福中路乐天装饰材料家居广场", "phone_number": "0535-2126606", "id": 110642, "preview_image": "brands_images/full/1421.jpg", "brand_id": 1421, "create_time": "NOW()", "longitude": 121.34852166271723, "latitude": 37.57339850453621, "region_id_1": "370000", "region_id_2": "370600", "region_id_3": "370602"}, {"city": "烟台市", "name": "烟台松源照明鸿泰市场专卖店", "address": "烟台市芝罘区建设路16号鸿泰市场B45", "phone_number": "0535-2126606", "id": 110643, "preview_image": "brands_images/full/1421.jpg", "brand_id": 1421, "create_time": "NOW()", "longitude": 121.37710023024552, "latitude": 37.556537194867836, "region_id_1": "370000", "region_id_2": "370600", "region_id_3": "370602"}, {"city": "青岛市", "name": "青岛圣高照明飞拉利店", "address": "青岛市黑龙江路299号海尔工业园南邻飞拉利建材广场B3楼-06号", "phone_number": "0532-86072186", "id": 110644, "preview_image": "brands_images/full/1421.jpg", "brand_id": 1421, "create_time": "NOW()", "longitude": 120.418687363967, "latitude": 36.13408172371903, "region_id_1": "370000", "region_id_2": "370200", "region_id_3": "370212"}, {"city": "青岛市", "name": "青岛即墨市鑫利佳电器鹤山路专卖店", "address": "山东省即墨市鹤山路的灯具市场-9号", "phone_number": "0532-88591312", "id": 110645, "preview_image": "brands_images/full/1421.jpg", "brand_id": 1421, "create_time": "NOW()", "longitude": 120.47012595441825, "latitude": 36.40358324492647, "region_id_1": "370000", "region_id_2": "370200", "region_id_3": "370282"}, {"city": "青岛市", "name": "青岛城阳区赛高商贸绣城支路专卖店", "address": "青岛市城阳区绣城之路59号", "phone_number": "13156286197", "id": 110646, "preview_image": "brands_images/full/1421.jpg", "brand_id": 1421, "create_time": "NOW()", "longitude": 120.34632618532939, "latitude": 36.284246909784386, "region_id_1": "370000", "region_id_2": "370200", "region_id_3": "370214"}, {"city": "青岛市", "name": "青岛黄岛区鑫华东灯饰福瀛专卖店", "address": "青岛市黄岛区福赢装饰城二层E区-48号", "phone_number": "13395423620", "id": 110647, "preview_image": "brands_images/full/1421.jpg", "brand_id": 1421, "create_time": "NOW()", "longitude": 120.15097809642751, "latitude": 36.03266809257766, "region_id_1": "370000", "region_id_2": "370200", "region_id_3": "370211"}, {"city": "青岛市", "name": "青岛明昊灯饰大成市场专卖店", "address": "青岛市市北区辽宁路大成灯具市场", "phone_number": "0532-83807085", "id": 110648, "preview_image": "brands_images/full/1421.jpg", "brand_id": 1421, "create_time": "NOW()", "longitude": 120.34991182032587, "latitude": 36.0892090017272, "region_id_1": "370000", "region_id_2": "370200", "region_id_3": "370203"}, {"city": "青岛市", "name": "青岛恩成创意产业园专卖店", "address": "青岛市市北区孟庄路5号1919创意产业园灯饰城4层F033", "phone_number": "13808972309", "id": 110649, "preview_image": "brands_images/full/1421.jpg", "brand_id": 1421, "create_time": "NOW()", "longitude": 120.34958596718857, "latitude": 36.09528999830514, "region_id_1": "370000", "region_id_2": "370200", "region_id_3": "370203"}, {"city": "青岛市", "name": "青岛豪辉杭州路市场二店", "address": "青岛市四方区杭州路灯具市场-47号", "phone_number": "0532-86072186", "id": 110650, "preview_image": "brands_images/full/1421.jpg", "brand_id": 1421, "create_time": "NOW()", "longitude": 120.36639745836699, "latitude": 36.12617991748095, "region_id_1": "370000", "region_id_2": "370200", "region_id_3": "370203"}, {"city": "青岛市", "name": "青岛豪辉灯饰杭州路市场专卖店", "address": "青岛市四方区杭州路76号内33号", "phone_number": "0532-86072186", "id": 110651, "preview_image": "brands_images/full/1421.jpg", "brand_id": 1421, "create_time": "NOW()", "longitude": 120.36739096809153, "latitude": 36.125540233319164, "region_id_1": "370000", "region_id_2": "370200", "region_id_3": "370203"}, {"city": "莱芜市", "name": "莱芜市莱城区东方之阳专卖店", "address": "山东省莱芜市莱城区花园北路35号金缔凯旋城A3三楼", "phone_number": "18663405566", "id": 110652, "preview_image": "brands_images/full/1421.jpg", "brand_id": 1421, "create_time": "NOW()", "longitude": 117.69140114955772, "latitude": 36.22951714745675, "region_id_1": "370000", "region_id_2": "371200", "region_id_3": "371202"}, {"city": "枣庄市", "name": "枣庄高新区天衡建材城专卖店", "address": "山东省枣庄市高新区祁连山路天衡建材城1楼B1号", "phone_number": "18806320181", "id": 110653, "preview_image": "brands_images/full/1421.jpg", "brand_id": 1421, "create_time": "NOW()", "longitude": 117.30891994051898, "latitude": 34.81161217675237, "region_id_1": "370000", "region_id_2": "370400", "region_id_3": "370403"}, {"city": "日照市", "name": "山东日照东港仟鑫专卖店", "address": "山东省日照市东港区正阳路8号", "phone_number": "15953083189", "id": 110654, "preview_image": "brands_images/full/1421.jpg", "brand_id": 1421, "create_time": "NOW()", "longitude": 119.46647439660639, "latitude": 35.43704205779023, "region_id_1": "370000", "region_id_2": "371100", "region_id_3": "371102"}, {"city": "金乡市", "name": "山东济宁金乡金宇专卖店", "address": "金乡县r城路与金司路交叉口东500米", "phone_number": "15253788473", "id": 110655, "preview_image": "brands_images/full/1421.jpg", "brand_id": 1421, "create_time": "NOW()", "longitude": 116.309909232887, "latitude": 34.99196483334797, "region_id_1": "370000", "region_id_2": "370800", "region_id_3": "370828"}, {"city": "济宁市", "name": "济宁黄金辉煌解放路专卖店", "address": "山东省济宁市解放路88-10号", "phone_number": "13505370186", "id": 110656, "preview_image": "brands_images/full/1421.jpg", "brand_id": 1421, "create_time": "NOW()", "longitude": 116.59876071707868, "latitude": 35.4056527912225, "region_id_1": "370000", "region_id_2": "370100", "region_id_3": "370103"}, {"city": "济宁市", "name": "济宁永光灯饰专卖店", "address": "山东省济宁市任城区金宇装饰城C馆二楼", "phone_number": "15589011789", "id": 110657, "preview_image": "brands_images/full/1421.jpg", "brand_id": 1421, "create_time": "NOW()", "longitude": 116.60512907702548, "latitude": 35.43695834260669, "region_id_1": "370000", "region_id_2": "370800", "region_id_3": "370811"}, {"city": "邹城市", "name": "邹城市红宇家居平阳专卖店", "address": "山东省邹城市平阳路369号", "phone_number": "0537-5233500", "id": 110658, "preview_image": "brands_images/full/1421.jpg", "brand_id": 1421, "create_time": "NOW()", "longitude": 116.97295025807864, "latitude": 35.40644073899152, "region_id_1": "370000", "region_id_2": "370800", "region_id_3": "370883"}, {"city": "滕州市", "name": "山东滕州荆河专卖店", "address": "山东省滕州平行路春兰建材城", "phone_number": "13376373683", "id": 110659, "preview_image": "brands_images/full/1421.jpg", "brand_id": 1421, "create_time": "NOW()", "longitude": 117.14978760503772, "latitude": 35.10680901746989, "region_id_1": "370000", "region_id_2": "370400", "region_id_3": "370481"}, {"city": "淄博市", "name": "淄博桓台新世纪专卖店", "address": "山东省淄博市桓台县新世纪装饰材料城137号", "phone_number": "15966958528", "id": 110660, "preview_image": "brands_images/full/1421.jpg", "brand_id": 1421, "create_time": "NOW()", "longitude": 118.0343674971992, "latitude": 36.99629017437385, "region_id_1": "370000", "region_id_2": "370300", "region_id_3": "370321"}, {"city": "淄博市", "name": "淄博创世丽江大厦店专卖店", "address": "淄博市张店区柳泉路丽江大厦1楼", "phone_number": "0533-2300000", "id": 110661, "preview_image": "brands_images/full/1421.jpg", "brand_id": 1421, "create_time": "NOW()", "longitude": 118.05876765693311, "latitude": 36.81684652348428, "region_id_1": "370000", "region_id_2": "370300", "region_id_3": "370303"}, {"city": "淄博市", "name": "淄博先箭之明鲁中专卖店", "address": "淄博鲁中装饰博览城1号楼M22号", "phone_number": "13011647318", "id": 110662, "preview_image": "brands_images/full/1421.jpg", "brand_id": 1421, "create_time": "NOW()", "longitude": 118.02888913982338, "latitude": 36.79114168477203, "region_id_1": "370000", "region_id_2": "370300", "region_id_3": "370303"}, {"city": "泰安市", "name": "泰安大都汇光彩专卖店", "address": "山东省泰安市泰山区泰山大街光彩市场城1层", "phone_number": "13905485528", "id": 110663, "preview_image": "brands_images/full/1421.jpg", "brand_id": 1421, "create_time": "NOW()", "longitude": 117.0840713189634, "latitude": 36.19065363428184, "region_id_1": "370000", "region_id_2": "370900", "region_id_3": "370902"}, {"city": "济南市", "name": "济南新鲁鹰红星美凯龙世博家居生活广场店", "address": "济南市天桥区北园大街225号红星美凯龙生活广场城1层东厅", "phone_number": "13589135788", "id": 110664, "preview_image": "brands_images/full/1421.jpg", "brand_id": 1421, "create_time": "NOW()", "longitude": 117.05282375551069, "latitude": 36.697029825947546, "region_id_1": "370000", "region_id_2": "370100", "region_id_3": "370105"}, {"city": "济南市", "name": "济南东海普照山东灯具市场专卖店", "address": "山东省济南市三孔桥灯具批发市场城2层", "phone_number": "13606402278", "id": 110665, "preview_image": "brands_images/full/1421.jpg", "brand_id": 1421, "create_time": "NOW()", "longitude": 117.01337811673656, "latitude": 36.69078830710239, "region_id_1": "370000", "region_id_2": "370100", "region_id_3": "370105"}, {"city": "济南市", "name": "济南九方银座专卖店", "address": "山东省济南市北园大街419号银座家居博览中心5层", "phone_number": "15605313899", "id": 110666, "preview_image": "brands_images/full/1421.jpg", "brand_id": 1421, "create_time": "NOW()", "longitude": 117.02085273722398, "latitude": 36.69057046630788, "region_id_1": "370000", "region_id_2": "370100", "region_id_3": "370105"}, {"city": "济南市", "name": "济南庆盈白鹤专卖店", "address": "山东省济南市水屯路白鹤灯具市场一楼6号", "phone_number": "0531-82632998", "id": 110667, "preview_image": "brands_images/full/1421.jpg", "brand_id": 1421, "create_time": "NOW()", "longitude": 117.01159498029925, "latitude": 36.693611716353004, "region_id_1": "370000", "region_id_2": "370100", "region_id_3": "370105"}, {"city": "济南市", "name": "济南新鲁鹰三孔桥专卖店", "address": "山东省济南市北园大街三孔桥山东灯具批发市场二期一楼门口", "phone_number": "0531-85808533", "id": 110668, "preview_image": "brands_images/full/1421.jpg", "brand_id": 1421, "create_time": "NOW()", "longitude": 117.01147539876806, "latitude": 36.69138270609277, "region_id_1": "370000", "region_id_2": "370100", "region_id_3": "370105"}, {"city": "章丘市", "name": "章丘明水鑫星绣水专卖店", "address": "山东省章丘市工业路2号圣代家居城2层", "phone_number": "0531-81298856", "id": 110669, "preview_image": "brands_images/full/1421.jpg", "brand_id": 1421, "create_time": "NOW()", "longitude": 117.61736108737367, "latitude": 36.67296418966348, "region_id_1": "370000", "region_id_2": "370100", "region_id_3": "370181"}, {"city": "章丘市", "name": "章丘明水鑫星绣水专卖店", "address": "山东省章丘市汇泉路绣水装饰材料批发市场中区东10号", "phone_number": "0531-83229877", "id": 110670, "preview_image": "brands_images/full/1421.jpg", "brand_id": 1421, "create_time": "NOW()", "longitude": 117.56056520497965, "latitude": 36.71890562777441, "region_id_1": "370000", "region_id_2": "370100", "region_id_3": "370181"}, {"city": "潍坊市", "name": "潍坊华尔富专卖店", "address": "潍坊市霞飞路灯具市场", "phone_number": "0536-7365511", "id": 110671, "preview_image": "brands_images/full/1421.jpg", "brand_id": 1421, "create_time": "NOW()", "longitude": 119.17236432178984, "latitude": 36.79222929932857, "region_id_1": "370000", "region_id_2": "370700", "region_id_3": "370703"}, {"city": "诸城市", "name": "诸城市百盛国美专卖店", "address": "山东省诸城市百盛国美电器2楼", "phone_number": "0536-6119555", "id": 110672, "preview_image": "brands_images/full/1421.jpg", "brand_id": 1421, "create_time": "NOW()", "longitude": 119.41019852081446, "latitude": 35.99959598731129, "region_id_1": "370000", "region_id_2": "370700", "region_id_3": "370782"}, {"city": "德州市", "name": "山东德州华鼎德百家居店", "address": "山东省德州市经济开发区东风东路德百家居建材城1层", "phone_number": "0543-2722336", "id": 110673, "preview_image": "brands_images/full/1421.jpg", "brand_id": 1421, "create_time": "NOW()", "longitude": 116.37705801891062, "latitude": 37.434168200207125, "region_id_1": "370000", "region_id_2": "371400", "region_id_3": "371402"}, {"city": "东营市", "name": "东营东方灯饰东赵专卖店", "address": "山东省东营市太行山路123号新宜家灯饰广场", "phone_number": "0546-7368738", "id": 110674, "preview_image": "brands_images/full/1421.jpg", "brand_id": 1421, "create_time": "NOW()", "longitude": 118.54239677103882, "latitude": 37.45666765067167, "region_id_1": "370000", "region_id_2": "370500", "region_id_3": "370502"}, {"city": "东营市", "name": "东营恒日东亚专卖店", "address": "山东省东营市太行山路东亚灯具城1层南厅", "phone_number": "0546-7773679", "id": 110675, "preview_image": "brands_images/full/1421.jpg", "brand_id": 1421, "create_time": "NOW()", "longitude": 118.54224201815201, "latitude": 37.45194800073009, "region_id_1": "370000", "region_id_2": "370500", "region_id_3": "370502"}, {"city": "滨州市", "name": "山东滨州金茂专卖店", "address": "滨州金茂商城新兴市场二期黄河四路渤海三路19-102、103号", "phone_number": "0543-2192911", "id": 110676, "preview_image": "brands_images/full/1421.jpg", "brand_id": 1421, "create_time": "NOW()", "longitude": 118.0383024302624, "latitude": 37.38499060864924, "region_id_1": "370000", "region_id_2": "371600", "region_id_3": "371602"}, {"city": "天津市", "name": "天津东创装饰工程有限公司", "address": "天津市西青区大寺大任庄工业园三号院（原优美义齿隔壁）", "phone_number": "13820416036", "id": 110677, "preview_image": "brands_images/full/1421.jpg", "brand_id": 1421, "create_time": "NOW()", "longitude": 117.24635272818958, "latitude": 39.03926706173258, "region_id_1": "120000", "region_id_2": "120100", "region_id_3": "120111"}, {"city": "天津市", "name": "天津德意泰克不锈钢有限公司", "address": "天津市南开区黄河道473号", "phone_number": "13132001555", "id": 110678, "preview_image": "brands_images/full/1421.jpg", "brand_id": 1421, "create_time": "NOW()", "longitude": 117.14970899971237, "latitude": 39.143613107323155, "region_id_1": "120000", "region_id_2": "120100", "region_id_3": "120104"}, {"city": "河西区", "name": "天津泽通建材贸易有限公司", "address": "天津市河西区环湖中路滨湖大厦2205", "phone_number": "15022077669/ 022-23378846转0", "id": 110679, "preview_image": "brands_images/full/1421.jpg", "brand_id": 1421, "create_time": "NOW()", "longitude": 117.19247298982005, "latitude": 39.092778823373536, "region_id_1": "120000", "region_id_2": "120100", "region_id_3": "120103"}, {"city": "天津市", "name": "天津盛名投资集团有限公司", "address": "天津市南开区黄河道519号", "phone_number": "18622632999", "id": 110680, "preview_image": "brands_images/full/1421.jpg", "brand_id": 1421, "create_time": "NOW()", "longitude": 117.12860008144884, "latitude": 39.14703463806535, "region_id_1": "120000", "region_id_2": "120100", "region_id_3": "120104"}, {"city": "天津市", "name": "天津市泽通珠江专卖店", "address": "天津市河西区环湖中路滨湖大厦2205", "phone_number": "13820291528", "id": 110681, "preview_image": "brands_images/full/1421.jpg", "brand_id": 1421, "create_time": "NOW()", "longitude": 117.19247298982005, "latitude": 39.092778823373536, "region_id_1": "120000", "region_id_2": "120100", "region_id_3": "120103"}, {"city": "天津市", "name": "天津市大港南威世纪大道专卖店", "address": "天津市大港区世纪大道108号金港购物中心四楼", "phone_number": "022-59721326", "id": 110682, "preview_image": "brands_images/full/1421.jpg", "brand_id": 1421, "create_time": "NOW()", "longitude": 117.46240594797148, "latitude": 38.85084224404522, "region_id_1": "120000", "region_id_2": "120100", "region_id_3": "120116"}, {"city": "天津市", "name": "天津市新津候台专卖店", "address": "天津市南开区复康路候台装饰城1层底商5室", "phone_number": "13102199333", "id": 110683, "preview_image": "brands_images/full/1421.jpg", "brand_id": 1421, "create_time": "NOW()", "longitude": 117.14726913547267, "latitude": 39.104845474298486, "region_id_1": "120000", "region_id_2": "120100", "region_id_3": "120104"}, {"city": "天津市", "name": "天津吉丰塘沽环渤海专卖店", "address": "天津市塘沽区建材路环渤海建材城二层203", "phone_number": "022-66207340", "id": 110684, "preview_image": "brands_images/full/1421.jpg", "brand_id": 1421, "create_time": "NOW()", "longitude": 117.68624909796632, "latitude": 39.03866154617915, "region_id_1": "120000", "region_id_2": "120100", "region_id_3": "120116"}, {"city": "天津市", "name": "天津宝坻未来光灯饰北方专卖店", "address": "天津市宝坻区建设路北方装饰城底商3号", "phone_number": "13821184252", "id": 110685, "preview_image": "brands_images/full/1421.jpg", "brand_id": 1421, "create_time": "NOW()", "longitude": 117.33373569041858, "latitude": 39.722354881837376, "region_id_1": "120000", "region_id_2": "120100", "region_id_3": "120115"}, {"city": "天津市", "name": "天津宝坻海成灯饰雅居乐专卖店", "address": "天津市宝坻区建设路雅居乐装饰城一层4号", "phone_number": "022-59220222", "id": 110686, "preview_image": "brands_images/full/1421.jpg", "brand_id": 1421, "create_time": "NOW()", "longitude": 117.32687557288305, "latitude": 39.723538474300646, "region_id_1": "120000", "region_id_2": "120100", "region_id_3": "120115"}, {"city": "塘沽市", "name": "塘沽华北陶瓷专卖店", "address": "天津市塘沽区华北陶瓷D2厅", "phone_number": "022-66313854", "id": 110687, "preview_image": "brands_images/full/1421.jpg", "brand_id": 1421, "create_time": "NOW()", "longitude": 117.6016852897159, "latitude": 39.03381841765086, "region_id_1": "120000", "region_id_2": "120100", "region_id_3": "120116"}, {"city": "天津市", "name": "天津长曦南方专卖店", "address": "天津市红旗南路新世纪南方灯具城一层A06", "phone_number": "022-83692780", "id": 110688, "preview_image": "brands_images/full/1421.jpg", "brand_id": 1421, "create_time": "NOW()", "longitude": 117.26582829257825, "latitude": 39.12637569832967, "region_id_1": "120000", "region_id_2": "120100", "region_id_3": "120102"}, {"city": "天津市", "name": "天津四通环渤海专卖店", "address": "天津市环渤海建材城新厦三层灯饰厅45号", "phone_number": "022-27479689", "id": 110689, "preview_image": "brands_images/full/1421.jpg", "brand_id": 1421, "create_time": "NOW()", "longitude": 117.68624909796632, "latitude": 39.03866154617915, "region_id_1": "120000", "region_id_2": "120100", "region_id_3": "120116"}, {"city": "郑州市", "name": "郑州伟盛自动门业有限公司", "address": "河南省郑州市二七区马寨工业园区工业路9号院", "phone_number": "13703958323", "id": 110690, "preview_image": "brands_images/full/1421.jpg", "brand_id": 1421, "create_time": "NOW()", "longitude": 113.52738466488877, "latitude": 34.720505809811314, "region_id_1": "410000", "region_id_2": "410100", "region_id_3": "410103"}, {"city": "洛阳市", "name": "洛阳迪光红东方松下专卖店", "address": "洛阳市王城大道红东方二楼松下专卖店", "phone_number": "13903792197", "id": 110691, "preview_image": "brands_images/full/1421.jpg", "brand_id": 1421, "create_time": "NOW()", "longitude": 112.45522899632698, "latitude": 34.69586587867526, "region_id_1": "410000", "region_id_2": "410300", "region_id_3": "410303"}, {"city": "郑州市", "name": "吉祥照明", "address": "双湖大道与郑新快速路口华南城建材6B区 3-314", "phone_number": "18739758818", "id": 110692, "preview_image": "brands_images/full/1421.jpg", "brand_id": 1421, "create_time": "NOW()", "longitude": 113.74152076416995, "latitude": 34.61069108785919, "region_id_1": "410000", "region_id_2": "410100", "region_id_3": "410184"}, {"city": "郑州市", "name": "郑州市众城商贸有限公司", "address": "郑州市金水区花园北路农业技术推广中心院内", "phone_number": "18537190557", "id": 110693, "preview_image": "brands_images/full/1421.jpg", "brand_id": 1421, "create_time": "NOW()", "longitude": 113.68609669220497, "latitude": 34.81264865228015, "region_id_1": "410000", "region_id_2": "410100", "region_id_3": "410105"}, {"city": "郑州市", "name": "郑州吉龙建材有限公司", "address": "郑州市信基路与金杯路交叉口", "phone_number": "13253568970", "id": 110694, "preview_image": "brands_images/full/1421.jpg", "brand_id": 1421, "create_time": "NOW()", "longitude": 113.63659353241565, "latitude": 34.82266111665769, "region_id_1": "410000", "region_id_2": "410100", "region_id_3": "410105"}, {"city": "郑州市", "name": "郑州联同创金属制品有限公司", "address": "河南省郑州市花园北路天荣建材城C区62-7号", "phone_number": "13271597000", "id": 110695, "preview_image": "brands_images/full/1421.jpg", "brand_id": 1421, "create_time": "NOW()", "longitude": 113.69595761636437, "latitude": 34.83828636846784, "region_id_1": "410000", "region_id_2": "410100", "region_id_3": "410105"}, {"city": "郑州市", "name": "郑州锐城道建材有限公司", "address": "河南省郑州市郑汴路与英协路凤凰城不锈钢市场松下专卖店", "phone_number": "0371-66361188", "id": 110696, "preview_image": "brands_images/full/1421.jpg", "brand_id": 1421, "create_time": "NOW()", "longitude": 113.7234110221058, "latitude": 34.750021903030756, "region_id_1": "410000", "region_id_2": "410100", "region_id_3": "410105"}, {"city": "三门峡市", "name": "三门峡鑫瑞金帝专卖店", "address": "河南省三门峡市崤山路金帝建材市场二排二号雷士照明", "phone_number": "18603989966", "id": 110697, "preview_image": "brands_images/full/1421.jpg", "brand_id": 1421, "create_time": "NOW()", "longitude": 111.08555325019886, "latitude": 34.70568333356547, "region_id_1": "410000", "region_id_2": "411200", "region_id_3": "411222"}, {"city": "开封市", "name": "开封瑞丰万宝专卖店", "address": "河南省开封市万宝商城四楼松下店", "phone_number": "13707617113", "id": 110698, "preview_image": "brands_images/full/1421.jpg", "brand_id": 1421, "create_time": "NOW()", "longitude": 114.35164211776365, "latitude": 34.80185417583674, "region_id_1": 0, "region_id_2": 0, "region_id_3": 0}, {"city": "信阳市", "name": "信阳固始赛尚专卖店", "address": "河南省信阳市固始县黄河路与古城路交叉口", "phone_number": "15938295222", "id": 110699, "preview_image": "brands_images/full/1421.jpg", "brand_id": 1421, "create_time": "NOW()", "longitude": 115.6730355183583, "latitude": 32.19532032008804, "region_id_1": "410000", "region_id_2": "411500", "region_id_3": "411525"}, {"city": "新乡市", "name": "新乡长恒亿隆专卖店", "address": "河南省新乡市长垣县亿隆购物广场54号", "phone_number": "15649606888", "id": 110700, "preview_image": "brands_images/full/1421.jpg", "brand_id": 1421, "create_time": "NOW()", "longitude": 114.67452514084454, "latitude": 35.20063068086408, "region_id_1": "410000", "region_id_2": "410700", "region_id_3": "410728"}, {"city": "新乡市", "name": "新乡新鑫劳动桥专卖店", "address": "河南省新乡市劳动桥灯饰城89号", "phone_number": "13007663268", "id": 110701, "preview_image": "brands_images/full/1421.jpg", "brand_id": 1421, "create_time": "NOW()", "longitude": 113.88630301857015, "latitude": 35.31384742372422, "region_id_1": "410000", "region_id_2": "410700", "region_id_3": "410702"}, {"city": "新乡市", "name": "河南新乡爱家光彩专卖店", "address": "河南省新乡市区劳动路光彩大市场西大门B27楼", "phone_number": "13409234593", "id": 110702, "preview_image": "brands_images/full/1421.jpg", "brand_id": 1421, "create_time": "NOW()", "longitude": 113.89202607536402, "latitude": 35.276556911123514, "region_id_1": "410000", "region_id_2": "410700", "region_id_3": "410703"}, {"city": "安阳市", "name": "安阳华灯初上居家宜专卖店", "address": "河南省安阳市文明大道居家宜3楼西厅华灯初上", "phone_number": "13346640909", "id": 110703, "preview_image": "brands_images/full/1421.jpg", "brand_id": 1421, "create_time": "NOW()", "longitude": 114.3750506118954, "latitude": 36.09624525277154, "region_id_1": "410000", "region_id_2": "410500", "region_id_3": "410502"}, {"city": "洛阳市", "name": "洛阳四通光华名优专卖店", "address": "河南省洛阳市名优建材城A馆1楼62-63号", "phone_number": "0379-62788613", "id": 110704, "preview_image": "brands_images/full/1421.jpg", "brand_id": 1421, "create_time": "NOW()", "longitude": 112.43434995085022, "latitude": 34.65688612222148, "region_id_1": "410000", "region_id_2": "410300", "region_id_3": "410303"}, {"city": "洛阳市", "name": "洛阳迪光金泰成专卖店", "address": "河南省洛阳市老城区定鼎路金泰成灯饰广场东区13号", "phone_number": "13903792197", "id": 110705, "preview_image": "brands_images/full/1421.jpg", "brand_id": 1421, "create_time": "NOW()", "longitude": 112.4709149583116, "latitude": 34.680795037590364, "region_id_1": "410000", "region_id_2": "410300", "region_id_3": "410302"}, {"city": "商丘市", "name": "商丘恒宇中意建材城专卖店", "address": "河南省商丘市中意建材市场二期1B栋1-5号", "phone_number": "13526337976", "id": 110706, "preview_image": "brands_images/full/1421.jpg", "brand_id": 1421, "create_time": "NOW()", "longitude": 115.68067850016273, "latitude": 34.40041780864099, "region_id_1": "410000", "region_id_2": "411400", "region_id_3": "411402"}, {"city": "鹤壁市", "name": "鹤壁新世纪专卖店", "address": "河南省鹤壁市新世纪广场东区70号", "phone_number": "13849217998", "id": 110707, "preview_image": "brands_images/full/1421.jpg", "brand_id": 1421, "create_time": "NOW()", "longitude": 114.30623280118343, "latitude": 35.74931255051925, "region_id_1": "410000", "region_id_2": "410600", "region_id_3": "410611"}, {"city": "平顶山市", "name": "平顶山庆华专卖店", "address": "河南省平顶山市城朴路东建材市场西门二楼南６号", "phone_number": "13603752987", "id": 110708, "preview_image": "brands_images/full/1421.jpg", "brand_id": 1421, "create_time": "NOW()", "longitude": 113.30084897797529, "latitude": 33.74530145652439, "region_id_1": "130000", "region_id_2": "130100", "region_id_3": "130105"}, {"city": "郑州市", "name": "郑州四通东建材专卖店", "address": "河南省郑州市郑汴路东建材灯具市场1区240号", "phone_number": "0371-66520899", "id": 110709, "preview_image": "brands_images/full/1421.jpg", "brand_id": 1421, "create_time": "NOW()", "longitude": 113.73025586934594, "latitude": 34.74865703984481, "region_id_1": "410000", "region_id_2": "410100", "region_id_3": "410105"}, {"city": "郑州市", "name": "郑州百姓广场普原专卖店", "address": "河南省郑州市南三环百姓广场灯具精品街松下店", "phone_number": "13215996613", "id": 110710, "preview_image": "brands_images/full/1421.jpg", "brand_id": 1421, "create_time": "NOW()", "longitude": 113.63765843227566, "latitude": 34.709060014475824, "region_id_1": "410000", "region_id_2": "410100", "region_id_3": "410103"}, {"city": "郑州市", "name": "郑州北环天荣建材城松下专卖店", "address": "河南省郑州市花园北路金泰城灯饰广场A区121-1号", "phone_number": "15136250818", "id": 110711, "preview_image": "brands_images/full/1421.jpg", "brand_id": 1421, "create_time": "NOW()", "longitude": 113.68838758684872, "latitude": 34.83738910610395, "region_id_1": "410000", "region_id_2": "410100", "region_id_3": "410105"}, {"city": "郑州市", "name": "郑州荣鑫凤凰城专卖店", "address": "河南省郑州市郑汴路凤凰城4楼西区北70-72号", "phone_number": "15670626188", "id": 110712, "preview_image": "brands_images/full/1421.jpg", "brand_id": 1421, "create_time": "NOW()", "longitude": 113.72269515076691, "latitude": 34.74986218845949, "region_id_1": "410000", "region_id_2": "410100", "region_id_3": "410105"}, {"city": "郑州市", "name": "郑州鼎源融信华丰四楼华丽专卖店", "address": "河南省郑州市商都路与七里河南路交叉口华丰灯饰界4楼", "phone_number": "13700868818", "id": 110713, "preview_image": "brands_images/full/1421.jpg", "brand_id": 1421, "create_time": "NOW()", "longitude": 113.7478352177014, "latitude": 34.751446165979125, "region_id_1": "410000", "region_id_2": "410100", "region_id_3": "410104"}, {"city": "郑州市", "name": "郑州鼎源融信华丰二楼专卖店", "address": "河南省郑州市商都路与七里河南路交叉口华丰灯饰界A220", "phone_number": "15729362960", "id": 110714, "preview_image": "brands_images/full/1421.jpg", "brand_id": 1421, "create_time": "NOW()", "longitude": 113.74816468023025, "latitude": 34.751505012929016, "region_id_1": "410000", "region_id_2": "410100", "region_id_3": "410104"}, {"city": "郑州市", "name": "郑州爱家红星美凯龙专卖店", "address": "河南省郑州市金水区郑汴路红星美凯龙城6层", "phone_number": "13674992160", "id": 110715, "preview_image": "brands_images/full/1421.jpg", "brand_id": 1421, "create_time": "NOW()", "longitude": 113.73637640387034, "latitude": 34.750276529935135, "region_id_1": "410000", "region_id_2": "410100", "region_id_3": "410105"}, {"city": "大同市", "name": "阳泉百汇商贸有限公司", "address": "南外环街6号融尚家居3层", "phone_number": "13903532139", "id": 110716, "preview_image": "brands_images/full/1421.jpg", "brand_id": 1421, "create_time": "NOW()", "longitude": 113.62301502031, "latitude": 37.84872346799022, "region_id_1": "140000", "region_id_2": "140200", "region_id_3": "140202"}, {"city": "大同市", "name": "长治居然专卖店", "address": "英雄北路198号居然之家2层", "phone_number": "13653450488", "id": 110717, "preview_image": "brands_images/full/1421.jpg", "brand_id": 1421, "create_time": "NOW()", "longitude": 113.1330712200117, "latitude": 36.221693447566174, "region_id_1": "140000", "region_id_2": "140300", "region_id_3": "140311"}, {"city": "运城市", "name": "运城市安吉商贸有限公司", "address": "运城市河东路凤凰小区13号1层1号", "phone_number": "13643591386", "id": 110718, "preview_image": "brands_images/full/1421.jpg", "brand_id": 1421, "create_time": "NOW()", "longitude": 111.03055022839929, "latitude": 35.038088922053234, "region_id_1": "140000", "region_id_2": "140800", "region_id_3": "140802"}, {"city": "太原市", "name": "太原市大力智能门控", "address": "太原市万柏林区老万水装饰城北门东侧9号", "phone_number": "13111087699", "id": 110719, "preview_image": "brands_images/full/1421.jpg", "brand_id": 1421, "create_time": "NOW()", "longitude": 112.53310032342632, "latitude": 37.83924443754494, "region_id_1": "140000", "region_id_2": "140100", "region_id_3": "140109"}, {"city": "阳泉市", "name": "阳泉居然之家专卖店", "address": "山西省阳泉市桃北东路居然之家阳泉店2层2193号", "phone_number": "13935332303", "id": 110720, "preview_image": "brands_images/full/1421.jpg", "brand_id": 1421, "create_time": "NOW()", "longitude": 113.60519134902533, "latitude": 37.868178132733576, "region_id_1": "140000", "region_id_2": "140200", "region_id_3": "140202"}, {"city": "河津市", "name": "河津津辉建材城专卖店", "address": "山西省河津市津辉国际建材城欧式一条街南端", "phone_number": "0359-5035058", "id": 110721, "preview_image": "brands_images/full/1421.jpg", "brand_id": 1421, "create_time": "NOW()", "longitude": 110.71355061593394, "latitude": 35.58175175598736, "region_id_1": "140000", "region_id_2": "140800", "region_id_3": "140882"}, {"city": "长治市", "name": "长治万博装饰广场专卖店", "address": "山西省长治市城东路万博装饰城9区19-38号", "phone_number": "0355-3083771", "id": 110722, "preview_image": "brands_images/full/1421.jpg", "brand_id": 1421, "create_time": "NOW()", "longitude": 113.1289901084866, "latitude": 36.202850448547835, "region_id_1": "140000", "region_id_2": "140200", "region_id_3": "140202"}, {"city": "朔州市", "name": "朔州居然之家专卖店", "address": "山西省朔州市朔城区居然之家朔州店五层009#", "phone_number": "0349-6660788", "id": 110723, "preview_image": "brands_images/full/1421.jpg", "brand_id": 1421, "create_time": "NOW()", "longitude": 112.41004076171582, "latitude": 39.332071401869904, "region_id_1": "140000", "region_id_2": "140600", "region_id_3": "140602"}, {"city": "忻州市", "name": "忻州居美家园专卖店", "address": "山西省忻州市居美家园装饰城一层西通道", "phone_number": "0350-3301598", "id": 110724, "preview_image": "brands_images/full/1421.jpg", "brand_id": 1421, "create_time": "NOW()", "longitude": 112.74777080938419, "latitude": 38.435708235922974, "region_id_1": "140000", "region_id_2": "140900", "region_id_3": "140902"}, {"city": "晋城市", "name": "晋城新康达建材专卖店", "address": "山西省晋城市新康达建材一层灯饰区", "phone_number": "0356-2581519", "id": 110725, "preview_image": "brands_images/full/1421.jpg", "brand_id": 1421, "create_time": "NOW()", "longitude": 112.86733275750684, "latitude": 35.49983446722556, "region_id_1": "140000", "region_id_2": "140200", "region_id_3": "140202"}, {"city": "大同市", "name": "大同金牛市场专卖店", "address": "大同市南三环金牛装饰城灯饰区外扩1号甲", "phone_number": "0352-5388365", "id": 110726, "preview_image": "brands_images/full/1421.jpg", "brand_id": 1421, "create_time": "NOW()", "longitude": 113.17615096809935, "latitude": 40.03737947626098, "region_id_1": "140000", "region_id_2": "140200", "region_id_3": "140211"}, {"city": "太原市", "name": "太原居然之家河西店专卖店", "address": "太原市迎泽西大街居然之家河西店6层6015", "phone_number": "0351-6566507", "id": 110727, "preview_image": "brands_images/full/1421.jpg", "brand_id": 1421, "create_time": "NOW()", "longitude": 112.48861108997657, "latitude": 37.86159250529609, "region_id_1": "140000", "region_id_2": "140100", "region_id_3": "140109"}, {"city": "太原市", "name": "太原现代家居专卖店", "address": "太原市现代家居国际博览中心1号馆西门3层3A-18A", "phone_number": "0351-2898855", "id": 110728, "preview_image": "brands_images/full/1421.jpg", "brand_id": 1421, "create_time": "NOW()", "longitude": 112.54050852320435, "latitude": 37.88868517568593, "region_id_1": "140000", "region_id_2": "140100", "region_id_3": "140108"}, {"city": "沈阳市", "name": "沈阳亮美家灯饰专卖店", "address": "辽宁省沈阳市于洪区张士灯具城东一门1007号", "phone_number": "15804034188/13889294330", "id": 110729, "preview_image": "brands_images/full/1421.jpg", "brand_id": 1421, "create_time": "NOW()", "longitude": 123.45734313831211, "latitude": 41.85028952060645, "region_id_1": "210000", "region_id_2": "210100", "region_id_3": "210114"}, {"city": "大连市", "name": "大连旅顺豪雅美居向阳街专卖店", "address": "大连市旅顺口区得胜街道向阳街32商-2号", "phone_number": "1869833033", "id": 110730, "preview_image": "brands_images/full/1421.jpg", "brand_id": 1421, "create_time": "NOW()", "longitude": 121.27702781965375, "latitude": 38.82639697009191, "region_id_1": "210000", "region_id_2": "210200", "region_id_3": "210212"}, {"city": "辽阳市", "name": "辽阳美伊灯饰华美专卖店", "address": "新运大街华美灯饰城3楼", "phone_number": "15904197710", "id": 110731, "preview_image": "brands_images/full/1421.jpg", "brand_id": 1421, "create_time": "NOW()", "longitude": 117.76044135825632, "latitude": 39.884434232820084, "region_id_1": "130000", "region_id_2": "130200", "region_id_3": "130229"}, {"city": "大连市", "name": "普兰店三星", "address": "同仁街路55号铺位", "phone_number": "18641122266", "id": 110732, "preview_image": "brands_images/full/1421.jpg", "brand_id": 1421, "create_time": "NOW()", "longitude": 121.97114059919303, "latitude": 39.408313650865026, "region_id_1": "210000", "region_id_2": "210200", "region_id_3": "210282"}, {"city": "沈阳市", "name": "沈阳市铁西区全呈电器商行（南塔专卖店）", "address": "沈河区万柳塘路109号黄金大厦门市", "phone_number": "13372839336", "id": 110733, "preview_image": "brands_images/full/1421.jpg", "brand_id": 1421, "create_time": "NOW()", "longitude": 123.46692886657854, "latitude": 41.77814901953596, "region_id_1": 0, "region_id_2": 0, "region_id_3": 0}, {"city": "瓦房店市", "name": "瓦房店市原野灯饰", "address": "瓦房店市新华家居六楼", "phone_number": "18609845559", "id": 110734, "preview_image": "brands_images/full/1421.jpg", "brand_id": 1421, "create_time": "NOW()", "longitude": 121.79069878873602, "latitude": 39.70895639618959, "region_id_1": "210000", "region_id_2": "210200", "region_id_3": "210281"}, {"city": "沈阳市", "name": "沈阳俱嘉建设工程有限公司", "address": "沈阳市浑南新区三义街8号利波莎依得小区", "phone_number": "138 0497 9463", "id": 110735, "preview_image": "brands_images/full/1421.jpg", "brand_id": 1421, "create_time": "NOW()", "longitude": 123.45590878336195, "latitude": 41.74850356630142, "region_id_1": 0, "region_id_2": 0, "region_id_3": 0}, {"city": "抚顺市", "name": "抚顺博科商贸有限公司", "address": "抚顺市新抚区西十路矿机关车库楼东1号", "phone_number": "186 0423 1358", "id": 110736, "preview_image": "brands_images/full/1421.jpg", "brand_id": 1421, "create_time": "NOW()", "longitude": 123.91136857187887, "latitude": 41.86978966066434, "region_id_1": "210000", "region_id_2": "210400", "region_id_3": "210402"}, {"city": "鞍山市", "name": "鞍山市智源商源商贸有限公司", "address": "鞍山市铁东区建国南路183-2号", "phone_number": "15124104150", "id": 110737, "preview_image": "brands_images/full/1421.jpg", "brand_id": 1421, "create_time": "NOW()", "longitude": 122.99821461080428, "latitude": 41.128153146068264, "region_id_1": "210000", "region_id_2": "210300", "region_id_3": "210302"}, {"city": "大连市", "name": "大连日松住宅设备有限公司", "address": "大连市西岗区长春花园珠海街12-5号", "phone_number": "13842693858", "id": 110738, "preview_image": "brands_images/full/1421.jpg", "brand_id": 1421, "create_time": "NOW()", "longitude": 121.61441339410823, "latitude": 38.9254055110285, "region_id_1": "210000", "region_id_2": "210200", "region_id_3": "210203"}, {"city": "营口市", "name": "盖州市宏福明灯饰", "address": "盖州市龙泰家世界3楼", "phone_number": "15841758555", "id": 110739, "preview_image": "brands_images/full/1421.jpg", "brand_id": 1421, "create_time": "NOW()", "longitude": 122.47732679351307, "latitude": 40.23544147046947, "region_id_1": "210000", "region_id_2": "210800", "region_id_3": "210881"}, {"city": "营口市", "name": "营口市瀛丰灯具", "address": "营口市石道街路号铺位", "phone_number": "13154172288", "id": 110740, "preview_image": "brands_images/full/1421.jpg", "brand_id": 1421, "create_time": "NOW()", "longitude": 122.23339137079269, "latitude": 40.66865106647352, "region_id_1": "210000", "region_id_2": "210800", "region_id_3": "210803"}, {"city": "营口市", "name": "鲅鱼圈光大灯饰", "address": "营口市经济技术开发区艺海花园东门路10号铺位", "phone_number": "13940777807", "id": 110741, "preview_image": "brands_images/full/1421.jpg", "brand_id": 1421, "create_time": "NOW()", "longitude": 122.1346882490864, "latitude": 40.259087198883634, "region_id_1": "210000", "region_id_2": "210800", "region_id_3": "210804"}, {"city": "营口市", "name": "营口熊岳镇宏福明灯饰", "address": "熊岳镇前进街路12号铺位", "phone_number": "15841758555", "id": 110742, "preview_image": "brands_images/full/1421.jpg", "brand_id": 1421, "create_time": "NOW()", "longitude": 114.7159770311791, "latitude": 23.004662606367486, "region_id_1": "440000", "region_id_2": "441300", "region_id_3": "441323"}, {"city": "鞍山市", "name": "鞍山十里河松下专卖店", "address": "鞍山市千山西路北京十里河灯饰城一楼", "phone_number": "13700123138", "id": 110743, "preview_image": "brands_images/full/1421.jpg", "brand_id": 1421, "create_time": "NOW()", "longitude": 122.94484659666003, "latitude": 41.145877236052904, "region_id_1": "210000", "region_id_2": "210300", "region_id_3": "210311"}, {"city": "沈阳市", "name": "凌海市大凌河街天意洁具城", "address": "锦州市凌海市大凌河街", "phone_number": "18640608567", "id": 110744, "preview_image": "brands_images/full/1421.jpg", "brand_id": 1421, "create_time": "NOW()", "longitude": 121.45966852197505, "latitude": 41.12700403827437, "region_id_1": "210000", "region_id_2": "210700", "region_id_3": "210781"}, {"city": "大连市", "name": "大连裕明灯饰", "address": "大连解放广场灯饰城3楼10号", "phone_number": "0411-65863900", "id": 110745, "preview_image": "brands_images/full/1421.jpg", "brand_id": 1421, "create_time": "NOW()", "longitude": 121.59334869403509, "latitude": 38.91341104821283, "region_id_1": "210000", "region_id_2": "210200", "region_id_3": "210204"}, {"city": "沈阳市", "name": "沈阳鼎合美科技有限公司", "address": "沈阳市铁西区南八中路68号102门", "phone_number": "024-31031144、024-31032244", "id": 110746, "preview_image": "brands_images/full/1421.jpg", "brand_id": 1421, "create_time": "NOW()", "longitude": 123.3619322236558, "latitude": 41.79913015334951, "region_id_1": "210000", "region_id_2": "210100", "region_id_3": "210106"}, {"city": "庄河市", "name": "庄河市程泷住宅设备有限公司", "address": "庄河市天发大市场AH3号", "phone_number": "0411-89712975", "id": 110747, "preview_image": "brands_images/full/1421.jpg", "brand_id": 1421, "create_time": "NOW()", "longitude": 122.9341452670028, "latitude": 39.85890978417207, "region_id_1": "210000", "region_id_2": "210200", "region_id_3": "210283"}, {"city": "沈阳市", "name": "沈阳市新华松家居装饰店", "address": "辽宁省沈阳市沈河区西顺城街220号", "phone_number": "024-22946625", "id": 110748, "preview_image": "brands_images/full/1421.jpg", "brand_id": 1421, "create_time": "NOW()", "longitude": 123.4544249030324, "latitude": 41.80167522599532, "region_id_1": "210000", "region_id_2": "210100", "region_id_3": "210103"}, {"city": "大连市", "name": "长兴岛民宇专卖店", "address": "大连市长兴岛临港工业区长兴路", "phone_number": "13644268401", "id": 110749, "preview_image": "brands_images/full/1421.jpg", "brand_id": 1421, "create_time": "NOW()", "longitude": 121.36545614090302, "latitude": 39.60861741015961, "region_id_1": "210000", "region_id_2": "210200", "region_id_3": "210281"}, {"city": "大连市", "name": "大连普兰店玉星专卖店", "address": "大连市普兰店锦龙大厦", "phone_number": "15142335558", "id": 110750, "preview_image": "brands_images/full/1421.jpg", "brand_id": 1421, "create_time": "NOW()", "longitude": 121.97051478747306, "latitude": 39.406571605392145, "region_id_1": "210000", "region_id_2": "210200", "region_id_3": "210282"}, {"city": "大连市", "name": "大连亿鑫金州专卖店", "address": "辽宁省大连市金州区先进街道9号楼9-2号 临街公建", "phone_number": "0411-86577162", "id": 110751, "preview_image": "brands_images/full/1421.jpg", "brand_id": 1421, "create_time": "NOW()", "longitude": 121.74865634199398, "latitude": 39.05525210261778, "region_id_1": "210000", "region_id_2": "210200", "region_id_3": "210213"}, {"city": "大连市", "name": "大连金州金田专卖店", "address": "大连市金州区中益陶瓷城", "phone_number": "13504956208", "id": 110752, "preview_image": "brands_images/full/1421.jpg", "brand_id": 1421, "create_time": "NOW()", "longitude": 121.69641982808028, "latitude": 39.09292986322545, "region_id_1": "210000", "region_id_2": "210200", "region_id_3": "210213"}, {"city": "大连市", "name": "大连友谊2期专卖店", "address": "大连华北路友谊街灯饰城2期精品灯饰城", "phone_number": "0411-83789102", "id": 110753, "preview_image": "brands_images/full/1421.jpg", "brand_id": 1421, "create_time": "NOW()", "longitude": 121.57497781905072, "latitude": 38.9742693702741, "region_id_1": "210000", "region_id_2": "210200", "region_id_3": "210211"}, {"city": "大连市", "name": "大连伟业华南专卖店", "address": "辽宁省大连市甘井子区中华西路5号大连华南国际商城5层1厅18号", "phone_number": "13478691165", "id": 110754, "preview_image": "brands_images/full/1421.jpg", "brand_id": 1421, "create_time": "NOW()", "longitude": 121.59723443578974, "latitude": 38.99531273865722, "region_id_1": "210000", "region_id_2": "210200", "region_id_3": "210211"}, {"city": "大连市", "name": "大连亿鑫亿腾专卖店", "address": "辽宁省大连市甘井子区后盐建材城", "phone_number": "13591183808", "id": 110755, "preview_image": "brands_images/full/1421.jpg", "brand_id": 1421, "create_time": "NOW()", "longitude": 121.64668666255496, "latitude": 39.02872888448409, "region_id_1": "210000", "region_id_2": "210200", "region_id_3": "210211"}, {"city": "大连市", "name": "大连亿鑫友谊专卖店", "address": "辽宁省大连市友谊街灯具市场E区158号", "phone_number": "0411-83789105", "id": 110756, "preview_image": "brands_images/full/1421.jpg", "brand_id": 1421, "create_time": "NOW()", "longitude": 121.638591683062, "latitude": 38.9243001612349, "region_id_1": "210000", "region_id_2": "210200", "region_id_3": "210202"}, {"city": "大连市", "name": "大连建鑫照明电器商行", "address": "大连市经济技术开发区保税区家居广场二楼41号", "phone_number": "0411-87320856", "id": 110757, "preview_image": "brands_images/full/1421.jpg", "brand_id": 1421, "create_time": "NOW()", "longitude": 121.79635872172747, "latitude": 39.06623616846299, "region_id_1": "210000", "region_id_2": "210200", "region_id_3": "210213"}, {"city": "大连市", "name": "大连日松东方广场专卖店", "address": "辽宁省大连市甘井子区金三角广场15号东方广场建材城", "phone_number": "0411-83789102", "id": 110758, "preview_image": "brands_images/full/1421.jpg", "brand_id": 1421, "create_time": "NOW()", "longitude": 121.59934632150132, "latitude": 38.97018223461393, "region_id_1": "210000", "region_id_2": "210200", "region_id_3": "210211"}, {"city": "大连市", "name": "大连日松长春花园专卖店", "address": "大连市西岗区珠海街12-5号", "phone_number": "0411-83789102", "id": 110759, "preview_image": "brands_images/full/1421.jpg", "brand_id": 1421, "create_time": "NOW()", "longitude": 121.61441339410823, "latitude": 38.9254055110285, "region_id_1": "210000", "region_id_2": "210200", "region_id_3": "210203"}, {"city": "大连市", "name": "大连日松解放广场专卖店", "address": "辽宁省大连市沙河口区五一路105号5楼39号", "phone_number": "0411-84587012", "id": 110760, "preview_image": "brands_images/full/1421.jpg", "brand_id": 1421, "create_time": "NOW()", "longitude": 121.5837247886828, "latitude": 38.91168120388331, "region_id_1": "210000", "region_id_2": "210200", "region_id_3": "210204"}, {"city": "奈曼市", "name": "奈曼旗大镇雷士照明店", "address": "奈曼旗清河路北段盛事广场5号", "phone_number": "0457-4226902", "id": 110761, "preview_image": "brands_images/full/1421.jpg", "brand_id": 1421, "create_time": "NOW()", "longitude": 120.9407889963667, "latitude": 42.97238301073903, "region_id_1": "150000", "region_id_2": "150500", "region_id_3": "150525"}, {"city": "瓦房店市", "name": "瓦房店三和灯饰商行", "address": "辽宁省瓦房店市北共济街3段9号", "phone_number": "0411-88580020", "id": 110762, "preview_image": "brands_images/full/1421.jpg", "brand_id": 1421, "create_time": "NOW()", "longitude": 122.00936619355913, "latitude": 39.63347183670438, "region_id_1": "210000", "region_id_2": "210200", "region_id_3": "210281"}, {"city": "喀左市", "name": "喀左大成子民族街专卖店", "address": "辽宁省喀左县大成子镇民族街", "phone_number": "15042179555", "id": 110763, "preview_image": "brands_images/full/1421.jpg", "brand_id": 1421, "create_time": "NOW()", "longitude": 121.74436907564248, "latitude": 42.061368672795105, "region_id_1": "210000", "region_id_2": "210900", "region_id_3": "210921"}, {"city": "开原市", "name": "开原松麟长征专卖店", "address": "辽宁省铁岭开原长征街161-2 号", "phone_number": "15898058611", "id": 110764, "preview_image": "brands_images/full/1421.jpg", "brand_id": 1421, "create_time": "NOW()", "longitude": 124.05695029842023, "latitude": 42.55209773867405, "region_id_1": "210000", "region_id_2": "211200", "region_id_3": "211282"}, {"city": "阜新市", "name": "阜新容大滨河专卖店", "address": "阜新市海州区滨河路30号楼附楼", "phone_number": "0418-3311199", "id": 110765, "preview_image": "brands_images/full/1421.jpg", "brand_id": 1421, "create_time": "NOW()", "longitude": 121.6592138922138, "latitude": 42.01002613355794, "region_id_1": "210000", "region_id_2": "210900", "region_id_3": "210902"}, {"city": "岫岩市", "name": "岫岩城镇环球宜扬家居专卖店", "address": "鞍山市岫岩满族自治县锦丝路宜扬家居1 层34号", "phone_number": "0412-7823078", "id": 110766, "preview_image": "brands_images/full/1421.jpg", "brand_id": 1421, "create_time": "NOW()", "longitude": 123.28508334429468, "latitude": 40.29467374798471, "region_id_1": "210000", "region_id_2": "210300", "region_id_3": "210323"}, {"city": "葫芦岛市", "name": "葫芦岛圣日专卖店", "address": "辽宁省葫芦岛市锦葫路玉皇商城圣日电子", "phone_number": "0421-2120016", "id": 110767, "preview_image": "brands_images/full/1421.jpg", "brand_id": 1421, "create_time": "NOW()", "longitude": 120.88608635674576, "latitude": 40.74418184511183, "region_id_1": "210000", "region_id_2": "211400", "region_id_3": "211403"}, {"city": "朝阳市", "name": "辽宁朝阳众和豪德专卖店", "address": "朝阳市龙城区中兴街豪德商贸广场西区27栋26号", "phone_number": "0421-2598197", "id": 110768, "preview_image": "brands_images/full/1421.jpg", "brand_id": 1421, "create_time": "NOW()", "longitude": 120.40451426793582, "latitude": 41.57015863529856, "region_id_1": "210000", "region_id_2": "211300", "region_id_3": "211303"}, {"city": "孤山市", "name": "孤山坤利达松下专卖店", "address": "东港市孤山镇中大街", "phone_number": "0415-6621588", "id": 110769, "preview_image": "brands_images/full/1421.jpg", "brand_id": 1421, "create_time": "NOW()", "longitude": 123.58045082584202, "latitude": 39.88798138526025, "region_id_1": "210000", "region_id_2": "210600", "region_id_3": "210681"}, {"city": "沈阳市", "name": "沈阳居然之家亿丰店", "address": "辽宁省沈阳市浑南居然之家一层112室", "phone_number": "13700034166", "id": 110770, "preview_image": "brands_images/full/1421.jpg", "brand_id": 1421, "create_time": "NOW()", "longitude": 123.46996010869142, "latitude": 41.74426845225335, "region_id_1": 0, "region_id_2": 0, "region_id_3": 0}, {"city": "沈阳市", "name": "沈阳一夫新北方专卖店", "address": "辽宁省沈阳市铁西区齐贤街北四路新北方装饰城3楼", "phone_number": "024-62636579", "id": 110771, "preview_image": "brands_images/full/1421.jpg", "brand_id": 1421, "create_time": "NOW()", "longitude": 123.3681949401797, "latitude": 41.80926634778637, "region_id_1": "210000", "region_id_2": "210100", "region_id_3": "210106"}, {"city": "沈阳市", "name": "沈阳九路专卖店", "address": "辽宁省沈阳市铁西区北三东路15号", "phone_number": "13002472194", "id": 110772, "preview_image": "brands_images/full/1421.jpg", "brand_id": 1421, "create_time": "NOW()", "longitude": 123.38767137143319, "latitude": 41.806255858140304, "region_id_1": "210000", "region_id_2": "210100", "region_id_3": "210106"}, {"city": "沈阳市", "name": "沈阳兴顺松下专卖店", "address": "辽宁省沈阳市铁西区兴顺灯具城1楼门市", "phone_number": "13700034166", "id": 110773, "preview_image": "brands_images/full/1421.jpg", "brand_id": 1421, "create_time": "NOW()", "longitude": 123.36640305155181, "latitude": 41.80080621344396, "region_id_1": "210000", "region_id_2": "210100", "region_id_3": "210106"}, {"city": "沈阳市", "name": "沈阳红星美凯龙龙之梦专卖店", "address": "辽宁省沈阳市大东区珠琳路", "phone_number": "13700034166", "id": 110774, "preview_image": "brands_images/full/1421.jpg", "brand_id": 1421, "create_time": "NOW()", "longitude": 123.4962419228274, "latitude": 41.81898758031308, "region_id_1": "210000", "region_id_2": "210100", "region_id_3": "210104"}, {"city": "沈阳市", "name": "沈阳亚泰建联十里河专卖店", "address": "辽宁省沈阳市铁西区沈东路27号十里河灯饰城B区112号", "phone_number": "13840205711", "id": 110775, "preview_image": "brands_images/full/1421.jpg", "brand_id": 1421, "create_time": "NOW()", "longitude": 123.33145244821058, "latitude": 41.78398156405337, "region_id_1": "210000", "region_id_2": "210100", "region_id_3": "210106"}, {"city": "沈阳市", "name": "沈阳大东亮利东行专卖店", "address": "辽宁省沈阳市大连区北顺城路145号东行家私城3楼", "phone_number": "024-21856016", "id": 110776, "preview_image": "brands_images/full/1421.jpg", "brand_id": 1421, "create_time": "NOW()", "longitude": 123.46936001455988, "latitude": 41.81100443875839, "region_id_1": "210000", "region_id_2": "210100", "region_id_3": "210103"}, {"city": "海城市", "name": "海城市九强西关街专卖店", "address": "辽宁省海城市西关街关明3号", "phone_number": "0412-3166998", "id": 110777, "preview_image": "brands_images/full/1421.jpg", "brand_id": 1421, "create_time": "NOW()", "longitude": 122.7485018485296, "latitude": 40.85842477173556, "region_id_1": "210000", "region_id_2": "210300", "region_id_3": "210381"}, {"city": "东港市", "name": "东港市雅美迎宾大街专卖店", "address": "辽宁省东港市迎宾大街西街100-5号", "phone_number": "0415-7185411", "id": 110778, "preview_image": "brands_images/full/1421.jpg", "brand_id": 1421, "create_time": "NOW()", "longitude": 124.14877370875122, "latitude": 39.888614746114925, "region_id_1": "210000", "region_id_2": "210600", "region_id_3": "210681"}, {"city": "辽阳市", "name": "辽阳文圣区华美美伊专卖店", "address": "辽阳市东兴路254号辽阳华美灯具城三层", "phone_number": "0419-4137710", "id": 110779, "preview_image": "brands_images/full/1421.jpg", "brand_id": 1421, "create_time": "NOW()", "longitude": 123.19930110050137, "latitude": 41.26609389772642, "region_id_1": "210000", "region_id_2": "211000", "region_id_3": "211003"}, {"city": "辽阳市", "name": "辽宁灯塔松下专卖店", "address": "辽宁省辽阳市灯塔县卫国东路68门-14号7门", "phone_number": "0419-8530028", "id": 110780, "preview_image": "brands_images/full/1421.jpg", "brand_id": 1421, "create_time": "NOW()", "longitude": 123.33345894202482, "latitude": 41.43853601788736, "region_id_1": "210000", "region_id_2": "211000", "region_id_3": "211081"}, {"city": "辽阳市", "name": "辽阳市美伊新运大街专卖店", "address": "辽宁省辽阳市文圣区新运大街298号(欧亚达B1-15)", "phone_number": "0419-4197710", "id": 110781, "preview_image": "brands_images/full/1421.jpg", "brand_id": 1421, "create_time": "NOW()", "longitude": 123.17797532140635, "latitude": 41.26636203401039, "region_id_1": "210000", "region_id_2": "211000", "region_id_3": "211002"}, {"city": "锦州市", "name": "锦州市金正北方专卖店", "address": "锦州市古塔区洛阳路3段76号", "phone_number": "0416-3152311", "id": 110782, "preview_image": "brands_images/full/1421.jpg", "brand_id": 1421, "create_time": "NOW()", "longitude": 121.14223360353229, "latitude": 41.11757005446033, "region_id_1": "210000", "region_id_2": "210700", "region_id_3": "210702"}, {"city": "锦州市", "name": "锦州市金九南广专卖店", "address": "辽宁省锦州市南广路6甲51号", "phone_number": "0416-3782308", "id": 110783, "preview_image": "brands_images/full/1421.jpg", "brand_id": 1421, "create_time": "NOW()", "longitude": 121.1517315922065, "latitude": 41.09161370037327, "region_id_1": "210000", "region_id_2": "210700", "region_id_3": "210711"}, {"city": "锦州市", "name": "锦州豪门光彩松下专卖店", "address": "辽宁省锦州市松山新区广南路4号光彩市场", "phone_number": "0416-3788868", "id": 110784, "preview_image": "brands_images/full/1421.jpg", "brand_id": 1421, "create_time": "NOW()", "longitude": 121.1397741209021, "latitude": 41.09777108604379, "region_id_1": "210000", "region_id_2": "210700", "region_id_3": "210711"}, {"city": "抚顺市", "name": "抚顺新飞裕民装饰专城店", "address": "辽宁省抚顺市裕民装饰城5楼5030号", "phone_number": "0413-2605650", "id": 110785, "preview_image": "brands_images/full/1421.jpg", "brand_id": 1421, "create_time": "NOW()", "longitude": 123.9025975573032, "latitude": 41.86773120064656, "region_id_1": "210000", "region_id_2": "210400", "region_id_3": "210402"}, {"city": "丹东市", "name": "丹东市兴隆街比酷利灯饰专卖店", "address": "丹东市元宝区繁荣街3-1号", "phone_number": "0415-2858708", "id": 110786, "preview_image": "brands_images/full/1421.jpg", "brand_id": 1421, "create_time": "NOW()", "longitude": 124.35032097797149, "latitude": 40.173197015058, "region_id_1": "210000", "region_id_2": "210600", "region_id_3": "210602"}, {"city": "丹东市", "name": "丹东金海专卖店", "address": "丹东市锦山大街52号金海商业广场四层", "phone_number": "15641579999", "id": 110787, "preview_image": "brands_images/full/1421.jpg", "brand_id": 1421, "create_time": "NOW()", "longitude": 124.39849773128547, "latitude": 40.13831601920232, "region_id_1": "210000", "region_id_2": "210600", "region_id_3": "210603"}, {"city": "丹东市", "name": "丹东凤城凤凰大街专卖店", "address": "辽宁省凤城市凤凰大街凤凰园小区6-7号门市", "phone_number": "0415-8660877", "id": 110788, "preview_image": "brands_images/full/1421.jpg", "brand_id": 1421, "create_time": "NOW()", "longitude": 124.07941856492047, "latitude": 40.45993230095999, "region_id_1": "210000", "region_id_2": "210600", "region_id_3": "210682"}, {"city": "丹东市", "name": "宽甸满族自治县北方山奇大市场幸福之家专卖店", "address": "辽宁省丹东市宽甸满族自治县北方山奇大市场B区", "phone_number": "13504153333", "id": 110789, "preview_image": "brands_images/full/1421.jpg", "brand_id": 1421, "create_time": "NOW()", "longitude": 124.77542484132218, "latitude": 40.74805815760831, "region_id_1": "210000", "region_id_2": "210600", "region_id_3": "210624"}, {"city": "丹东市", "name": "丹东四通韩国城专卖店", "address": "丹东市振兴区韩国城2楼", "phone_number": "0415-3811209", "id": 110790, "preview_image": "brands_images/full/1421.jpg", "brand_id": 1421, "create_time": "NOW()", "longitude": 124.37788666920676, "latitude": 40.112251377653415, "region_id_1": "210000", "region_id_2": "210600", "region_id_3": "210603"}, {"city": "丹东市", "name": "丹东四通金汤专卖店", "address": "辽宁省丹东市振兴区五经街金汤灯具城65-2号", "phone_number": "0415-2808598", "id": 110791, "preview_image": "brands_images/full/1421.jpg", "brand_id": 1421, "create_time": "NOW()", "longitude": 124.40074941309712, "latitude": 40.13470675115442, "region_id_1": "210000", "region_id_2": "210600", "region_id_3": "210603"}, {"city": "桓仁市", "name": "辽宁桓仁宏光专卖店", "address": "辽宁省本溪市桓仁满族自治县桓仁镇福民街", "phone_number": "13700146638", "id": 110792, "preview_image": "brands_images/full/1421.jpg", "brand_id": 1421, "create_time": "NOW()", "longitude": 125.36831499564047, "latitude": 41.278930618370644, "region_id_1": "210000", "region_id_2": "210500", "region_id_3": "210522"}, {"city": "本溪市", "name": "辽宁市本溪三维松下专卖店", "address": "辽宁本溪明兴商业广场大千灯具布艺城0―35", "phone_number": "0414-3118626", "id": 110793, "preview_image": "brands_images/full/1421.jpg", "brand_id": 1421, "create_time": "NOW()", "longitude": 123.77806236979248, "latitude": 41.32583762664885, "region_id_1": "210000", "region_id_2": "210500", "region_id_3": "210503"}, {"city": "昌图市", "name": "辽宁昌图百顺专卖店", "address": "辽宁铁岭市昌图县昌图镇滨河俪城二期第10栋8号门市", "phone_number": "15698755178", "id": 110794, "preview_image": "brands_images/full/1421.jpg", "brand_id": 1421, "create_time": "NOW()", "longitude": 124.10800576157148, "latitude": 42.78655199661202, "region_id_1": "210000", "region_id_2": "211200", "region_id_3": "211224"}, {"city": "铁岭市", "name": "铁岭同发居然之家专卖店", "address": "辽宁省铁岭市银州区汇工街140号居然之家六楼", "phone_number": "15941010088", "id": 110795, "preview_image": "brands_images/full/1421.jpg", "brand_id": 1421, "create_time": "NOW()", "longitude": 123.84052029427352, "latitude": 42.31011582232452, "region_id_1": "210000", "region_id_2": "211200", "region_id_3": "211202"}, {"city": "铁岭市", "name": "铁岭同发松下专卖店", "address": "辽宁省铁岭市银洲区兴华街五交化南门市", "phone_number": "15941010088", "id": 110796, "preview_image": "brands_images/full/1421.jpg", "brand_id": 1421, "create_time": "NOW()", "longitude": 123.85484961461594, "latitude": 42.29975701212545, "region_id_1": "210000", "region_id_2": "211200", "region_id_3": "211202"}, {"city": "鞍山市", "name": "鞍山台安县繁荣专卖店", "address": "辽宁省鞍山市台安县台安镇繁荣北街7号", "phone_number": "13942250094", "id": 110797, "preview_image": "brands_images/full/1421.jpg", "brand_id": 1421, "create_time": "NOW()", "longitude": 122.43736969277393, "latitude": 41.395910369975596, "region_id_1": "210000", "region_id_2": "210300", "region_id_3": "210321"}, {"city": "鞍山市", "name": "鞍山市十里河灯具城松下专卖店", "address": "鞍山市千山区(北京)十里河灯具城一楼", "phone_number": "0412-2573173", "id": 110798, "preview_image": "brands_images/full/1421.jpg", "brand_id": 1421, "create_time": "NOW()", "longitude": 123.01400529455033, "latitude": 41.06132852198688, "region_id_1": "210000", "region_id_2": "210300", "region_id_3": "210311"}, {"city": "鞍山市", "name": "鞍山汇松安乐专卖店", "address": "辽宁省鞍山市铁东区安乐街35栋1-5号", "phone_number": "0412-2931238", "id": 110799, "preview_image": "brands_images/full/1421.jpg", "brand_id": 1421, "create_time": "NOW()", "longitude": 122.99478513702205, "latitude": 41.1035579755206, "region_id_1": "210000", "region_id_2": "210300", "region_id_3": "210302"}, {"city": "鞍山市", "name": "鞍山汇松大德专卖店", "address": "辽宁省鞍山市铁东区安乐街大德家世界四楼", "phone_number": "0412-5580533", "id": 110800, "preview_image": "brands_images/full/1421.jpg", "brand_id": 1421, "create_time": "NOW()", "longitude": 122.99986728184086, "latitude": 41.10284878732583, "region_id_1": "210000", "region_id_2": "210300", "region_id_3": "210302"}, {"city": "绥化市", "name": "安达幸汇欧艺灯饰松下专卖店", "address": "安达市牛街市标大道与南环路交汇处6号楼3、4门市", "phone_number": "18604508818", "id": 110801, "preview_image": "brands_images/full/1421.jpg", "brand_id": 1421, "create_time": "NOW()", "longitude": 125.34705325871903, "latitude": 46.42209288996931, "region_id_1": "230000", "region_id_2": "231200", "region_id_3": "231281"}, {"city": "哈尔滨市", "name": "哈尔滨市佳视捷科技有限公司海龙旗舰店", "address": "南岗区第二巴陵街17号海龙灯饰城负一层016室", "phone_number": "15845100777", "id": 110802, "preview_image": "brands_images/full/1421.jpg", "brand_id": 1421, "create_time": "NOW()", "longitude": 126.65597504285887, "latitude": 45.75303335026352, "region_id_1": "230000", "region_id_2": "230100", "region_id_3": "230103"}, {"city": "哈尔滨市", "name": "哈尔滨长佰商贸有限公司", "address": "哈尔滨市道里区乡政街112号", "phone_number": "13946009169 /0451-84213586", "id": 110803, "preview_image": "brands_images/full/1421.jpg", "brand_id": 1421, "create_time": "NOW()", "longitude": 126.59585642989158, "latitude": 45.741277100361515, "region_id_1": "230000", "region_id_2": "230100", "region_id_3": "230102"}, {"city": "绥芬河市", "name": "迎泽松下专卖店", "address": "绥芬河市迎泽建材市场2楼", "phone_number": "13946395748", "id": 110804, "preview_image": "brands_images/full/1421.jpg", "brand_id": 1421, "create_time": "NOW()", "longitude": 131.1625361026797, "latitude": 44.4114240513246, "region_id_1": "230000", "region_id_2": "231000", "region_id_3": "231081"}, {"city": "绥芬河市", "name": "黑龙江绥芬河专卖店", "address": "黑龙江省绥芬河市迎泽市场二期二楼", "phone_number": "13946395748", "id": 110805, "preview_image": "brands_images/full/1421.jpg", "brand_id": 1421, "create_time": "NOW()", "longitude": 131.102456532855, "latitude": 44.40800517458664, "region_id_1": "230000", "region_id_2": "231000", "region_id_3": "231081"}, {"city": "尚志市", "name": "黑龙江尚志专卖店", "address": "哈尔滨道里区大成街", "phone_number": "13936363971", "id": 110806, "preview_image": "brands_images/full/1421.jpg", "brand_id": 1421, "create_time": "NOW()", "longitude": 117.2110118012229, "latitude": 39.13420178584521, "region_id_1": "120000", "region_id_2": "120100", "region_id_3": "120101"}, {"city": "齐齐哈尔市", "name": "齐齐哈尔二轻市场松下专卖店", "address": "齐齐哈尔市龙沙区通航路二轻市场精品2号楼307室", "phone_number": "13504528161", "id": 110807, "preview_image": "brands_images/full/1421.jpg", "brand_id": 1421, "create_time": "NOW()", "longitude": 123.96033663280369, "latitude": 47.33368114239403, "region_id_1": "230000", "region_id_2": "230200", "region_id_3": "230202"}, {"city": "佳木斯市", "name": "黑龙江佳木斯同江松下专卖店", "address": "黑龙江省同江市华鸿国际家居装饰城A-49", "phone_number": "15845196339", "id": 110808, "preview_image": "brands_images/full/1421.jpg", "brand_id": 1421, "create_time": "NOW()", "longitude": 132.51223019279146, "latitude": 47.64777890343111, "region_id_1": "230000", "region_id_2": "230800", "region_id_3": "230881"}, {"city": "绥化市", "name": "黑龙江绥化龙帝松下专卖店", "address": "绥化市西二环气象小区楼下(大世界东斜对面)", "phone_number": "0455-8291516", "id": 110809, "preview_image": "brands_images/full/1421.jpg", "brand_id": 1421, "create_time": "NOW()", "longitude": 126.98008411821708, "latitude": 46.6387773541173, "region_id_1": "230000", "region_id_2": "231200", "region_id_3": "231202"}, {"city": "鸡西市", "name": "黑龙江鸡西柏斯特康专卖店", "address": "鸡西市鸡冠区和平北大街32号", "phone_number": "0467-2366183", "id": 110810, "preview_image": "brands_images/full/1421.jpg", "brand_id": 1421, "create_time": "NOW()", "longitude": 130.98217924980452, "latitude": 45.3086468363446, "region_id_1": "230000", "region_id_2": "230300", "region_id_3": "230302"}, {"city": "牡丹江市", "name": "牡丹江合荣爱民专卖店", "address": "黑龙江省牡丹江市爱民街108号", "phone_number": "0453-6258961", "id": 110811, "preview_image": "brands_images/full/1421.jpg", "brand_id": 1421, "create_time": "NOW()", "longitude": 129.6282347831649, "latitude": 44.590750681583955, "region_id_1": "230000", "region_id_2": "231000", "region_id_3": "231002"}, {"city": "哈尔滨市", "name": "哈尔滨海龙松下专卖店", "address": "哈尔滨市南岗区海城街海龙灯具市场321号", "phone_number": "0451-55596727", "id": 110812, "preview_image": "brands_images/full/1421.jpg", "brand_id": 1421, "create_time": "NOW()", "longitude": 126.63876340059261, "latitude": 45.762520644665784, "region_id_1": "230000", "region_id_2": "230100", "region_id_3": "230102"}, {"city": "哈尔滨市", "name": "哈尔滨丰光松下专卖店", "address": "哈尔滨市道外区景阳街399号丰光灯具市场320号", "phone_number": "13840123010", "id": 110813, "preview_image": "brands_images/full/1421.jpg", "brand_id": 1421, "create_time": "NOW()", "longitude": 126.6420417836191, "latitude": 45.79161606046356, "region_id_1": "230000", "region_id_2": "230100", "region_id_3": "230104"}, {"city": "长春市", "name": "吉林省为实电工有限公司", "address": "长春市亚泰大街与四马路交汇万龙花园14栋1门502", "phone_number": "15043055859", "id": 110814, "preview_image": "brands_images/full/1421.jpg", "brand_id": 1421, "create_time": "NOW()", "longitude": 125.35045748554656, "latitude": 43.90197792627647, "region_id_1": "220000", "region_id_2": "220100", "region_id_3": "220102"}, {"city": "梅河口市", "name": "吉林省梅河口市蓝天灯饰松下专卖店", "address": "梅河口市梅河大街东方家居三楼", "phone_number": "18643583777", "id": 110815, "preview_image": "brands_images/full/1421.jpg", "brand_id": 1421, "create_time": "NOW()", "longitude": 125.69055472507787, "latitude": 42.53566142973517, "region_id_1": "220000", "region_id_2": "220500", "region_id_3": "220581"}, {"city": "长春市", "name": "吉林金德门业有限公司", "address": "长春市彩云街669号", "phone_number": "13304312669", "id": 110816, "preview_image": "brands_images/full/1421.jpg", "brand_id": 1421, "create_time": "NOW()", "longitude": 125.37848244398073, "latitude": 43.82968955753374, "region_id_1": "220000", "region_id_2": "220100", "region_id_3": "220102"}, {"city": "梅河口市", "name": "梅河口蓝天灯饰专卖店", "address": "吉林省梅河口市东方家居一期三楼36号蓝天灯饰城", "phone_number": "18643523888", "id": 110817, "preview_image": "brands_images/full/1421.jpg", "brand_id": 1421, "create_time": "NOW()", "longitude": 125.69055472507787, "latitude": 42.53566142973517, "region_id_1": "220000", "region_id_2": "220500", "region_id_3": "220581"}, {"city": "白城市", "name": "白城华健金辉南街专卖店", "address": "吉林省白城市金辉南街27-7", "phone_number": "15904360052", "id": 110818, "preview_image": "brands_images/full/1421.jpg", "brand_id": 1421, "create_time": "NOW()", "longitude": 122.84940490891337, "latitude": 45.623239647128464, "region_id_1": "220000", "region_id_2": "220800", "region_id_3": "220802"}, {"city": "吉林市", "name": "吉林市中东新生活专卖店", "address": "吉林市船营区越山路378号中东新生活瑞嘉灯饰馆3-7", "phone_number": "13944613037", "id": 110819, "preview_image": "brands_images/full/1421.jpg", "brand_id": 1421, "create_time": "NOW()", "longitude": 126.53498658719765, "latitude": 43.867088183411674, "region_id_1": "220000", "region_id_2": "220200", "region_id_3": "220204"}, {"city": "吉林市", "name": "吉林市星辉松下专卖店", "address": "吉林市哈达家居三楼", "phone_number": "13604473867", "id": 110820, "preview_image": "brands_images/full/1421.jpg", "brand_id": 1421, "create_time": "NOW()", "longitude": 126.57635050798153, "latitude": 43.87996492180857, "region_id_1": "220000", "region_id_2": "220200", "region_id_3": "220202"}, {"city": "通化市", "name": "吉林通化辉南松下专卖店", "address": "吉林辉南县建材城一楼门市", "phone_number": "18643583888", "id": 110821, "preview_image": "brands_images/full/1421.jpg", "brand_id": 1421, "create_time": "NOW()", "longitude": 126.34272419974899, "latitude": 42.55794888560381, "region_id_1": "220000", "region_id_2": "220500", "region_id_3": "220523"}, {"city": "伊通市", "name": "伊通满族自治县伊通镇百家汇专卖店", "address": "伊通满族自治县伊通镇体育馆东", "phone_number": "15004448886", "id": 110822, "preview_image": "brands_images/full/1421.jpg", "brand_id": 1421, "create_time": "NOW()", "longitude": 125.32750793893375, "latitude": 43.348612678888, "region_id_1": "220000", "region_id_2": "220300", "region_id_3": "220323"}, {"city": "安图市", "name": "吉林安图宏雁专卖店", "address": "延边州安图县建材街宏雁灯饰城", "phone_number": "15004448886", "id": 110823, "preview_image": "brands_images/full/1421.jpg", "brand_id": 1421, "create_time": "NOW()", "longitude": 128.91863002352946, "latitude": 43.11386083110483, "region_id_1": "220000", "region_id_2": "222400", "region_id_3": "222426"}, {"city": "延吉市", "name": "延边州延吉市天盛专卖店", "address": "延吉市天盛超市地下一层", "phone_number": "1384391991", "id": 110824, "preview_image": "brands_images/full/1421.jpg", "brand_id": 1421, "create_time": "NOW()", "longitude": 129.47130153101278, "latitude": 43.05966660114038, "region_id_1": "220000", "region_id_2": "222400", "region_id_3": "222401"}, {"city": "延吉市", "name": "延边州延吉市北大专卖店", "address": "延吉市北大建材城", "phone_number": "15834774765", "id": 110825, "preview_image": "brands_images/full/1421.jpg", "brand_id": 1421, "create_time": "NOW()", "longitude": 129.5179894309779, "latitude": 42.93207944474459, "region_id_1": "220000", "region_id_2": "222400", "region_id_3": "222401"}, {"city": "桦甸市", "name": "桦甸盛翔长胜街专卖店", "address": "吉林省桦甸市长胜街（神州高层楼下）", "phone_number": "13804443374", "id": 110826, "preview_image": "brands_images/full/1421.jpg", "brand_id": 1421, "create_time": "NOW()", "longitude": 126.75410450737944, "latitude": 42.984016478156114, "region_id_1": "220000", "region_id_2": "220200", "region_id_3": "220282"}, {"city": "松原市", "name": "松原为实经济开发区专卖店", "address": "松原市松原经济开发区青年大街4569号", "phone_number": "0438-2122701", "id": 110827, "preview_image": "brands_images/full/1421.jpg", "brand_id": 1421, "create_time": "NOW()", "longitude": 124.81292244728017, "latitude": 45.15343977601237, "region_id_1": "220000", "region_id_2": "220700", "region_id_3": "220702"}, {"city": "长春市", "name": "长春为实太阳城松下专卖店", "address": "长春市太阳城灯饰区", "phone_number": "0431-85510772", "id": 110828, "preview_image": "brands_images/full/1421.jpg", "brand_id": 1421, "create_time": "NOW()", "longitude": 125.32181655818876, "latitude": 43.91293996055754, "region_id_1": "220000", "region_id_2": "220100", "region_id_3": "220103"}, {"city": "长春市", "name": "长春为实金海马专卖店", "address": "长春市二道区远达大街与惠工路交汇处", "phone_number": "0431-84717279", "id": 110829, "preview_image": "brands_images/full/1421.jpg", "brand_id": 1421, "create_time": "NOW()", "longitude": 125.3826457838141, "latitude": 43.923829130370024, "region_id_1": "220000", "region_id_2": "220100", "region_id_3": "220105"}, {"city": "长春市", "name": "长春为实瑞家专卖店", "address": "吉林省长春市中东瑞家3楼2-13号", "phone_number": "0431-84717273", "id": 110830, "preview_image": "brands_images/full/1421.jpg", "brand_id": 1421, "create_time": "NOW()", "longitude": 125.38521234775784, "latitude": 43.916436804869655, "region_id_1": "220000", "region_id_2": "220100", "region_id_3": "220105"}, {"city": "长春市", "name": "长春为实中东专卖店", "address": "吉林省长春市中东大市场灯饰城B区5号", "phone_number": "0431-85073696", "id": 110831, "preview_image": "brands_images/full/1421.jpg", "brand_id": 1421, "create_time": "NOW()", "longitude": 125.39846986566069, "latitude": 43.8710509632353, "region_id_1": "220000", "region_id_2": "220100", "region_id_3": "220105"}, {"city": "长春市", "name": "长春为实四马路专卖店", "address": "吉林省长春市南关区西四马路177号", "phone_number": "0431-88737647", "id": 110832, "preview_image": "brands_images/full/1421.jpg", "brand_id": 1421, "create_time": "NOW()", "longitude": 125.34426266169547, "latitude": 43.901360651534276, "region_id_1": "220000", "region_id_2": "220100", "region_id_3": "220102"}, {"city": "长春市", "name": "长春为实永春专卖店", "address": "吉林省长春市南关区西四马路永春商城二楼D区235号", "phone_number": "0431-88722616", "id": 110833, "preview_image": "brands_images/full/1421.jpg", "brand_id": 1421, "create_time": "NOW()", "longitude": 125.3439523672096, "latitude": 43.90131144554638, "region_id_1": "220000", "region_id_2": "220100", "region_id_3": "220102"}, {"city": "长春市", "name": "长春四禾欧亚专卖店店", "address": "吉林省长春市东海大街88号欧亚卖场一层", "phone_number": "0431-85510772", "id": 110834, "preview_image": "brands_images/full/1421.jpg", "brand_id": 1421, "create_time": "NOW()", "longitude": 125.25346535430783, "latitude": 43.849524998176335, "region_id_1": "110000", "region_id_2": "110100", "region_id_3": "110105"}, {"city": "石家庄市", "name": "石家庄富达自动门技术服务中心", "address": "石家庄市长安区广安大街24-1-2-5-302", "phone_number": "13930119444", "id": 110835, "preview_image": "brands_images/full/1421.jpg", "brand_id": 1421, "create_time": "NOW()", "longitude": 114.52854822276018, "latitude": 38.05794228512138, "region_id_1": "130000", "region_id_2": "130100", "region_id_3": "130102"}, {"city": "承德市", "name": "承德红星美凯龙专卖店", "address": "承德市双滦区国际商贸物流园区", "phone_number": "13932465370", "id": 110836, "preview_image": "brands_images/full/1421.jpg", "brand_id": 1421, "create_time": "NOW()", "longitude": 117.80933581724904, "latitude": 41.05145316070315, "region_id_1": "130000", "region_id_2": "130800", "region_id_3": "130803"}, {"city": "秦皇岛市", "name": "亮港灯饰", "address": "彩龙国际建材城地下一层", "phone_number": "15233539978", "id": 110837, "preview_image": "brands_images/full/1421.jpg", "brand_id": 1421, "create_time": "NOW()", "longitude": 119.62678509961154, "latitude": 39.97356711918952, "region_id_1": "130000", "region_id_2": "130300", "region_id_3": "130302"}, {"city": "唐山市", "name": "唐山市海洋家电维修服务部", "address": "唐山市路北区金港静园底商C01-4", "phone_number": "13582939369", "id": 110838, "preview_image": "brands_images/full/1421.jpg", "brand_id": 1421, "create_time": "NOW()", "longitude": 118.16187518582602, "latitude": 39.66439176031722, "region_id_1": "130000", "region_id_2": "130200", "region_id_3": "130203"}, {"city": "石家庄市", "name": "石家庄市恒盛华电子有限公司", "address": "石家庄市长安区中山东路466号新世纪钻石广场A座1613", "phone_number": "13303012188", "id": 110839, "preview_image": "brands_images/full/1421.jpg", "brand_id": 1421, "create_time": "NOW()", "longitude": 114.5553252394865, "latitude": 38.04852253148623, "region_id_1": "130000", "region_id_2": "130100", "region_id_3": "130102"}, {"city": "石家庄市", "name": "石家庄市裕华区魅力灯饰商行2店", "address": "华夏灯饰城3层B区16号", "phone_number": "13731188012", "id": 110840, "preview_image": "brands_images/full/1421.jpg", "brand_id": 1421, "create_time": "NOW()", "longitude": 114.5028417481508, "latitude": 38.030599479196155, "region_id_1": "130000", "region_id_2": "130500", "region_id_3": "130502"}, {"city": "石家庄市", "name": "北京广录天源经贸有限公司石家庄分店", "address": "华北灯城一楼B区12号", "phone_number": "13911887656", "id": 110841, "preview_image": "brands_images/full/1421.jpg", "brand_id": 1421, "create_time": "NOW()", "longitude": 113.2146911264837, "latitude": 22.615518923287926, "region_id_1": 0, "region_id_2": 0, "region_id_3": 0}, {"city": "秦皇岛市", "name": "正泰灯饰", "address": "秦皇岛旭日装饰城5层", "phone_number": "13784527388", "id": 110842, "preview_image": "brands_images/full/1421.jpg", "brand_id": 1421, "create_time": "NOW()", "longitude": 119.6043676161184, "latitude": 39.945461565897574, "region_id_1": "130000", "region_id_2": "130300", "region_id_3": "130302"}, {"city": "邯郸市", "name": "邯郸家和家美灯饰", "address": "河北省邯郸市丛台路中道大厦3楼", "phone_number": "15530012380", "id": 110843, "preview_image": "brands_images/full/1421.jpg", "brand_id": 1421, "create_time": "NOW()", "longitude": 114.53935638223238, "latitude": 36.62201543599733, "region_id_1": "130000", "region_id_2": "130400", "region_id_3": "130421"}, {"city": "秦皇岛市", "name": "秦皇岛市希德自动门有限公司", "address": "秦皇岛市外环路车管所对面彩龙商贸城东", "phone_number": "13012185625", "id": 110844, "preview_image": "brands_images/full/1421.jpg", "brand_id": 1421, "create_time": "NOW()", "longitude": 119.19894836542483, "latitude": 39.70502872758875, "region_id_1": "130000", "region_id_2": "130300", "region_id_3": "130322"}, {"city": "保定市", "name": "保定市华鑫胜不锈钢玻璃装饰经销部", "address": "保定市三丰中路鑫丰不锈钢市场", "phone_number": "15030233666", "id": 110845, "preview_image": "brands_images/full/1421.jpg", "brand_id": 1421, "create_time": "NOW()", "longitude": 115.49076030780324, "latitude": 38.851919348353334, "region_id_1": "130000", "region_id_2": "130600", "region_id_3": "130604"}, {"city": "廊坊市", "name": "廊坊市金鑫不锈钢装饰工程有限公司", "address": "廊坊市银河南路150号", "phone_number": "13011481811", "id": 110846, "preview_image": "brands_images/full/1421.jpg", "brand_id": 1421, "create_time": "NOW()", "longitude": 116.70401896543035, "latitude": 39.506028899646665, "region_id_1": "130000", "region_id_2": "131000", "region_id_3": "131002"}, {"city": "唐山市", "name": "唐山市丰润区大发商贸有限公司", "address": "唐山市丰润区丰顺路2号（乐百氏东侧）", "phone_number": "13373251338", "id": 110847, "preview_image": "brands_images/full/1421.jpg", "brand_id": 1421, "create_time": "NOW()", "longitude": 118.13753353193049, "latitude": 39.80853979248527, "region_id_1": "130000", "region_id_2": "130200", "region_id_3": "130208"}, {"city": "任丘市", "name": "任丘金达西环专卖店", "address": "河北省任丘市建设路号任丘市西环建材市场灯具街", "phone_number": "13803250638", "id": 110848, "preview_image": "brands_images/full/1421.jpg", "brand_id": 1421, "create_time": "NOW()", "longitude": 116.11213514774097, "latitude": 38.706830012831475, "region_id_1": "130000", "region_id_2": "130900", "region_id_3": "130982"}, {"city": "邢台市", "name": "邢台立方鑫立方专卖店", "address": "河北省邢台市邢州北路256号鑫立方城1层", "phone_number": "0319-3218966", "id": 110849, "preview_image": "brands_images/full/1421.jpg", "brand_id": 1421, "create_time": "NOW()", "longitude": 114.52101309600683, "latitude": 37.09337244289965, "region_id_1": "130000", "region_id_2": "130500", "region_id_3": "130502"}, {"city": "石家庄市", "name": "石家庄永辉方北专卖店", "address": "河北省石家庄市长安区裕华东路号方北购物广场2层9016室", "phone_number": "15930158216", "id": 110850, "preview_image": "brands_images/full/1421.jpg", "brand_id": 1421, "create_time": "NOW()", "longitude": 114.5473253968352, "latitude": 38.041948476160044, "region_id_1": "130000", "region_id_2": "130100", "region_id_3": "130102"}, {"city": "石家庄市", "name": "石家庄纵坤珠光专卖店", "address": "河北省石家庄市平安南大街珠光灯具城209", "phone_number": "0311-86026010", "id": 110851, "preview_image": "brands_images/full/1421.jpg", "brand_id": 1421, "create_time": "NOW()", "longitude": 114.55274137058541, "latitude": 38.44456656583636, "region_id_1": "130000", "region_id_2": "130100", "region_id_3": "130125"}, {"city": "石家庄市", "name": "石家庄魅力灯饰专卖店", "address": "河北省石家庄体育南大街308号怀特灯具城B-F3-5", "phone_number": "0311-85813943", "id": 110852, "preview_image": "brands_images/full/1421.jpg", "brand_id": 1421, "create_time": "NOW()", "longitude": 114.53942007568628, "latitude": 38.02644505040284, "region_id_1": "130000", "region_id_2": "130100", "region_id_3": "130108"}, {"city": "衡水市", "name": "衡水市金锐电器销售处东方专卖店", "address": "河北省衡水市红旗大街鑫城商贸广场", "phone_number": "13315856668", "id": 110853, "preview_image": "brands_images/full/1421.jpg", "brand_id": 1421, "create_time": "NOW()", "longitude": 115.70100897921031, "latitude": 37.74551089276563, "region_id_1": "130000", "region_id_2": "131100", "region_id_3": "131102"}, {"city": "邯郸市", "name": "邯郸富士山专卖店", "address": "河北省邯郸市和平路202号", "phone_number": "13703105806", "id": 110854, "preview_image": "brands_images/full/1421.jpg", "brand_id": 1421, "create_time": "NOW()", "longitude": 114.49429366785013, "latitude": 36.61060583596216, "region_id_1": "130000", "region_id_2": "130400", "region_id_3": "130403"}, {"city": "沧州市", "name": "沧州龙腾祥云专卖店", "address": "河北省沧州市运河区南大街342号祥云装饰城2层208室", "phone_number": "15031158000", "id": 110855, "preview_image": "brands_images/full/1421.jpg", "brand_id": 1421, "create_time": "NOW()", "longitude": 116.86842179049124, "latitude": 38.30239938388518, "region_id_1": "130000", "region_id_2": "130900", "region_id_3": "130903"}, {"city": "保定市", "name": "涿州明盛灯世界", "address": "涿州市桃园路建材城灯世界", "phone_number": "0312-3669653", "id": 110856, "preview_image": "brands_images/full/1421.jpg", "brand_id": 1421, "create_time": "NOW()", "longitude": 115.98564998779871, "latitude": 39.487063388418846, "region_id_1": "130000", "region_id_2": "130600", "region_id_3": "130681"}, {"city": "保定市", "name": "保定市鑫丰市场今朝专卖店", "address": "保定市三丰中路鑫丰市场", "phone_number": "0312-2163198", "id": 110857, "preview_image": "brands_images/full/1421.jpg", "brand_id": 1421, "create_time": "NOW()", "longitude": 115.4895950079296, "latitude": 38.851675280816174, "region_id_1": "130000", "region_id_2": "130600", "region_id_3": "130604"}, {"city": "保定市", "name": "保定三丰龙座专卖店", "address": "河北省保定市高新区朝阳北大街鑫丰装饰（龙座）城3层", "phone_number": "13171688888", "id": 110858, "preview_image": "brands_images/full/1421.jpg", "brand_id": 1421, "create_time": "NOW()", "longitude": 115.46830862941255, "latitude": 38.896753882370824, "region_id_1": "130000", "region_id_2": "130600", "region_id_3": "130602"}, {"city": "张家口市", "name": "张家口华耐专卖店", "address": "河北省张家口市桥东区德胜南街察哈尔广场6号楼底商华耐家居二期", "phone_number": "13903136969", "id": 110859, "preview_image": "brands_images/full/1421.jpg", "brand_id": 1421, "create_time": "NOW()", "longitude": 114.91210162500138, "latitude": 40.76488791810002, "region_id_1": "130000", "region_id_2": "130500", "region_id_3": "130502"}, {"city": "廊坊市", "name": "廊坊辉煌星空专卖店", "address": "河北省廊坊市广阳区96号星空灯饰城A14", "phone_number": "13131608966", "id": 110860, "preview_image": "brands_images/full/1421.jpg", "brand_id": 1421, "create_time": "NOW()", "longitude": 116.73308508018943, "latitude": 39.542048664284, "region_id_1": "130000", "region_id_2": "131000", "region_id_3": "131003"}, {"city": "承德市", "name": "承德滦平鑫港专卖店", "address": "河北省承德市滦平县05鑫港小区B7-9底商", "phone_number": "15243388262", "id": 110861, "preview_image": "brands_images/full/1421.jpg", "brand_id": 1421, "create_time": "NOW()", "longitude": 117.33599555759004, "latitude": 40.9399644859291, "region_id_1": "130000", "region_id_2": "130800", "region_id_3": "130824"}, {"city": "承德市", "name": "承德平泉爱家专卖店", "address": "河北承德市平泉县水岸华庭3-3-99#-4楼", "phone_number": "13831452333", "id": 110862, "preview_image": "brands_images/full/1421.jpg", "brand_id": 1421, "create_time": "NOW()", "longitude": 118.70000935056336, "latitude": 41.00917317819385, "region_id_1": "130000", "region_id_2": "130800", "region_id_3": "130823"}, {"city": "承德市", "name": "承德市双滦区家兴专卖店", "address": "承德市双滦区元宝山大街18号", "phone_number": "18233868212", "id": 110863, "preview_image": "brands_images/full/1421.jpg", "brand_id": 1421, "create_time": "NOW()", "longitude": 117.82700010218706, "latitude": 40.9814272089097, "region_id_1": "130000", "region_id_2": "130800", "region_id_3": "130803"}, {"city": "承德市", "name": "承德盛源轩松下专卖店", "address": "河北省承德市双桥区金龙建材城G15", "phone_number": "0314-5909858", "id": 110864, "preview_image": "brands_images/full/1421.jpg", "brand_id": 1421, "create_time": "NOW()", "longitude": 117.9483552423789, "latitude": 40.971406352197, "region_id_1": "130000", "region_id_2": "130800", "region_id_3": "130802"}, {"city": "秦皇岛市", "name": "秦皇岛玉宫鑫源店", "address": "秦皇岛玉宫灯具装饰有限公司", "phone_number": "0335-3040144", "id": 110865, "preview_image": "brands_images/full/1421.jpg", "brand_id": 1421, "create_time": "NOW()", "longitude": 119.60679953933739, "latitude": 39.93690859804827, "region_id_1": "130000", "region_id_2": "130300", "region_id_3": "130302"}, {"city": "青龙市", "name": "青龙易兴林装饰专卖店", "address": "青龙县福万家建材城5号楼B1室", "phone_number": "13383155533", "id": 110866, "preview_image": "brands_images/full/1421.jpg", "brand_id": 1421, "create_time": "NOW()", "longitude": 119.13758245072086, "latitude": 40.35365030864851, "region_id_1": "130000", "region_id_2": "130300", "region_id_3": "130321"}, {"city": "唐山市", "name": "唐山得惠建设南路专卖店", "address": "河北省唐山市建设南路50号", "phone_number": "0315-2801666", "id": 110867, "preview_image": "brands_images/full/1421.jpg", "brand_id": 1421, "create_time": "NOW()", "longitude": 118.18376880718982, "latitude": 39.636657653461185, "region_id_1": "130000", "region_id_2": "130200", "region_id_3": "130203"}, {"city": "唐山市", "name": "唐山中盛专卖店", "address": "河北省唐山市高新区龙富南道188号", "phone_number": "0315-3198273", "id": 110868, "preview_image": "brands_images/full/1421.jpg", "brand_id": 1421, "create_time": "NOW()", "longitude": 118.19110700112115, "latitude": 39.67706341589598, "region_id_1": "130000", "region_id_2": "130200", "region_id_3": "130203"}, {"city": "唐山市", "name": "唐山路南和意南方灯具专卖店", "address": "河北省唐山市南新道南方灯具市场258号", "phone_number": "0315-7063000", "id": 110869, "preview_image": "brands_images/full/1421.jpg", "brand_id": 1421, "create_time": "NOW()", "longitude": 118.26554018066078, "latitude": 39.66118732943554, "region_id_1": "130000", "region_id_2": "130200", "region_id_3": "130205"}, {"city": "迁安市", "name": "迁安万嘉鑫颖家居松下专卖店", "address": "迁安万嘉建材城D2-1-6", "phone_number": "15931558377", "id": 110870, "preview_image": "brands_images/full/1421.jpg", "brand_id": 1421, "create_time": "NOW()", "longitude": 118.68695461732312, "latitude": 40.0404425132602, "region_id_1": "130000", "region_id_2": "130200", "region_id_3": "130283"}, {"city": "银川市", "name": "银川百川科技电控设备有限公司", "address": "银川市清和南街531号", "phone_number": "13909577005", "id": 110871, "preview_image": "brands_images/full/1421.jpg", "brand_id": 1421, "create_time": "NOW()", "longitude": 106.29245430621482, "latitude": 38.45540604447741, "region_id_1": "640000", "region_id_2": "640100", "region_id_3": "640104"}, {"city": "银川市", "name": "宁夏万家德力西家居电报有限公司", "address": "长城东路855号", "phone_number": 0, "id": 110872, "preview_image": "brands_images/full/1421.jpg", "brand_id": 1421, "create_time": "NOW()", "longitude": 120.58108925138112, "latitude": 27.998810505158154, "region_id_1": "330000", "region_id_2": "330300", "region_id_3": "330304"}, {"city": "银川市", "name": "银川森城商贸有限公司", "address": "银川市凤凰南街凤凰花园10号楼31号", "phone_number": "13895379481", "id": 110873, "preview_image": "brands_images/full/1421.jpg", "brand_id": 1421, "create_time": "NOW()", "longitude": 106.26623245307333, "latitude": 38.463974751490234, "region_id_1": "640000", "region_id_2": "640100", "region_id_3": "640104"}, {"city": "银川市", "name": "银川引亮长城专卖店", "address": "银川市兴庆区长城东路418号", "phone_number": "0951-4109945", "id": 110874, "preview_image": "brands_images/full/1421.jpg", "brand_id": 1421, "create_time": "NOW()", "longitude": 106.28512985456119, "latitude": 38.46088205736794, "region_id_1": "640000", "region_id_2": "640100", "region_id_3": "640104"}, {"city": "乌兰浩特市", "name": "内蒙古乌兰浩特市鑫松下照明", "address": "乌兰大街1128号", "phone_number": "15104856700", "id": 110875, "preview_image": "brands_images/full/1421.jpg", "brand_id": 1421, "create_time": "NOW()", "longitude": 124.83217018207807, "latitude": 45.124705409396014, "region_id_1": "220000", "region_id_2": "220700", "region_id_3": "220721"}, {"city": "呼和浩特市", "name": "呼市新城区雷盛灯饰", "address": "内蒙古呼和浩特新城区兴安北路84号B1层", "phone_number": 0, "id": 110876, "preview_image": "brands_images/full/1421.jpg", "brand_id": 1421, "create_time": "NOW()", "longitude": 111.70368241621036, "latitude": 40.84301992004733, "region_id_1": "150000", "region_id_2": "150100", "region_id_3": "150102"}, {"city": "呼和浩特市", "name": "呼市新城区网林门业经销部", "address": "内蒙古呼市新城区海东路公安厅对面名岳岛酒店楼下松下门业", "phone_number": "15947118086", "id": 110877, "preview_image": "brands_images/full/1421.jpg", "brand_id": 1421, "create_time": "NOW()", "longitude": 111.70343945062076, "latitude": 40.85274294580786, "region_id_1": "150000", "region_id_2": "150100", "region_id_3": "150102"}, {"city": "呼和浩特市", "name": "新城区网林门业经销部", "address": "呼市新城区海东路公安厅对面名岳岛酒店楼下瑞德玛门业", "phone_number": "15947118086", "id": 110878, "preview_image": "brands_images/full/1421.jpg", "brand_id": 1421, "create_time": "NOW()", "longitude": 111.70343945062076, "latitude": 40.85274294580786, "region_id_1": "150000", "region_id_2": "150100", "region_id_3": "150102"}, {"city": "呼伦贝尔市", "name": "内蒙古呼伦贝尔市阿荣旗松下专卖店", "address": "内蒙古呼伦贝尔市阿荣旗西二道街鑫星家园16号楼15号商铺", "phone_number": "0470-2366260", "id": 110879, "preview_image": "brands_images/full/1421.jpg", "brand_id": 1421, "create_time": "NOW()", "longitude": 123.47045114061467, "latitude": 48.13470244069525, "region_id_1": "150000", "region_id_2": "150700", "region_id_3": "150721"}, {"city": "乌兰浩特市", "name": "内蒙乌兰浩特市我爱我家松下专卖店", "address": "内蒙古乌兰浩特市城中城3期12号门市", "phone_number": "15248209077", "id": 110880, "preview_image": "brands_images/full/1421.jpg", "brand_id": 1421, "create_time": "NOW()", "longitude": 122.08153380950657, "latitude": 46.11694357016496, "region_id_1": "150000", "region_id_2": "152200", "region_id_3": "152201"}, {"city": "赤峰市", "name": "赤峰泽吉和美专卖店", "address": "和美建材城B区B413号", "phone_number": "13848884777", "id": 110881, "preview_image": "brands_images/full/1421.jpg", "brand_id": 1421, "create_time": "NOW()", "longitude": 118.88494464675053, "latitude": 42.23876461279681, "region_id_1": "150000", "region_id_2": "150400", "region_id_3": "150428"}, {"city": "呼和浩特市", "name": "呼和浩元和专卖店", "address": "呼和浩特回民区海西街元和灯具城", "phone_number": "15304718282", "id": 110882, "preview_image": "brands_images/full/1421.jpg", "brand_id": 1421, "create_time": "NOW()", "longitude": 111.59688559509647, "latitude": 40.83889476378789, "region_id_1": "150000", "region_id_2": "150100", "region_id_3": "150103"}, {"city": "呼和浩特市", "name": "呼和浩特雷盛欣安专卖店", "address": "呼和浩特市兴安北路欣安灯饰103号", "phone_number": "15248155888", "id": 110883, "preview_image": "brands_images/full/1421.jpg", "brand_id": 1421, "create_time": "NOW()", "longitude": 111.70325080646367, "latitude": 40.844195408781395, "region_id_1": "150000", "region_id_2": "150100", "region_id_3": "150102"}, {"city": "呼和浩特市", "name": "呼和浩特欣安佳典灯饰专卖店", "address": "内蒙古兴安北路润宇欣安灯饰城112号", "phone_number": "13500693322", "id": 110884, "preview_image": "brands_images/full/1421.jpg", "brand_id": 1421, "create_time": "NOW()", "longitude": 111.70324458659631, "latitude": 40.84424254184184, "region_id_1": "150000", "region_id_2": "150100", "region_id_3": "150102"}, {"city": "鄂尔多斯市", "name": "内蒙鄂尔多斯达拉特旗专卖店", "address": "鄂尔多斯达拉特旗利鑫家园AS3 幢55号底商", "phone_number": "18947792260", "id": 110885, "preview_image": "brands_images/full/1421.jpg", "brand_id": 1421, "create_time": "NOW()", "longitude": 109.86619090676432, "latitude": 40.22026447389275, "region_id_1": "150000", "region_id_2": "150600", "region_id_3": "150621"}, {"city": "鄂尔多斯市", "name": "内蒙鄂尔多斯伟普德专卖店", "address": "内蒙古鄂尔多斯市东胜区天骄路鑫通大厦B座9004室", "phone_number": "18804783999", "id": 110886, "preview_image": "brands_images/full/1421.jpg", "brand_id": 1421, "create_time": "NOW()", "longitude": 109.9833717585932, "latitude": 39.826239067875555, "region_id_1": "150000", "region_id_2": "150600", "region_id_3": "150602"}, {"city": "包头市", "name": "包头伟星金荣专卖店", "address": "包头市青山区友谊大街金荣建材城D区12号", "phone_number": "13804722720", "id": 110887, "preview_image": "brands_images/full/1421.jpg", "brand_id": 1421, "create_time": "NOW()", "longitude": 109.86111912855279, "latitude": 40.64960731752002, "region_id_1": "150000", "region_id_2": "150200", "region_id_3": "150204"}, {"city": "包头市", "name": "包头伟星三森专卖店", "address": "民族东路三森建材城纽约厅3楼4号", "phone_number": "13804722720", "id": 110888, "preview_image": "brands_images/full/1421.jpg", "brand_id": 1421, "create_time": "NOW()", "longitude": 113.38584171885175, "latitude": 22.5248681380689, "region_id_1": 0, "region_id_2": 0, "region_id_3": 0}, {"city": "海南省", "name": "炬星灯饰", "address": "海南省琼海市爱国路", "phone_number": "18976238011", "id": 110889, "preview_image": "brands_images/full/1421.jpg", "brand_id": 1421, "create_time": "NOW()", "longitude": 110.41435935151465, "latitude": 19.214830368616877, "region_id_1": "460000", "region_id_2": "469000", "region_id_3": "469002"}, {"city": "海口市", "name": "海口朗力灯饰", "address": "海府路金鹿装饰城A3-089", "phone_number": "18976769755", "id": 110890, "preview_image": "brands_images/full/1421.jpg", "brand_id": 1421, "create_time": "NOW()", "longitude": 110.36489466422631, "latitude": 20.01686719209891, "region_id_1": "460000", "region_id_2": "460100", "region_id_3": "460107"}, {"city": "海口市", "name": "海口宏元科技有限公司", "address": "海口市白龙北路白龙新城", "phone_number": "0898-66202900", "id": 110891, "preview_image": "brands_images/full/1421.jpg", "brand_id": 1421, "create_time": "NOW()", "longitude": 110.3681214117527, "latitude": 20.043334604887615, "region_id_1": "460000", "region_id_2": "460100", "region_id_3": "460108"}, {"city": "海口市", "name": "海南世纪亚明金鹿专卖店", "address": "海南省海口市海府路152号金鹿灯饰城第5栋8铺", "phone_number": "0898-65315959", "id": 110892, "preview_image": "brands_images/full/1421.jpg", "brand_id": 1421, "create_time": "NOW()", "longitude": 110.36630091029832, "latitude": 20.01536773934502, "region_id_1": "460000", "region_id_2": "460100", "region_id_3": "460107"}, {"city": "南宁市", "name": "广西建腾科技有限公司", "address": "广西南宁市经开区国凯大道西19号联讯U谷A栋B座301", "phone_number": "0771-3155925", "id": 110893, "preview_image": "brands_images/full/1421.jpg", "brand_id": 1421, "create_time": "NOW()", "longitude": 108.28374703474095, "latitude": 22.75724237644353, "region_id_1": "450000", "region_id_2": "450100", "region_id_3": "450105"}, {"city": "南宁市", "name": "广西南宁瑞博尔贸易有限公司", "address": "广西省南宁市兴宁区快环建材市场E1栋12号瑞博尔科技五金", "phone_number": "17736607520", "id": 110894, "preview_image": "brands_images/full/1421.jpg", "brand_id": 1421, "create_time": "NOW()", "longitude": 108.3483247473058, "latitude": 22.871438136148583, "region_id_1": "450000", "region_id_2": "450100", "region_id_3": "450102"}, {"city": "南宁市", "name": "松下华南城旗舰店", "address": "江南区沙井大道华南城", "phone_number": "13977194003", "id": 110895, "preview_image": "brands_images/full/1421.jpg", "brand_id": 1421, "create_time": "NOW()", "longitude": 108.25563278786547, "latitude": 22.80808743005187, "region_id_1": "450000", "region_id_2": "450100", "region_id_3": "450105"}, {"city": "柳州市", "name": "广西柳州市泽意电工灯饰有限公司二店", "address": "谷埠街安华灯饰城", "phone_number": "13907726437", "id": 110896, "preview_image": "brands_images/full/1421.jpg", "brand_id": 1421, "create_time": "NOW()", "longitude": 109.41399331125834, "latitude": 24.30914523535114, "region_id_1": "450000", "region_id_2": "450200", "region_id_3": "450203"}, {"city": "南宁市", "name": "南宁松电有限公司", "address": "南宁市民主路33号", "phone_number": "13877157017", "id": 110897, "preview_image": "brands_images/full/1421.jpg", "brand_id": 1421, "create_time": "NOW()", "longitude": 108.33698575306065, "latitude": 22.827011675678648, "region_id_1": "450000", "region_id_2": "450100", "region_id_3": "450103"}, {"city": "南宁市", "name": "广西踏歌时代网络技术有限公司", "address": "南宁市民主路33-71号", "phone_number": "13877157017", "id": 110898, "preview_image": "brands_images/full/1421.jpg", "brand_id": 1421, "create_time": "NOW()", "longitude": 108.33487325111219, "latitude": 22.826775617212324, "region_id_1": "450000", "region_id_2": "450100", "region_id_3": "450103"}, {"city": "柳州市", "name": "柳州泽意灯饰有限公司", "address": "柳州市白沙路4-1-18号门面", "phone_number": "13907726437/ 0772-2501068", "id": 110899, "preview_image": "brands_images/full/1421.jpg", "brand_id": 1421, "create_time": "NOW()", "longitude": 109.41994970560137, "latitude": 24.349281099957004, "region_id_1": "450000", "region_id_2": "450200", "region_id_3": "450205"}, {"city": "玉林市", "name": "华盈灯饰", "address": "玉林市新民路511号", "phone_number": "13321751256", "id": 110900, "preview_image": "brands_images/full/1421.jpg", "brand_id": 1421, "create_time": "NOW()", "longitude": 110.15109500019197, "latitude": 22.624400001329715, "region_id_1": "450000", "region_id_2": "450900", "region_id_3": "450902"}, {"city": "玉林市", "name": "玉林毅德市场松下专卖店", "address": "玉林市毅德市场", "phone_number": "13321751256", "id": 110901, "preview_image": "brands_images/full/1421.jpg", "brand_id": 1421, "create_time": "NOW()", "longitude": 110.15167631614493, "latitude": 22.643973608377276, "region_id_1": "450000", "region_id_2": "450900", "region_id_3": "450902"}, {"city": "南宁市", "name": "广西南宁西部之光灯饰部", "address": "南宁市快速环道美家国际建材广场2层", "phone_number": "0771-3948699", "id": 110902, "preview_image": "brands_images/full/1421.jpg", "brand_id": 1421, "create_time": "NOW()", "longitude": 108.30422503261433, "latitude": 22.879654765831543, "region_id_1": "450000", "region_id_2": "450100", "region_id_3": "450107"}, {"city": "南宁市", "name": "3D建材城松下专卖店", "address": "广西省南宁市快环建材市场 南宁东盟岱岳3D建材城", "phone_number": "18648914151", "id": 110903, "preview_image": "brands_images/full/1421.jpg", "brand_id": 1421, "create_time": "NOW()", "longitude": 108.3439582881386, "latitude": 22.871682912378443, "region_id_1": "450000", "region_id_2": "450100", "region_id_3": "450102"}, {"city": "柳州市", "name": "柳州佳辰五交化有限公司", "address": "柳州市西环路柳州西环市场灯饰一条街", "phone_number": "13557322322", "id": 110904, "preview_image": "brands_images/full/1421.jpg", "brand_id": 1421, "create_time": "NOW()", "longitude": 109.38416339158823, "latitude": 24.331300224805336, "region_id_1": "450000", "region_id_2": "450200", "region_id_3": "450204"}, {"city": "桂林市", "name": "桂林千丽宫灯饰", "address": "桂林市中山北路 精品家私城", "phone_number": "18978385988", "id": 110905, "preview_image": "brands_images/full/1421.jpg", "brand_id": 1421, "create_time": "NOW()", "longitude": 110.68149349219398, "latitude": 25.60946015838779, "region_id_1": "450000", "region_id_2": "450300", "region_id_3": "450325"}, {"city": "柳州市", "name": "柳州市柳南区肇鑫装饰材料经营部", "address": "柳州市西环路建材超级市场C1区1-3号", "phone_number": "0772-3962833", "id": 110906, "preview_image": "brands_images/full/1421.jpg", "brand_id": 1421, "create_time": "NOW()", "longitude": 109.38416339158823, "latitude": 24.331300224805336, "region_id_1": "450000", "region_id_2": "450200", "region_id_3": "450204"}, {"city": "南宁市", "name": "南宁大嘉汇专卖店", "address": "广西省南宁市昆仑大道95号东盟国际建材家居城", "phone_number": "0771-3314395", "id": 110907, "preview_image": "brands_images/full/1421.jpg", "brand_id": 1421, "create_time": "NOW()", "longitude": 108.3897389767778, "latitude": 22.873460676693234, "region_id_1": "450000", "region_id_2": "450100", "region_id_3": "450102"}, {"city": "南宁市", "name": "南宁大享昌灯饰人民西路店", "address": "广西省南宁市人民西路50-22号", "phone_number": "0771-2839968", "id": 110908, "preview_image": "brands_images/full/1421.jpg", "brand_id": 1421, "create_time": "NOW()", "longitude": 108.32006964971964, "latitude": 22.821876009286832, "region_id_1": "450000", "region_id_2": "450100", "region_id_3": "450107"}, {"city": "梧州市", "name": "梧州市长洲区卓美灯饰喜来居店", "address": "广西省梧州市习题三路喜来居三楼38-39铺", "phone_number": "13977496386", "id": 110909, "preview_image": "brands_images/full/1421.jpg", "brand_id": 1421, "create_time": "NOW()", "longitude": 111.2902350716792, "latitude": 23.477608246595132, "region_id_1": "450000", "region_id_2": "450400", "region_id_3": "450405"}, {"city": "南宁市", "name": "南宁宏辉灯饰", "address": "南宁市明秀东路88号建材市场26栋13-16号", "phone_number": "0771-3314396", "id": 110910, "preview_image": "brands_images/full/1421.jpg", "brand_id": 1421, "create_time": "NOW()", "longitude": 108.34394767735392, "latitude": 22.86237471653838, "region_id_1": "450000", "region_id_2": "450100", "region_id_3": "450102"}, {"city": "遵义市", "name": "贵州诺伊曼门业销售有限公司", "address": "遵义市红花岗区镇隆居委会旁", "phone_number": "13087876618", "id": 110911, "preview_image": "brands_images/full/1421.jpg", "brand_id": 1421, "create_time": "NOW()", "longitude": 106.92265113614084, "latitude": 27.67044502883699, "region_id_1": "520000", "region_id_2": "520300", "region_id_3": "520302"}, {"city": "贵阳市", "name": "贵阳南明冠达玻璃商行", "address": "贵阳市中新装饰材料市场B-2-24号", "phone_number": "0851-85503536", "id": 110912, "preview_image": "brands_images/full/1421.jpg", "brand_id": 1421, "create_time": "NOW()", "longitude": 106.73407259134221, "latitude": 26.569812592273397, "region_id_1": "520000", "region_id_2": "520100", "region_id_3": "520102"}, {"city": "贵阳市", "name": "贵阳汇森合源贸易有限公司", "address": "贵阳市云岩区友谊路百灵阳光家园", "phone_number": "13885155552", "id": 110913, "preview_image": "brands_images/full/1421.jpg", "brand_id": 1421, "create_time": "NOW()", "longitude": 106.72251521543443, "latitude": 26.59536895113593, "region_id_1": "520000", "region_id_2": "520100", "region_id_3": "520103"}, {"city": "贵阳市", "name": "贵阳祥和科技专卖店", "address": "贵州省贵阳市法院街31号市府灯饰广场1-03-1号", "phone_number": "0851-5840189", "id": 110914, "preview_image": "brands_images/full/1421.jpg", "brand_id": 1421, "create_time": "NOW()", "longitude": 106.7161881011872, "latitude": 26.581581360106213, "region_id_1": "520000", "region_id_2": "520100", "region_id_3": "520102"}, {"city": "南昌市", "name": "江西恒源电子工程有限公司", "address": "江西省南昌市西湖区抚河南路635号江西省精品装潢建材城3号商铺-C-13室", "phone_number": "0791-86831174", "id": 110915, "preview_image": "brands_images/full/1421.jpg", "brand_id": 1421, "create_time": "NOW()", "longitude": 115.9102397113687, "latitude": 28.656874373549662, "region_id_1": "360000", "region_id_2": "360100", "region_id_3": "360104"}, {"city": "南昌市", "name": "江西联信大市场炫庭巨汇建材家居店", "address": "江西江西巨汇建材家居广场 4层127-129号 广场 4层127-129号", "phone_number": "0791-86789126", "id": 110916, "preview_image": "brands_images/full/1421.jpg", "brand_id": 1421, "create_time": "NOW()", "longitude": 115.909291999056, "latitude": 28.65476615551367, "region_id_1": "360000", "region_id_2": "360100", "region_id_3": "360104"}, {"city": "昆明市", "name": "昆明松电门控设备有限公司", "address": "昆明市官渡区昌宏路国雅装饰建材市场A区3栋1号", "phone_number": "13888995682", "id": 110917, "preview_image": "brands_images/full/1421.jpg", "brand_id": 1421, "create_time": "NOW()", "longitude": 102.76126779560147, "latitude": 24.995159168118565, "region_id_1": "530000", "region_id_2": "530100", "region_id_3": "530111"}, {"city": "昆明市", "name": "云南品讯智能设备有限公司", "address": "云南昆明前兴路大商汇对面李家场新村临街2号铺", "phone_number": "13619632005", "id": 110918, "preview_image": "brands_images/full/1421.jpg", "brand_id": 1421, "create_time": "NOW()", "longitude": 102.71221335290517, "latitude": 24.991010970373587, "region_id_1": "530000", "region_id_2": "530100", "region_id_3": "530112"}, {"city": "昆明市", "name": "昆明业科贸有限公司", "address": "昆明市官度区恒兴路833号恒兴酒店13楼", "phone_number": "0871-5341639/ 13888401102", "id": 110919, "preview_image": "brands_images/full/1421.jpg", "brand_id": 1421, "create_time": "NOW()", "longitude": 102.70093326773873, "latitude": 25.053896753410427, "region_id_1": "530000", "region_id_2": "530100", "region_id_3": "530102"}, {"city": "昆明市", "name": "昆明百利新商贸有限公司", "address": "云南省昆明市兴科路大商汇――卫浴精品区A02幢209号", "phone_number": "0871-64669937", "id": 110920, "preview_image": "brands_images/full/1421.jpg", "brand_id": 1421, "create_time": "NOW()", "longitude": 102.71180426727098, "latitude": 24.989386155285388, "region_id_1": "530000", "region_id_2": "530100", "region_id_3": "530112"}, {"city": "西双版纳市", "name": "西双版纳万和专卖店", "address": "云南省景洪市西双版纳旅游渡假区国际家居商城", "phone_number": "18988121277", "id": 110921, "preview_image": "brands_images/full/1421.jpg", "brand_id": 1421, "create_time": "NOW()", "longitude": 100.92731774533851, "latitude": 22.111413013255493, "region_id_1": "530000", "region_id_2": "532800", "region_id_3": "532801"}, {"city": "昆明市", "name": "昆明勃沛华洋家居专卖店", "address": "昆明市官渡区关雨路8号华洋家居广场灯具区A909-1号", "phone_number": "13808728535", "id": 110922, "preview_image": "brands_images/full/1421.jpg", "brand_id": 1421, "create_time": "NOW()", "longitude": 102.76838260071283, "latitude": 24.999355812109627, "region_id_1": "530000", "region_id_2": "530100", "region_id_3": "530111"}, {"city": "瑞丽市", "name": "云南瑞丽闽建专卖店", "address": "瑞丽市团结建材市场6栋9――11号", "phone_number": "15096990889", "id": 110923, "preview_image": "brands_images/full/1421.jpg", "brand_id": 1421, "create_time": "NOW()", "longitude": 97.8611502108477, "latitude": 24.006788465926235, "region_id_1": "530000", "region_id_2": "533100", "region_id_3": "533102"}, {"city": "保山市", "name": "云南保山佳玉专卖店", "address": "保山市隆阳区泰龙商场A区15号", "phone_number": "13618751566", "id": 110924, "preview_image": "brands_images/full/1421.jpg", "brand_id": 1421, "create_time": "NOW()", "longitude": 99.18550394627064, "latitude": 25.12071770010692, "region_id_1": "530000", "region_id_2": "530500", "region_id_3": "530502"}, {"city": "乌鲁木齐市", "name": "新疆分享贸易有限公司", "address": "乌鲁木齐友好南路417号天章大厦1306", "phone_number": "13909922353", "id": 110925, "preview_image": "brands_images/full/1421.jpg", "brand_id": 1421, "create_time": "NOW()", "longitude": 87.60147097124522, "latitude": 43.81520831491331, "region_id_1": "650000", "region_id_2": "650100", "region_id_3": "650103"}, {"city": "乌鲁木齐市", "name": "乌鲁木齐华暄松下专卖店", "address": "乌鲁木齐美居物流园E座灯饰城A-307", "phone_number": "0991-6681678", "id": 110926, "preview_image": "brands_images/full/1421.jpg", "brand_id": 1421, "create_time": "NOW()", "longitude": 87.59029830733436, "latitude": 43.870513039458196, "region_id_1": "130000", "region_id_2": "130600", "region_id_3": "130602"}, {"city": "兰州市", "name": "兰州尼奥商贸有限公司", "address": "兰州市城关区雁滩家具市场停车场北4号", "phone_number": "13893337713", "id": 110927, "preview_image": "brands_images/full/1421.jpg", "brand_id": 1421, "create_time": "NOW()", "longitude": 103.8675253514074, "latitude": 36.06538777104316, "region_id_1": "540000", "region_id_2": "540100", "region_id_3": "540102"}, {"city": "兰州市", "name": "兰州华博专卖店", "address": "兰州市民主西路金诚灯饰城A41号（原龙马灯饰城）", "phone_number": "0931-8857718", "id": 110928, "preview_image": "brands_images/full/1421.jpg", "brand_id": 1421, "create_time": "NOW()", "longitude": 103.84709089709025, "latitude": 36.04944180839077, "region_id_1": "540000", "region_id_2": "540100", "region_id_3": "540102"}, {"city": "枣阳市", "name": "枣阳市尚嘉三环书院街专卖店", "address": "湖北省枣阳市三环书院街16号119-120号", "phone_number": "13986352969", "id": 110929, "preview_image": "brands_images/full/1421.jpg", "brand_id": 1421, "create_time": "NOW()", "longitude": 112.78421262951608, "latitude": 32.136648437578906, "region_id_1": "420000", "region_id_2": "420600", "region_id_3": "420683"}, {"city": "恩施市", "name": "恩施德瑞电器生态园专卖店", "address": "湖北省恩施市马鞍山路41号华硒生态园45幢9-10号", "phone_number": "13986848403", "id": 110930, "preview_image": "brands_images/full/1421.jpg", "brand_id": 1421, "create_time": "NOW()", "longitude": 109.51314451918748, "latitude": 30.279095842470237, "region_id_1": "420000", "region_id_2": "422800", "region_id_3": "422801"}, {"city": "襄阳市", "name": "襄阳市盛嘉宏图中原建材城店", "address": "湖北省襄阳市领秀中原建材城一楼B103号", "phone_number": "13507288877", "id": 110931, "preview_image": "brands_images/full/1421.jpg", "brand_id": 1421, "create_time": "NOW()", "longitude": 112.1533123771371, "latitude": 32.06662402536054, "region_id_1": "420000", "region_id_2": "420600", "region_id_3": "420606"}, {"city": "宜昌市", "name": "宜昌福华专卖店", "address": "湖北省宜昌市开发区港窑路金东山建材城四层", "phone_number": "13986806879", "id": 110932, "preview_image": "brands_images/full/1421.jpg", "brand_id": 1421, "create_time": "NOW()", "longitude": 111.33438320812346, "latitude": 30.705958404277624, "region_id_1": "420000", "region_id_2": "420500", "region_id_3": "420502"}, {"city": "武汉市", "name": "武汉中嘉大武汉专卖店", "address": "湖北省武汉市~口区解放大道201号大武汉家装A-223号", "phone_number": "027-83998531", "id": 110933, "preview_image": "brands_images/full/1421.jpg", "brand_id": 1421, "create_time": "NOW()", "longitude": 114.22949340909447, "latitude": 30.59032460176473, "region_id_1": "420000", "region_id_2": "420100", "region_id_3": "420104"}, {"city": "武汉市", "name": "武汉中嘉融科专卖店", "address": "湖北省武汉市江岸区解放南路168-43号", "phone_number": "027-82213600", "id": 110934, "preview_image": "brands_images/full/1421.jpg", "brand_id": 1421, "create_time": "NOW()", "longitude": 114.30401413928571, "latitude": 30.60210221632959, "region_id_1": "420000", "region_id_2": "420100", "region_id_3": "420102"}, {"city": "武汉市", "name": "武汉中嘉汉来专卖店", "address": "湖北省武汉市江汉区民权路98号汉来广场1FD10号", "phone_number": "027-85378360", "id": 110935, "preview_image": "brands_images/full/1421.jpg", "brand_id": 1421, "create_time": "NOW()", "longitude": 114.29748884806123, "latitude": 30.57716817916355, "region_id_1": "420000", "region_id_2": "420100", "region_id_3": "420103"}, {"city": "十堰市", "name": "十堰荣成公园路专卖电店", "address": "湖北省十堰市公园路20号", "phone_number": "0719-8228355", "id": 110936, "preview_image": "brands_images/full/1421.jpg", "brand_id": 1421, "create_time": "NOW()", "longitude": 110.78728766080505, "latitude": 32.66031758639765, "region_id_1": "420000", "region_id_2": "420300", "region_id_3": "420303"}]