[{"name": "沁园北京平谷区专卖店", "phone_number": "18911160068", "address": "北京市平谷区北京市平谷区平翔路9号鑫海韵通大卖场三层家店区", "id": 155638, "preview_image": "brands_images/full/9.jpg", "brand_id": 9, "create_time": "NOW()", "longitude": 117.13006091424468, "latitude": 40.160623414947594, "official_coord": 0, "region_id_1": 110000, "region_id_2": 110100, "region_id_3": 110117}, {"name": "沁园天津武清区专卖店", "phone_number": "15002208558", "address": "天津市武清区武清华北城大库7排8号", "id": 155639, "preview_image": "brands_images/full/9.jpg", "brand_id": 9, "create_time": "NOW()", "longitude": 117.10379006788966, "latitude": 39.33976667849553, "official_coord": 0, "region_id_1": 120000, "region_id_2": 120100, "region_id_3": 120114}, {"name": "沁园张家口万全县专卖店", "phone_number": "15127328596", "address": "河北省张家口市万全县广电局底商", "id": 155640, "preview_image": "brands_images/full/9.jpg", "brand_id": 9, "create_time": "NOW()", "longitude": 114.74795869983853, "latitude": 40.77720601828475, "official_coord": 0, "region_id_1": 0, "region_id_2": 0, "region_id_3": 0}, {"name": "沁园邯郸邯山区专卖店", "phone_number": "13731008585", "address": "河北省邯郸市邯山区水厂路190号", "id": 155641, "preview_image": "brands_images/full/9.jpg", "brand_id": 9, "create_time": "NOW()", "longitude": 114.50735390542475, "latitude": 36.587362159761895, "official_coord": 0, "region_id_1": 130000, "region_id_2": 130400, "region_id_3": 130402}, {"name": "沁园保定清苑县专卖店", "phone_number": "18131233850", "address": "河北省保定市清苑县主街", "id": 155642, "preview_image": "brands_images/full/9.jpg", "brand_id": 9, "create_time": "NOW()", "longitude": 115.49072733574324, "latitude": 38.863509088676516, "official_coord": 0, "region_id_1": 0, "region_id_2": 0, "region_id_3": 0}, {"name": "沁园衡水阜城县专卖店", "phone_number": "18631803190", "address": "河北省衡水市阜城县阜城县东丽南街公安局西邻", "id": 155643, "preview_image": "brands_images/full/9.jpg", "brand_id": 9, "create_time": "NOW()", "longitude": 116.18040915807123, "latitude": 37.86868926437548, "official_coord": 0, "region_id_1": 130000, "region_id_2": 131100, "region_id_3": 131128}, {"name": "沁园保定定州市专卖店", "phone_number": "15075265242", "address": "河北省保定市定州市河北省保定市定州市刑邑镇", "id": 155644, "preview_image": "brands_images/full/9.jpg", "brand_id": 9, "create_time": "NOW()", "longitude": 115.03746083581743, "latitude": 38.27968535010004, "official_coord": 0, "region_id_1": 130000, "region_id_2": 130600, "region_id_3": 130682}, {"name": "沁园邢台内丘县专卖店", "phone_number": "13932995681", "address": "河北省邢台市内丘县中兴北大街", "id": 155645, "preview_image": "brands_images/full/9.jpg", "brand_id": 9, "create_time": "NOW()", "longitude": 114.52348889894665, "latitude": 37.295693227753794, "official_coord": 0, "region_id_1": 130000, "region_id_2": 130500, "region_id_3": 130523}, {"name": "沁园邢台宁晋县专卖店", "phone_number": "15303193959", "address": "河北省邢台市宁晋县凤凰路", "id": 155646, "preview_image": "brands_images/full/9.jpg", "brand_id": 9, "create_time": "NOW()", "longitude": 114.9253420548905, "latitude": 37.64579076537129, "official_coord": 0, "region_id_1": 130000, "region_id_2": 130500, "region_id_3": 130528}, {"name": "沁园邢台沙河市专卖店", "phone_number": "13831973505", "address": "河北省邢台市沙河市京广路炫迈KTV对过", "id": 155647, "preview_image": "brands_images/full/9.jpg", "brand_id": 9, "create_time": "NOW()", "longitude": 114.50587607872424, "latitude": 36.88656698127342, "official_coord": 0, "region_id_1": 130000, "region_id_2": 130500, "region_id_3": 130582}, {"name": "沁园邢台任县专卖店", "phone_number": "18631994438", "address": "河北省邢台市任县人民路", "id": 155648, "preview_image": "brands_images/full/9.jpg", "brand_id": 9, "create_time": "NOW()", "longitude": 114.67854228037088, "latitude": 37.12670917799513, "official_coord": 0, "region_id_1": 130000, "region_id_2": 130500, "region_id_3": 130526}, {"name": "沁园石家庄赵县专卖店", "phone_number": "13930144269", "address": "河北省石家庄市赵县石家庄市赵县范庄镇", "id": 155649, "preview_image": "brands_images/full/9.jpg", "brand_id": 9, "create_time": "NOW()", "longitude": 114.97506468017332, "latitude": 37.78063977136663, "official_coord": 0, "region_id_1": 130000, "region_id_2": 130100, "region_id_3": 130133}, {"name": "沁园 沧州河间市专卖店", "phone_number": "15613751661", "address": "河北省沧州市河间市郭家村乡沁园专卖店", "id": 155650, "preview_image": "brands_images/full/9.jpg", "brand_id": 9, "create_time": "NOW()", "longitude": 116.10429097256825, "latitude": 38.45566944270137, "official_coord": 0, "region_id_1": 130000, "region_id_2": 130900, "region_id_3": 130984}, {"name": "沁园衡水安平县专卖店", "phone_number": "15731800777", "address": "河北省衡水市安平县安平南环", "id": 155651, "preview_image": "brands_images/full/9.jpg", "brand_id": 9, "create_time": "NOW()", "longitude": 115.52796820880714, "latitude": 38.22242153122616, "official_coord": 0, "region_id_1": 130000, "region_id_2": 131100, "region_id_3": 131125}, {"name": "沁园石家庄藁城市专卖店", "phone_number": "18031863253", "address": "河北省石家庄市藁城市藁城市丘头镇", "id": 155652, "preview_image": "brands_images/full/9.jpg", "brand_id": 9, "create_time": "NOW()", "longitude": 114.69928998549318, "latitude": 37.99356810095146, "official_coord": 0, "region_id_1": 130000, "region_id_2": 130100, "region_id_3": 130109}, {"name": "沁园廊坊大城县专卖店", "phone_number": "18003262289", "address": "河北省廊坊市大城县京保路与欧式街", "id": 155653, "preview_image": "brands_images/full/9.jpg", "brand_id": 9, "create_time": "NOW()", "longitude": 116.65598071548519, "latitude": 38.70275901096686, "official_coord": 0, "region_id_1": 130000, "region_id_2": 131000, "region_id_3": 131025}, {"name": "沁园衡水武强县专卖店", "phone_number": "13623281201", "address": "河北省衡水市武强县武强体育街武强中学东行20米路南", "id": 155654, "preview_image": "brands_images/full/9.jpg", "brand_id": 9, "create_time": "NOW()", "longitude": 115.95966240945899, "latitude": 38.04362220257, "official_coord": 0, "region_id_1": 130000, "region_id_2": 131100, "region_id_3": 131123}, {"name": "沁园运城绛县专卖店", "phone_number": "18635973113", "address": "山西省运城市绛县中条山路西沿街商铺20号", "id": 155655, "preview_image": "brands_images/full/9.jpg", "brand_id": 9, "create_time": "NOW()", "longitude": 111.47901708155075, "latitude": 35.42622585180206, "official_coord": 0, "region_id_1": 140000, "region_id_2": 140800, "region_id_3": 140826}, {"name": "沁园阳泉盂县专卖店", "phone_number": "15535345155", "address": "山西省阳泉市盂县金龙街5号楼底商1号门市", "id": 155656, "preview_image": "brands_images/full/9.jpg", "brand_id": 9, "create_time": "NOW()", "longitude": 113.4111505214259, "latitude": 38.095398191622834, "official_coord": 0, "region_id_1": 140000, "region_id_2": 140300, "region_id_3": 140322}, {"name": "沁园晋城沁水县专卖店", "phone_number": "13834923739", "address": "山西省晋城市沁水县县政府斜对过", "id": 155657, "preview_image": "brands_images/full/9.jpg", "brand_id": 9, "create_time": "NOW()", "longitude": 112.19316512980488, "latitude": 35.69640261894135, "official_coord": 0, "region_id_1": 140000, "region_id_2": 140500, "region_id_3": 140521}, {"name": "沁园运城盐湖区专卖店", "phone_number": "13467202444", "address": "山西省运城市盐湖区鑫源家电城", "id": 155658, "preview_image": "brands_images/full/9.jpg", "brand_id": 9, "create_time": "NOW()", "longitude": 111.02888021764126, "latitude": 35.055407686556684, "official_coord": 0, "region_id_1": 140000, "region_id_2": 140800, "region_id_3": 140802}, {"name": "沁园临汾翼城县专卖店", "phone_number": "13593538003", "address": "山西省临汾市翼城县解放东街北十二巷", "id": 155659, "preview_image": "brands_images/full/9.jpg", "brand_id": 9, "create_time": "NOW()", "longitude": 111.72332842589245, "latitude": 35.74348922163847, "official_coord": 0, "region_id_1": 140000, "region_id_2": 141000, "region_id_3": 141022}, {"name": "沁园大同浑源县专卖店", "phone_number": "15034236914", "address": "山西省大同市浑源县浑源县南顺街52号", "id": 155660, "preview_image": "brands_images/full/9.jpg", "brand_id": 9, "create_time": "NOW()", "longitude": 113.70110231378631, "latitude": 39.696439340341676, "official_coord": 0, "region_id_1": 140000, "region_id_2": 140200, "region_id_3": 140225}, {"name": "沁园通辽奈曼旗专卖店", "phone_number": "15147585789", "address": "内蒙古自治区通辽市奈曼旗幸福街附近", "id": 155661, "preview_image": "brands_images/full/9.jpg", "brand_id": 9, "create_time": "NOW()", "longitude": 121.08346679057068, "latitude": 43.21695054726782, "official_coord": 0, "region_id_1": 150000, "region_id_2": 150500, "region_id_3": 150525}, {"name": "沁园通辽科尔沁区专卖店", "phone_number": "18747538999", "address": "内蒙古自治区通辽市科尔沁区二百", "id": 155662, "preview_image": "brands_images/full/9.jpg", "brand_id": 9, "create_time": "NOW()", "longitude": 122.256038626621, "latitude": 43.61094858471385, "official_coord": 0, "region_id_1": 150000, "region_id_2": 150500, "region_id_3": 150502}, {"name": "沁园锡林郭勒盟 锡林浩特市专卖店", "phone_number": "13910419271", "address": "内蒙古自治区锡林郭勒盟锡林浩特市锡林浩特市重庆路沁园专卖店", "id": 155663, "preview_image": "brands_images/full/9.jpg", "brand_id": 9, "create_time": "NOW()", "longitude": 116.0865395270756, "latitude": 43.93764957122666, "official_coord": 0, "region_id_1": 150000, "region_id_2": 152500, "region_id_3": 152502}, {"name": "沁园通辽科尔沁区专卖店", "phone_number": "13904753799", "address": "内蒙古自治区通辽市科尔沁区明仁大街金叶广场对面", "id": 155664, "preview_image": "brands_images/full/9.jpg", "brand_id": 9, "create_time": "NOW()", "longitude": 122.26980242858504, "latitude": 43.62132819186477, "official_coord": 0, "region_id_1": 150000, "region_id_2": 150500, "region_id_3": 150502}, {"name": "沁园朝阳凌源市专卖店", "phone_number": "13304214000", "address": "辽宁省朝阳市凌源市辽宁省朝阳市凌源县南大街3号客运站旁边", "id": 155665, "preview_image": "brands_images/full/9.jpg", "brand_id": 9, "create_time": "NOW()", "longitude": 119.40981714066537, "latitude": 41.24412413127244, "official_coord": 0, "region_id_1": 210000, "region_id_2": 211300, "region_id_3": 211382}, {"name": "沁园辽阳灯塔市专卖店", "phone_number": "15140993557", "address": "辽宁省辽阳市灯塔市八栋楼", "id": 155666, "preview_image": "brands_images/full/9.jpg", "brand_id": 9, "create_time": "NOW()", "longitude": 123.33530676007815, "latitude": 41.43372270563391, "official_coord": 0, "region_id_1": 210000, "region_id_2": 211000, "region_id_3": 211081}, {"name": "沁园大连金州区专卖店", "phone_number": "15642312406", "address": "辽宁省大连市金州区陶瓷市场附属楼4号", "id": 155667, "preview_image": "brands_images/full/9.jpg", "brand_id": 9, "create_time": "NOW()", "longitude": 121.62967592879677, "latitude": 38.93040312910837, "official_coord": 0, "region_id_1": 210000, "region_id_2": 210200, "region_id_3": 210203}, {"name": "沁园大连旅顺口区专卖店", "phone_number": "13591111102", "address": "辽宁省大连市旅顺口区亿美厨卫电器对面", "id": 155668, "preview_image": "brands_images/full/9.jpg", "brand_id": 9, "create_time": "NOW()", "longitude": 121.27745065656946, "latitude": 38.821144752421205, "official_coord": 0, "region_id_1": 210000, "region_id_2": 210200, "region_id_3": 210212}, {"name": "沁园大连甘井子区专卖店", "phone_number": "13604250997", "address": "辽宁省大连市甘井子区香周路102号", "id": 155669, "preview_image": "brands_images/full/9.jpg", "brand_id": 9, "create_time": "NOW()", "longitude": 121.57746382874429, "latitude": 38.956171118789776, "official_coord": 0, "region_id_1": 210000, "region_id_2": 210200, "region_id_3": 210211}, {"name": "沁园大连沙河口区专卖店", "phone_number": "13664223050", "address": "辽宁省大连市沙河口区福缘阁", "id": 155670, "preview_image": "brands_images/full/9.jpg", "brand_id": 9, "create_time": "NOW()", "longitude": 121.59110747486083, "latitude": 38.933228056744724, "official_coord": 0, "region_id_1": 210000, "region_id_2": 210200, "region_id_3": 210204}, {"name": "沁园阜新太平区专卖店", "phone_number": "15604911990", "address": "辽宁省阜新市太平区顺吉上河湾二期", "id": 155671, "preview_image": "brands_images/full/9.jpg", "brand_id": 9, "create_time": "NOW()", "longitude": 121.68631401074738, "latitude": 42.02092654436744, "official_coord": 0, "region_id_1": 210000, "region_id_2": 210900, "region_id_3": 210904}, {"name": "沁园朝阳北票市专卖店", "phone_number": "13304913111", "address": "辽宁省朝阳市北票市岳明家苑13-2", "id": 155672, "preview_image": "brands_images/full/9.jpg", "brand_id": 9, "create_time": "NOW()", "longitude": 120.92296977380336, "latitude": 42.14991380221126, "official_coord": 0, "region_id_1": 210000, "region_id_2": 211300, "region_id_3": 211381}, {"name": "沁园长春农安县专卖店", "phone_number": "15361270888", "address": "吉林省长春市农安县大市场超市", "id": 155673, "preview_image": "brands_images/full/9.jpg", "brand_id": 9, "create_time": "NOW()", "longitude": 125.30411890810706, "latitude": 43.842152298266164, "official_coord": 0, "region_id_1": 110000, "region_id_2": 110100, "region_id_3": 110105}, {"name": "沁园四平梨树县专卖店", "phone_number": "15144440585", "address": "吉林省四平市梨树县林海镇", "id": 155674, "preview_image": "brands_images/full/9.jpg", "brand_id": 9, "create_time": "NOW()", "longitude": 123.99032762392869, "latitude": 43.44585827341781, "official_coord": 0, "region_id_1": 220000, "region_id_2": 220300, "region_id_3": 220322}, {"name": "沁园牡丹江西安区专卖店", "phone_number": "13945173526", "address": "黑龙江省牡丹江市西安区西三条路235号", "id": 155675, "preview_image": "brands_images/full/9.jpg", "brand_id": 9, "create_time": "NOW()", "longitude": 129.6174482762313, "latitude": 44.58408621938237, "official_coord": 0, "region_id_1": 220000, "region_id_2": 220400, "region_id_3": 220403}, {"name": "沁园上海浦东新区专卖店", "phone_number": "18616167213", "address": "上海市浦东新区人民东路名品村2437弄C区9号", "id": 155676, "preview_image": "brands_images/full/9.jpg", "brand_id": 9, "create_time": "NOW()", "longitude": 121.7822498531041, "latitude": 31.054442270443026, "official_coord": 0, "region_id_1": 310000, "region_id_2": 310100, "region_id_3": 310115}, {"name": "沁园上海金山区专卖店", "phone_number": "18601770732", "address": "上海市金山区沈浦泾公路630号", "id": 155677, "preview_image": "brands_images/full/9.jpg", "brand_id": 9, "create_time": "NOW()", "longitude": 121.18097543320957, "latitude": 30.90897711700057, "official_coord": 0, "region_id_1": 310000, "region_id_2": 310100, "region_id_3": 310116}, {"name": "沁园淮安洪泽县专卖店", "phone_number": "18936777226", "address": "江苏省淮安市洪泽县东风路3号", "id": 155678, "preview_image": "brands_images/full/9.jpg", "brand_id": 9, "create_time": "NOW()", "longitude": 118.85469736480454, "latitude": 33.29615596810491, "official_coord": 0, "region_id_1": 0, "region_id_2": 0, "region_id_3": 0}, {"name": "沁园无锡崇安区专卖店", "phone_number": "13814272872", "address": "江苏省无锡市崇安区锡沪中路55号", "id": 155679, "preview_image": "brands_images/full/9.jpg", "brand_id": 9, "create_time": "NOW()", "longitude": 120.32340067057274, "latitude": 31.596082305691972, "official_coord": 0, "region_id_1": 0, "region_id_2": 0, "region_id_3": 0}, {"name": "沁园无锡江阴市专卖店", "phone_number": "13601522628", "address": "江苏省无锡市江阴市镇澄路2号", "id": 155680, "preview_image": "brands_images/full/9.jpg", "brand_id": 9, "create_time": "NOW()", "longitude": 120.0049201993221, "latitude": 31.85878787915025, "official_coord": 0, "region_id_1": 320000, "region_id_2": 320200, "region_id_3": 320281}, {"name": "沁园宿迁宿城区专卖店", "phone_number": "18351398885", "address": "江苏省宿迁市宿城区东海路", "id": 155681, "preview_image": "brands_images/full/9.jpg", "brand_id": 9, "create_time": "NOW()", "longitude": 118.25167520739673, "latitude": 33.96151354936535, "official_coord": 0, "region_id_1": 320000, "region_id_2": 321300, "region_id_3": 321302}, {"name": "沁园盐城阜宁县专卖店", "phone_number": "18912589888", "address": "江苏省盐城市阜宁县宝丰装饰城", "id": 155682, "preview_image": "brands_images/full/9.jpg", "brand_id": 9, "create_time": "NOW()", "longitude": 119.82460193088585, "latitude": 33.75527397198861, "official_coord": 0, "region_id_1": 320000, "region_id_2": 320900, "region_id_3": 320923}, {"name": "沁园盐城响水县专卖店", "phone_number": "18912589888", "address": "江苏省盐城市响水县华阳装饰城", "id": 155683, "preview_image": "brands_images/full/9.jpg", "brand_id": 9, "create_time": "NOW()", "longitude": 119.60058220618858, "latitude": 34.198639541379265, "official_coord": 0, "region_id_1": 320000, "region_id_2": 320900, "region_id_3": 320921}, {"name": "沁园淮安淮阴区专卖店", "phone_number": "13915104728", "address": "江苏省淮安市淮阴区码头镇中心十字街西200米", "id": 155684, "preview_image": "brands_images/full/9.jpg", "brand_id": 9, "create_time": "NOW()", "longitude": 118.93955459722511, "latitude": 33.54991864963362, "official_coord": 0, "region_id_1": 320000, "region_id_2": 320800, "region_id_3": 320804}, {"name": "沁园南通海安县专卖店", "phone_number": "15862728800", "address": "江苏省南通市海安县海安南莫镇", "id": 155685, "preview_image": "brands_images/full/9.jpg", "brand_id": 9, "create_time": "NOW()", "longitude": 120.29188588420732, "latitude": 32.5932555519198, "official_coord": 0, "region_id_1": 320000, "region_id_2": 320600, "region_id_3": 320621}, {"name": "沁园连云港灌云县专卖店", "phone_number": "13961366687", "address": "江苏省连云港市灌云县白蚬", "id": 155686, "preview_image": "brands_images/full/9.jpg", "brand_id": 9, "create_time": "NOW()", "longitude": 119.3439553909713, "latitude": 34.336560436865966, "official_coord": 0, "region_id_1": 320000, "region_id_2": 320700, "region_id_3": 320723}, {"name": "沁园连云港赣榆县专卖店", "phone_number": "13851208360", "address": "江苏省连云港市赣榆县家家爱家居广场", "id": 155687, "preview_image": "brands_images/full/9.jpg", "brand_id": 9, "create_time": "NOW()", "longitude": 119.13397260359774, "latitude": 34.82823341651596, "official_coord": 0, "region_id_1": 320000, "region_id_2": 320700, "region_id_3": 320707}, {"name": "沁园苏州太仓市专卖店", "phone_number": "13915787998", "address": "江苏省苏州市太仓市园林路21号", "id": 155688, "preview_image": "brands_images/full/9.jpg", "brand_id": 9, "create_time": "NOW()", "longitude": 121.11316735286584, "latitude": 31.656766355556424, "official_coord": 0, "region_id_1": 320000, "region_id_2": 320500, "region_id_3": 320585}, {"name": "沁园泰州姜堰市专卖店", "phone_number": "15861816221", "address": "江苏省泰州市姜堰市G328国道太宇家居广场", "id": 155689, "preview_image": "brands_images/full/9.jpg", "brand_id": 9, "create_time": "NOW()", "longitude": 119.96182507002719, "latitude": 32.50315938610766, "official_coord": 0, "region_id_1": 320000, "region_id_2": 321200, "region_id_3": 321202}, {"name": "沁园泰州兴化市专卖店", "phone_number": "18752506533", "address": "江苏省泰州市兴化市木塔路357号", "id": 155690, "preview_image": "brands_images/full/9.jpg", "brand_id": 9, "create_time": "NOW()", "longitude": 120.09802519280184, "latitude": 32.94887815710431, "official_coord": 0, "region_id_1": 320000, "region_id_2": 321200, "region_id_3": 321281}, {"name": "沁园扬州仪征市专卖店", "phone_number": "13338857361", "address": "江苏省扬州市仪征市金阳光装饰城", "id": 155691, "preview_image": "brands_images/full/9.jpg", "brand_id": 9, "create_time": "NOW()", "longitude": 119.17023978679774, "latitude": 32.28603422189203, "official_coord": 0, "region_id_1": 320000, "region_id_2": 321000, "region_id_3": 321081}, {"name": "沁园杭州富阳市专卖店", "phone_number": "13989832413", "address": "浙江省杭州市富阳市富阳市金城路212-5号", "id": 155692, "preview_image": "brands_images/full/9.jpg", "brand_id": 9, "create_time": "NOW()", "longitude": 119.93604625159284, "latitude": 30.06126569230931, "official_coord": 0, "region_id_1": 330000, "region_id_2": 330100, "region_id_3": 330183}, {"name": "沁园嘉兴南湖区专卖店", "phone_number": "13806705267", "address": "浙江省嘉兴市南湖区嘉兴市南湖区凌公塘路827号", "id": 155693, "preview_image": "brands_images/full/9.jpg", "brand_id": 9, "create_time": "NOW()", "longitude": 120.7805887686197, "latitude": 30.748619113153904, "official_coord": 0, "region_id_1": 330000, "region_id_2": 330400, "region_id_3": 330402}, {"name": "沁园湖州长兴县专卖店", "phone_number": "13868273466", "address": "浙江省湖州市长兴县紫竹苑10-6", "id": 155694, "preview_image": "brands_images/full/9.jpg", "brand_id": 9, "create_time": "NOW()", "longitude": 119.86014613709972, "latitude": 31.04891322351906, "official_coord": 0, "region_id_1": 330000, "region_id_2": 330500, "region_id_3": 330522}, {"name": "沁园宣城宁国市专卖店", "phone_number": "15357599133", "address": "安徽省宣城市宁国市山门北路", "id": 155695, "preview_image": "brands_images/full/9.jpg", "brand_id": 9, "create_time": "NOW()", "longitude": 118.98211258969427, "latitude": 30.626659350961052, "official_coord": 0, "region_id_1": 340000, "region_id_2": 341800, "region_id_3": 341881}, {"name": "沁园六安分路口镇专卖店", "phone_number": "18505641471", "address": "安徽省六安市裕安区分路口街道", "id": 155696, "preview_image": "brands_images/full/9.jpg", "brand_id": 9, "create_time": "NOW()", "longitude": 116.33071253827677, "latitude": 31.751548837366922, "official_coord": 0, "region_id_1": 340000, "region_id_2": 341500, "region_id_3": 341503}, {"name": "沁园阜阳颍州区专卖店", "phone_number": "15256882113", "address": "安徽省阜阳市颍州区王店镇", "id": 155697, "preview_image": "brands_images/full/9.jpg", "brand_id": 9, "create_time": "NOW()", "longitude": 115.80503990838004, "latitude": 32.82920670266521, "official_coord": 0, "region_id_1": 340000, "region_id_2": 341200, "region_id_3": 341202}, {"name": "沁园阜阳阜南县专卖店", "phone_number": "15555875677", "address": "安徽省阜阳市阜南县镇政府向南100米", "id": 155698, "preview_image": "brands_images/full/9.jpg", "brand_id": 9, "create_time": "NOW()", "longitude": 115.6022936423657, "latitude": 32.66394058612643, "official_coord": 0, "region_id_1": 340000, "region_id_2": 341200, "region_id_3": 341225}, {"name": "沁园宿州泗县辖专卖店", "phone_number": "13625571202", "address": "安徽省宿州市泗县大陈集", "id": 155699, "preview_image": "brands_images/full/9.jpg", "brand_id": 9, "create_time": "NOW()", "longitude": 116.34637515091057, "latitude": 34.62334869220777, "official_coord": 0, "region_id_1": 340000, "region_id_2": 341300, "region_id_3": 341321}, {"name": "沁园宿州灵璧县专卖店", "phone_number": "18056238288", "address": "安徽省宿州市灵璧县大吴街", "id": 155700, "preview_image": "brands_images/full/9.jpg", "brand_id": 9, "create_time": "NOW()", "longitude": 117.57414188570286, "latitude": 33.64992316563522, "official_coord": 0, "region_id_1": 340000, "region_id_2": 341300, "region_id_3": 341323}, {"name": "沁园宿州桥区专卖店", "phone_number": "13866870010", "address": "安徽省宿州市桥区汽车站东侧路南", "id": 155701, "preview_image": "brands_images/full/9.jpg", "brand_id": 9, "create_time": "NOW()", "longitude": 116.99854567350101, "latitude": 33.63846400713043, "official_coord": 0, "region_id_1": 340000, "region_id_2": 341300, "region_id_3": 341302}, {"name": "沁园宿州砀山县专卖店", "phone_number": "18726367776", "address": "安徽省宿州市砀山县经开区", "id": 155702, "preview_image": "brands_images/full/9.jpg", "brand_id": 9, "create_time": "NOW()", "longitude": 116.40171431526706, "latitude": 34.43646796962946, "official_coord": 0, "region_id_1": 340000, "region_id_2": 341300, "region_id_3": 341321}, {"name": "沁园宿州桥区专卖店", "phone_number": "15222978077", "address": "安徽省宿州市桥区街上", "id": 155703, "preview_image": "brands_images/full/9.jpg", "brand_id": 9, "create_time": "NOW()", "longitude": 116.98394117524509, "latitude": 33.64619944570135, "official_coord": 0, "region_id_1": 340000, "region_id_2": 341300, "region_id_3": 341302}, {"name": "沁园蚌埠固镇县专卖店", "phone_number": "15255281882", "address": "安徽省蚌埠市固镇县任桥沁园专卖店", "id": 155704, "preview_image": "brands_images/full/9.jpg", "brand_id": 9, "create_time": "NOW()", "longitude": 117.21079134143378, "latitude": 33.42123418076865, "official_coord": 0, "region_id_1": 340000, "region_id_2": 340300, "region_id_3": 340323}, {"name": "沁园宿州桥区专卖店", "phone_number": "18955701252", "address": "安徽省宿州市桥区刘村", "id": 155705, "preview_image": "brands_images/full/9.jpg", "brand_id": 9, "create_time": "NOW()", "longitude": 117.09529810019002, "latitude": 33.47755659823533, "official_coord": 0, "region_id_1": 340000, "region_id_2": 341300, "region_id_3": 341302}, {"name": "沁园宿州砀山县专卖店", "phone_number": "18252126216", "address": "安徽省宿州市砀山县镇政府对面", "id": 155706, "preview_image": "brands_images/full/9.jpg", "brand_id": 9, "create_time": "NOW()", "longitude": 116.37192032556764, "latitude": 34.44656783349052, "official_coord": 0, "region_id_1": 340000, "region_id_2": 341300, "region_id_3": 341321}, {"name": "沁园宿州砀山县专卖店", "phone_number": "15178258811", "address": "安徽省宿州市砀山县灯塔北388米", "id": 155707, "preview_image": "brands_images/full/9.jpg", "brand_id": 9, "create_time": "NOW()", "longitude": 116.25778183680289, "latitude": 34.52180658755773, "official_coord": 0, "region_id_1": 340000, "region_id_2": 341300, "region_id_3": 341321}, {"name": "沁园蚌埠固镇县专卖店", "phone_number": "13721179010", "address": "安徽省蚌埠市固镇县魏庙小区", "id": 155708, "preview_image": "brands_images/full/9.jpg", "brand_id": 9, "create_time": "NOW()", "longitude": 117.09409185419585, "latitude": 33.39828768970615, "official_coord": 0, "region_id_1": 340000, "region_id_2": 340300, "region_id_3": 340323}, {"name": "沁园宿州砀山县专卖店", "phone_number": "18955716688", "address": "安徽省宿州市砀山县果园场", "id": 155709, "preview_image": "brands_images/full/9.jpg", "brand_id": 9, "create_time": "NOW()", "longitude": 116.33745785498802, "latitude": 34.534898318722426, "official_coord": 0, "region_id_1": 340000, "region_id_2": 341300, "region_id_3": 341321}, {"name": "沁园宿州砀山县专卖店", "phone_number": "18712123636", "address": "安徽省宿州市砀山县曹庄街南头", "id": 155710, "preview_image": "brands_images/full/9.jpg", "brand_id": 9, "create_time": "NOW()", "longitude": 116.34791994891678, "latitude": 34.42471678100961, "official_coord": 0, "region_id_1": 340000, "region_id_2": 341300, "region_id_3": 341321}, {"name": "沁园宿州灵璧县专卖店", "phone_number": "15555738213", "address": "安徽省宿州市灵璧县尤集街", "id": 155711, "preview_image": "brands_images/full/9.jpg", "brand_id": 9, "create_time": "NOW()", "longitude": 117.49709460756496, "latitude": 33.905489017774435, "official_coord": 0, "region_id_1": 340000, "region_id_2": 341300, "region_id_3": 341323}, {"name": "沁园宿州桥区专卖店", "phone_number": "13965303465", "address": "安徽省宿州市桥区刘闸", "id": 155712, "preview_image": "brands_images/full/9.jpg", "brand_id": 9, "create_time": "NOW()", "longitude": 117.09326062850886, "latitude": 33.68551596936445, "official_coord": 0, "region_id_1": 340000, "region_id_2": 341300, "region_id_3": 341302}, {"name": "沁园宿州灵璧县专卖店", "phone_number": "15922477799", "address": "安徽省宿州市灵璧县韦集街", "id": 155713, "preview_image": "brands_images/full/9.jpg", "brand_id": 9, "create_time": "NOW()", "longitude": 117.56684106047611, "latitude": 33.396695502159226, "official_coord": 0, "region_id_1": 340000, "region_id_2": 341300, "region_id_3": 341323}, {"name": "沁园宿州砀山县专卖店", "phone_number": "18955733298", "address": "安徽省宿州市砀山县格力专卖店", "id": 155714, "preview_image": "brands_images/full/9.jpg", "brand_id": 9, "create_time": "NOW()", "longitude": 116.39495469626219, "latitude": 34.42540630850813, "official_coord": 0, "region_id_1": 340000, "region_id_2": 341300, "region_id_3": 341321}, {"name": "沁园宿州砀山县专卖店", "phone_number": "15385700123", "address": "安徽省宿州市砀山县街十字路口路南边", "id": 155715, "preview_image": "brands_images/full/9.jpg", "brand_id": 9, "create_time": "NOW()", "longitude": 116.29872701569359, "latitude": 34.37403640389734, "official_coord": 0, "region_id_1": 340000, "region_id_2": 341300, "region_id_3": 341321}, {"name": "沁园蚌埠固镇县专卖店", "phone_number": "15055250158", "address": "安徽省蚌埠市固镇县蚌埠市固镇县石湖乡", "id": 155716, "preview_image": "brands_images/full/9.jpg", "brand_id": 9, "create_time": "NOW()", "longitude": 117.43803040492892, "latitude": 33.313978915375486, "official_coord": 0, "region_id_1": 340000, "region_id_2": 340300, "region_id_3": 340323}, {"name": "沁园宿州桥区专卖店", "phone_number": "18709808222", "address": "安徽省宿州市桥区宿州市桥区时村镇", "id": 155717, "preview_image": "brands_images/full/9.jpg", "brand_id": 9, "create_time": "NOW()", "longitude": 117.33450208895837, "latitude": 33.786505903655275, "official_coord": 0, "region_id_1": 340000, "region_id_2": 341300, "region_id_3": 341302}, {"name": "沁园宿州桥区专卖店", "phone_number": "13685578039", "address": "安徽省宿州市桥区宿州市 桥区西寺坡镇", "id": 155718, "preview_image": "brands_images/full/9.jpg", "brand_id": 9, "create_time": "NOW()", "longitude": 117.10278007551413, "latitude": 33.52095901167657, "official_coord": 0, "region_id_1": 340000, "region_id_2": 341300, "region_id_3": 341302}, {"name": "沁园蚌埠固镇县专卖店", "phone_number": "13909622209", "address": "安徽省蚌埠市固镇县蚌埠市固镇县杨庙乡", "id": 155719, "preview_image": "brands_images/full/9.jpg", "brand_id": 9, "create_time": "NOW()", "longitude": 117.2469775742571, "latitude": 33.30493596639534, "official_coord": 0, "region_id_1": 340000, "region_id_2": 340300, "region_id_3": 340323}, {"name": "沁园滁州明光市专卖店", "phone_number": "15955191632", "address": "安徽省滁州市明光市人民路与车站路交叉口", "id": 155720, "preview_image": "brands_images/full/9.jpg", "brand_id": 9, "create_time": "NOW()", "longitude": 117.99570134723815, "latitude": 32.78085072245185, "official_coord": 0, "region_id_1": 340000, "region_id_2": 341100, "region_id_3": 341182}, {"name": "沁园合肥庐阳区专卖店", "phone_number": "15551188855", "address": "安徽省合肥市庐阳区凯悦豪庭对面", "id": 155721, "preview_image": "brands_images/full/9.jpg", "brand_id": 9, "create_time": "NOW()", "longitude": 117.26407080077946, "latitude": 31.884108806773828, "official_coord": 0, "region_id_1": 340000, "region_id_2": 340100, "region_id_3": 340103}, {"name": "沁园合肥庐阳区专卖店", "phone_number": "18856915996", "address": "安徽省合肥市庐阳区青阳路与长江西路交界处", "id": 155722, "preview_image": "brands_images/full/9.jpg", "brand_id": 9, "create_time": "NOW()", "longitude": 117.24638800124698, "latitude": 31.857583043794875, "official_coord": 0, "region_id_1": 340000, "region_id_2": 340100, "region_id_3": 340104}, {"name": "沁园安庆桐城市专卖店", "phone_number": "18856915997", "address": "安徽省安庆市桐城市新东方世纪城", "id": 155723, "preview_image": "brands_images/full/9.jpg", "brand_id": 9, "create_time": "NOW()", "longitude": 116.99938335270004, "latitude": 31.040091170321954, "official_coord": 0, "region_id_1": 340000, "region_id_2": 340800, "region_id_3": 340881}, {"name": "沁园亳州涡阳县专卖店", "phone_number": "18655135077", "address": "安徽省亳州市涡阳县亳州市涡阳县高炉镇", "id": 155724, "preview_image": "brands_images/full/9.jpg", "brand_id": 9, "create_time": "NOW()", "longitude": 116.33346683427602, "latitude": 33.47425481919684, "official_coord": 0, "region_id_1": 340000, "region_id_2": 341600, "region_id_3": 341621}, {"name": "沁园亳州涡阳县专卖店", "phone_number": "13805671609", "address": "安徽省亳州市涡阳县亳州市涡阳县曹市镇", "id": 155725, "preview_image": "brands_images/full/9.jpg", "brand_id": 9, "create_time": "NOW()", "longitude": 116.4917167149493, "latitude": 33.48060252486732, "official_coord": 0, "region_id_1": 340000, "region_id_2": 341600, "region_id_3": 341621}, {"name": "沁园宿州萧县专卖店", "phone_number": "13696717706", "address": "安徽省宿州市萧县宿州市萧县丁里镇", "id": 155726, "preview_image": "brands_images/full/9.jpg", "brand_id": 9, "create_time": "NOW()", "longitude": 116.88359191800333, "latitude": 34.10209092437421, "official_coord": 0, "region_id_1": 340000, "region_id_2": 341300, "region_id_3": 341322}, {"name": "沁园宿州萧县专卖店", "phone_number": "13866541229", "address": "安徽省宿州市萧县宿州市萧县赵庄镇", "id": 155727, "preview_image": "brands_images/full/9.jpg", "brand_id": 9, "create_time": "NOW()", "longitude": 116.7114746877125, "latitude": 34.22510994477104, "official_coord": 0, "region_id_1": 340000, "region_id_2": 341300, "region_id_3": 341322}, {"name": "沁园六安寿县专卖店", "phone_number": "18792046133", "address": "安徽省六安市寿县窑口乡街道", "id": 155728, "preview_image": "brands_images/full/9.jpg", "brand_id": 9, "create_time": "NOW()", "longitude": 116.79408609776048, "latitude": 32.457486497070676, "official_coord": 0, "region_id_1": 340000, "region_id_2": 341500, "region_id_3": 341521}, {"name": "沁园蚌埠蚌山区专卖店", "phone_number": "13855212297", "address": "安徽省蚌埠市蚌山区前进路", "id": 155729, "preview_image": "brands_images/full/9.jpg", "brand_id": 9, "create_time": "NOW()", "longitude": 117.36338979229659, "latitude": 32.94298563667381, "official_coord": 0, "region_id_1": 340000, "region_id_2": 340300, "region_id_3": 340303}, {"name": "沁园莆田荔城区专卖店", "phone_number": "13860987968", "address": "福建省莆田市荔城区福建省莆田市荔城区东圳路红星美凯龙", "id": 155730, "preview_image": "brands_images/full/9.jpg", "brand_id": 9, "create_time": "NOW()", "longitude": 119.03202398790668, "latitude": 25.45384455594946, "official_coord": 0, "region_id_1": 350000, "region_id_2": 350300, "region_id_3": 350304}, {"name": "沁园三明永安市专卖店", "phone_number": "18605989902", "address": "福建省三明市永安市燕江南路1596号", "id": 155731, "preview_image": "brands_images/full/9.jpg", "brand_id": 9, "create_time": "NOW()", "longitude": 117.37035430326809, "latitude": 25.956509052764822, "official_coord": 0, "region_id_1": 350000, "region_id_2": 350400, "region_id_3": 350481}, {"name": "沁园泉州晋江市专卖店", "phone_number": "13959851287", "address": "福建省泉州市晋江市鞋都路七一路口", "id": 155732, "preview_image": "brands_images/full/9.jpg", "brand_id": 9, "create_time": "NOW()", "longitude": 118.60379492427907, "latitude": 24.82951151011476, "official_coord": 0, "region_id_1": 350000, "region_id_2": 350500, "region_id_3": 350582}, {"name": "沁园漳州长泰县专卖店", "phone_number": "13338355115", "address": "福建省漳州市长泰县福建省漳州市长泰县武安镇陶然小区", "id": 155733, "preview_image": "brands_images/full/9.jpg", "brand_id": 9, "create_time": "NOW()", "longitude": 117.76722303826573, "latitude": 24.63076676659054, "official_coord": 0, "region_id_1": 350000, "region_id_2": 350600, "region_id_3": 350625}, {"name": "沁园福州福清市专卖店", "phone_number": "13110795235", "address": "福建省福州市福清市沁园专卖店", "id": 155734, "preview_image": "brands_images/full/9.jpg", "brand_id": 9, "create_time": "NOW()", "longitude": 119.3703331028471, "latitude": 25.722309582150555, "official_coord": 0, "region_id_1": 350000, "region_id_2": 350100, "region_id_3": 350181}, {"name": "沁园上饶弋阳县专卖店", "phone_number": "18970362658", "address": "江西省上饶市弋阳县白马大道", "id": 155735, "preview_image": "brands_images/full/9.jpg", "brand_id": 9, "create_time": "NOW()", "longitude": 117.45958972644947, "latitude": 28.388506450794143, "official_coord": 0, "region_id_1": 360000, "region_id_2": 361100, "region_id_3": 361126}, {"name": "沁园景德镇珠山区专卖店", "phone_number": "13879878002", "address": "江西省景德镇市珠山区景东大道尚东国际2号店面", "id": 155736, "preview_image": "brands_images/full/9.jpg", "brand_id": 9, "create_time": "NOW()", "longitude": 117.23343827610293, "latitude": 29.321827816898953, "official_coord": 0, "region_id_1": 360000, "region_id_2": 360200, "region_id_3": 360203}, {"name": "沁园九江德安县专卖店", "phone_number": "15979983493", "address": "江西省九江市德安县东佳大道", "id": 155737, "preview_image": "brands_images/full/9.jpg", "brand_id": 9, "create_time": "NOW()", "longitude": 115.76643040661914, "latitude": 29.323346820252894, "official_coord": 0, "region_id_1": 360000, "region_id_2": 360400, "region_id_3": 360426}, {"name": "沁园赣州 赣县专卖店", "phone_number": "13803570082", "address": "江西省赣州市赣县贡江大道海龙湾小区门口", "id": 155738, "preview_image": "brands_images/full/9.jpg", "brand_id": 9, "create_time": "NOW()", "longitude": 115.01080726610029, "latitude": 25.860188081634934, "official_coord": 0, "region_id_1": 0, "region_id_2": 0, "region_id_3": 0}, {"name": "沁园宜春丰城市专卖店", "phone_number": "13607956590", "address": "江西省宜春市丰城市丰城矿务局商业街69号", "id": 155739, "preview_image": "brands_images/full/9.jpg", "brand_id": 9, "create_time": "NOW()", "longitude": 115.75786715845751, "latitude": 28.29828723178621, "official_coord": 0, "region_id_1": 360000, "region_id_2": 360900, "region_id_3": 360981}, {"name": "沁园九江都昌县专卖店", "phone_number": "15797982869", "address": "江西省九江市都昌县三叉港镇中心", "id": 155740, "preview_image": "brands_images/full/9.jpg", "brand_id": 9, "create_time": "NOW()", "longitude": 116.40557615032007, "latitude": 29.280226330901797, "official_coord": 0, "region_id_1": 360000, "region_id_2": 360400, "region_id_3": 360428}, {"name": "沁园上饶玉山县专卖店", "phone_number": "18970305238", "address": "江西省上饶市玉山县玉山翡翠城", "id": 155741, "preview_image": "brands_images/full/9.jpg", "brand_id": 9, "create_time": "NOW()", "longitude": 118.23921892716126, "latitude": 28.6786420057786, "official_coord": 0, "region_id_1": 360000, "region_id_2": 361100, "region_id_3": 361123}, {"name": "沁园吉安峡江县专卖店", "phone_number": "15007967572", "address": "江西省吉安市峡江县普正大道265号沁园", "id": 155742, "preview_image": "brands_images/full/9.jpg", "brand_id": 9, "create_time": "NOW()", "longitude": 115.3202729941742, "latitude": 27.58496108446382, "official_coord": 0, "region_id_1": 360000, "region_id_2": 360800, "region_id_3": 360823}, {"name": "沁园九江武宁县专卖店", "phone_number": "15879210598", "address": "江西省九江市武宁县建材城", "id": 155743, "preview_image": "brands_images/full/9.jpg", "brand_id": 9, "create_time": "NOW()", "longitude": 115.9856200098192, "latitude": 29.71719567930512, "official_coord": 0, "region_id_1": 360000, "region_id_2": 360400, "region_id_3": 360403}, {"name": "沁园萍乡湘东区专卖店", "phone_number": "18179915408", "address": "江西省萍乡市湘东区沁园专卖店", "id": 155744, "preview_image": "brands_images/full/9.jpg", "brand_id": 9, "create_time": "NOW()", "longitude": 113.75113575917207, "latitude": 27.64256561355824, "official_coord": 0, "region_id_1": 360000, "region_id_2": 360300, "region_id_3": 360313}, {"name": "沁园新余渝水区专卖店", "phone_number": "15170902866", "address": "江西省新余市渝水区劳动北路50号", "id": 155745, "preview_image": "brands_images/full/9.jpg", "brand_id": 9, "create_time": "NOW()", "longitude": 114.93806595603724, "latitude": 27.819613086273836, "official_coord": 0, "region_id_1": 360000, "region_id_2": 360500, "region_id_3": 360502}, {"name": "沁园吉安永新县专卖店", "phone_number": "15779699995", "address": "江西省吉安市永新县湘赣大道平安医院右侧", "id": 155746, "preview_image": "brands_images/full/9.jpg", "brand_id": 9, "create_time": "NOW()", "longitude": 114.25343267923697, "latitude": 26.95883404861696, "official_coord": 0, "region_id_1": 360000, "region_id_2": 360800, "region_id_3": 360830}, {"name": "沁园上饶横峰县专卖店", "phone_number": "13707930998", "address": "江西省上饶市横峰县古窑路115号", "id": 155747, "preview_image": "brands_images/full/9.jpg", "brand_id": 9, "create_time": "NOW()", "longitude": 117.61451646413934, "latitude": 28.424078158946447, "official_coord": 0, "region_id_1": 360000, "region_id_2": 361100, "region_id_3": 361125}, {"name": "沁园上饶信州区专卖店", "phone_number": "15807034842", "address": "江西省上饶市信州区灵溪镇灵溪街8号店铺", "id": 155748, "preview_image": "brands_images/full/9.jpg", "brand_id": 9, "create_time": "NOW()", "longitude": 118.05361511212892, "latitude": 28.4997858468578, "official_coord": 0, "region_id_1": 360000, "region_id_2": 361100, "region_id_3": 361102}, {"name": "沁园九江浔阳区专卖店", "phone_number": "18172823608", "address": "江西省九江市浔阳区龙开河路", "id": 155749, "preview_image": "brands_images/full/9.jpg", "brand_id": 9, "create_time": "NOW()", "longitude": 115.98605221380456, "latitude": 29.712575435220664, "official_coord": 0, "region_id_1": 360000, "region_id_2": 360400, "region_id_3": 360403}, {"name": "沁园德州宁津县专卖店", "phone_number": "0534-5218013", "address": "山东省德州市宁津县正阳路德百广场底商", "id": 155750, "preview_image": "brands_images/full/9.jpg", "brand_id": 9, "create_time": "NOW()", "longitude": 116.79656872337084, "latitude": 37.63744808905007, "official_coord": 0, "region_id_1": 370000, "region_id_2": 371400, "region_id_3": 371422}, {"name": "沁园枣庄薛城区专卖店", "phone_number": "15263023666", "address": "山东省枣庄市薛城区浙商万州城", "id": 155751, "preview_image": "brands_images/full/9.jpg", "brand_id": 9, "create_time": "NOW()", "longitude": 117.26374661509787, "latitude": 34.7752879417366, "official_coord": 0, "region_id_1": 370000, "region_id_2": 370400, "region_id_3": 370403}, {"name": "沁园枣庄市中区专卖店", "phone_number": "13356328626", "address": "山东省枣庄市市中区建华西路文汇嘉园30号楼240号门市", "id": 155752, "preview_image": "brands_images/full/9.jpg", "brand_id": 9, "create_time": "NOW()", "longitude": 117.54681776439813, "latitude": 34.86345405252987, "official_coord": 0, "region_id_1": 370000, "region_id_2": 370100, "region_id_3": 370103}, {"name": "沁园威海文登市专卖店", "phone_number": "13562110319", "address": "山东省威海市文登市宋村镇马山路92号", "id": 155753, "preview_image": "brands_images/full/9.jpg", "brand_id": 9, "create_time": "NOW()", "longitude": 122.02476043553987, "latitude": 37.07237062997125, "official_coord": 0, "region_id_1": 370000, "region_id_2": 371000, "region_id_3": 371003}, {"name": "沁园焦作温县专卖店", "phone_number": "18639102981", "address": "河南省焦作市温县人民大街", "id": 155754, "preview_image": "brands_images/full/9.jpg", "brand_id": 9, "create_time": "NOW()", "longitude": 113.08450061129966, "latitude": 34.95020064235844, "official_coord": 0, "region_id_1": 410000, "region_id_2": 410800, "region_id_3": 410825}, {"name": "沁园周口沈丘县专卖店", "phone_number": "13781278576", "address": "河南省周口市沈丘县莲池乡", "id": 155755, "preview_image": "brands_images/full/9.jpg", "brand_id": 9, "create_time": "NOW()", "longitude": 115.08117050181093, "latitude": 33.322301286405555, "official_coord": 0, "region_id_1": 410000, "region_id_2": 411600, "region_id_3": 411624}, {"name": "沁园开封通许县专卖店", "phone_number": "15137811270", "address": "河南省开封市通许县开封市四所楼镇罗村", "id": 155756, "preview_image": "brands_images/full/9.jpg", "brand_id": 9, "create_time": "NOW()", "longitude": 114.63907747795842, "latitude": 34.40561675700035, "official_coord": 0, "region_id_1": 410000, "region_id_2": 410200, "region_id_3": 410222}, {"name": "沁园新乡原阳县专卖店", "phone_number": "15083125674", "address": "河南省新乡市原阳县高杆灯向南100米路西", "id": 155757, "preview_image": "brands_images/full/9.jpg", "brand_id": 9, "create_time": "NOW()", "longitude": 113.96704742342799, "latitude": 35.07595140461325, "official_coord": 0, "region_id_1": 410000, "region_id_2": 410700, "region_id_3": 410725}, {"name": "沁园平顶山叶县专卖店", "phone_number": "15093794111", "address": "河南省平顶山市叶县河南省平顶山市叶县夏李乡", "id": 155758, "preview_image": "brands_images/full/9.jpg", "brand_id": 9, "create_time": "NOW()", "longitude": 113.22514952607011, "latitude": 33.53491436800198, "official_coord": 0, "region_id_1": 410000, "region_id_2": 410400, "region_id_3": 410422}, {"name": "沁园三门峡渑池县专卖店", "phone_number": "13781008068", "address": "河南省三门峡市渑池县万洋国际北门二楼方太沁园店", "id": 155759, "preview_image": "brands_images/full/9.jpg", "brand_id": 9, "create_time": "NOW()", "longitude": 111.81013305208984, "latitude": 34.760424798106634, "official_coord": 0, "region_id_1": 410000, "region_id_2": 411200, "region_id_3": 411221}, {"name": "沁园三门峡陕县专卖店", "phone_number": "13525205134", "address": "河南省三门峡市陕县大营神泉路与卧龙街交叉口以东100米沁园净水机", "id": 155760, "preview_image": "brands_images/full/9.jpg", "brand_id": 9, "create_time": "NOW()", "longitude": 111.86507328106588, "latitude": 34.754776460106044, "official_coord": 0, "region_id_1": 410000, "region_id_2": 411200, "region_id_3": 411281}, {"name": "沁园周口沈丘县专卖店", "phone_number": "18639437266", "address": "河南省周口市沈丘县马庄转盘", "id": 155761, "preview_image": "brands_images/full/9.jpg", "brand_id": 9, "create_time": "NOW()", "longitude": 115.09984162716071, "latitude": 33.397829289447365, "official_coord": 0, "region_id_1": 410000, "region_id_2": 411600, "region_id_3": 411624}, {"name": "沁园周口川汇区专卖店", "phone_number": "13707623089", "address": "河南省周口市川汇区搬口街", "id": 155762, "preview_image": "brands_images/full/9.jpg", "brand_id": 9, "create_time": "NOW()", "longitude": 114.74242950619268, "latitude": 33.66714107840791, "official_coord": 0, "region_id_1": 410000, "region_id_2": 411600, "region_id_3": 411602}, {"name": "沁园周口西华县专卖店", "phone_number": "13183233331", "address": "河南省周口市西华县西华", "id": 155763, "preview_image": "brands_images/full/9.jpg", "brand_id": 9, "create_time": "NOW()", "longitude": 114.2672024119065, "latitude": 33.75161141070024, "official_coord": 0, "region_id_1": 410000, "region_id_2": 411600, "region_id_3": 411622}, {"name": "沁园周口沈丘县专卖店", "phone_number": "13403877686", "address": "河南省周口市沈丘县纸店", "id": 155764, "preview_image": "brands_images/full/9.jpg", "brand_id": 9, "create_time": "NOW()", "longitude": 115.27782243442049, "latitude": 33.31693838657535, "official_coord": 0, "region_id_1": 410000, "region_id_2": 411600, "region_id_3": 411624}, {"name": "沁园平顶山叶县专卖店", "phone_number": "17737088843", "address": "河南省平顶山市叶县平顶山市叶县任店乡", "id": 155765, "preview_image": "brands_images/full/9.jpg", "brand_id": 9, "create_time": "NOW()", "longitude": 113.24356967610892, "latitude": 33.63456871525966, "official_coord": 0, "region_id_1": 410000, "region_id_2": 410400, "region_id_3": 410422}, {"name": "沁园平顶山新华区专卖店", "phone_number": "13603756515", "address": "河南省平顶山市新华区平顶山市新华区矿工路与自由街交叉口北50米平顶山商场隔壁", "id": 155766, "preview_image": "brands_images/full/9.jpg", "brand_id": 9, "create_time": "NOW()", "longitude": 113.327862573796, "latitude": 33.74961097327106, "official_coord": 0, "region_id_1": 410000, "region_id_2": 410400, "region_id_3": 410403}, {"name": "沁园平顶山鲁山县专卖店", "phone_number": "18768923313", "address": "河南省平顶山市鲁山县河南省鲁山县张良镇中州花园北20米路东", "id": 155767, "preview_image": "brands_images/full/9.jpg", "brand_id": 9, "create_time": "NOW()", "longitude": 112.92761224542956, "latitude": 33.75052556329962, "official_coord": 0, "region_id_1": 410000, "region_id_2": 410400, "region_id_3": 410423}, {"name": "沁园信阳商城县专卖店", "phone_number": "18538371055", "address": "河南省信阳市商城县赤城路与滨河路交叉口", "id": 155768, "preview_image": "brands_images/full/9.jpg", "brand_id": 9, "create_time": "NOW()", "longitude": 115.4141197120559, "latitude": 31.79973115789608, "official_coord": 0, "region_id_1": 410000, "region_id_2": 411500, "region_id_3": 411524}, {"name": "沁园天门天门市专卖店", "phone_number": "13114324153", "address": "湖北省天门市西湖苑B区", "id": 155769, "preview_image": "brands_images/full/9.jpg", "brand_id": 9, "create_time": "NOW()", "longitude": 113.16082849452918, "latitude": 30.660758534245147, "official_coord": 0, "region_id_1": 420000, "region_id_2": 429000, "region_id_3": 429006}, {"name": "沁园 仙桃仙桃市专卖店", "phone_number": "18986947995", "address": "湖北省仙桃市恒迪建材城2期2-1-443", "id": 155770, "preview_image": "brands_images/full/9.jpg", "brand_id": 9, "create_time": "NOW()", "longitude": 113.43062787713174, "latitude": 30.358244317071126, "official_coord": 0, "region_id_1": 420000, "region_id_2": 429000, "region_id_3": 429004}, {"name": "沁园咸宁通城县专卖店", "phone_number": "13972838320", "address": "湖北省咸宁市通城县通城县旭红路88号", "id": 155771, "preview_image": "brands_images/full/9.jpg", "brand_id": 9, "create_time": "NOW()", "longitude": 113.82320702510594, "latitude": 29.255434842820364, "official_coord": 0, "region_id_1": 420000, "region_id_2": 421200, "region_id_3": 421222}, {"name": "沁园宜昌五峰土家族自治县专卖店", "phone_number": "15549364849", "address": "湖北省宜昌市五峰土家族自治县大房坪村东西路188号金东山家居建材市场", "id": 155772, "preview_image": "brands_images/full/9.jpg", "brand_id": 9, "create_time": "NOW()", "longitude": 111.10019697456319, "latitude": 30.186583278250865, "official_coord": 0, "region_id_1": 420000, "region_id_2": 420500, "region_id_3": 420529}, {"name": "沁园黄冈黄梅县专卖店", "phone_number": "15337318858", "address": "湖北省黄冈市黄梅县人民大道99号", "id": 155773, "preview_image": "brands_images/full/9.jpg", "brand_id": 9, "create_time": "NOW()", "longitude": 115.93614690973524, "latitude": 30.073738689579116, "official_coord": 0, "region_id_1": 420000, "region_id_2": 421100, "region_id_3": 421127}, {"name": "沁园 孝感大悟县专卖店", "phone_number": "13871851033", "address": "湖北省孝感市大悟县发展大道怡心花园南信合对面", "id": 155774, "preview_image": "brands_images/full/9.jpg", "brand_id": 9, "create_time": "NOW()", "longitude": 114.13120953939807, "latitude": 31.57708650396922, "official_coord": 0, "region_id_1": 420000, "region_id_2": 420900, "region_id_3": 420922}, {"name": "沁园恩施利川市专卖店", "phone_number": "13477898826", "address": "湖北省恩施土家族苗族自治州利川市湖北恩施利川市龙船天街", "id": 155775, "preview_image": "brands_images/full/9.jpg", "brand_id": 9, "create_time": "NOW()", "longitude": 108.95598810376198, "latitude": 30.288118490342143, "official_coord": 0, "region_id_1": 420000, "region_id_2": 422800, "region_id_3": 422802}, {"name": "沁园湘潭雨湖区专卖店", "phone_number": "13507326026", "address": "湖南省湘潭市雨湖区雨湖区韶山东路", "id": 155776, "preview_image": "brands_images/full/9.jpg", "brand_id": 9, "create_time": "NOW()", "longitude": 112.92484091378321, "latitude": 27.873650319020395, "official_coord": 0, "region_id_1": 430000, "region_id_2": 430300, "region_id_3": 430302}, {"name": "沁园长沙 开福区专卖店", "phone_number": "17608406430", "address": "湖南省长沙市开福区长沙市开福区北辰三角", "id": 155777, "preview_image": "brands_images/full/9.jpg", "brand_id": 9, "create_time": "NOW()", "longitude": 112.98655198513319, "latitude": 28.24220662889015, "official_coord": 0, "region_id_1": 430000, "region_id_2": 430100, "region_id_3": 430105}, {"name": "沁园常德鼎城区专卖店", "phone_number": "15581066196", "address": "湖南省常德市鼎城区尧天坪街道", "id": 155778, "preview_image": "brands_images/full/9.jpg", "brand_id": 9, "create_time": "NOW()", "longitude": 111.45927768717428, "latitude": 28.770897182267934, "official_coord": 0, "region_id_1": 430000, "region_id_2": 430700, "region_id_3": 430725}, {"name": "沁园永州宁远县专卖店", "phone_number": "15226368632", "address": "湖南省永州市宁远县宁远县内环路中国银行宁远支行东南", "id": 155779, "preview_image": "brands_images/full/9.jpg", "brand_id": 9, "create_time": "NOW()", "longitude": 111.95062663182938, "latitude": 25.602396026357038, "official_coord": 0, "region_id_1": 430000, "region_id_2": 431100, "region_id_3": 431126}, {"name": "沁园长沙 宁乡县专卖店", "phone_number": "18390909668", "address": "湖南省长沙市宁乡县豪德市场A区6街1栋2号", "id": 155780, "preview_image": "brands_images/full/9.jpg", "brand_id": 9, "create_time": "NOW()", "longitude": 112.54387094723668, "latitude": 28.263185311158868, "official_coord": 0, "region_id_1": 0, "region_id_2": 0, "region_id_3": 0}, {"name": "沁园株洲攸县专卖店", "phone_number": "18974111211", "address": "湖南省株洲市攸县大同桥街上", "id": 155781, "preview_image": "brands_images/full/9.jpg", "brand_id": 9, "create_time": "NOW()", "longitude": 113.16136166973384, "latitude": 27.83265155526568, "official_coord": 0, "region_id_1": 430000, "region_id_2": 430200, "region_id_3": 430203}, {"name": "沁园衡阳衡山县专卖店", "phone_number": "13487943688", "address": "湖南省衡阳市衡山县开云镇龙泉中路金盛华城建材市场内", "id": 155782, "preview_image": "brands_images/full/9.jpg", "brand_id": 9, "create_time": "NOW()", "longitude": 112.86967052758202, "latitude": 27.250489990851662, "official_coord": 0, "region_id_1": 430000, "region_id_2": 430400, "region_id_3": 430423}, {"name": "沁园怀化麻阳苗族自治县专卖店", "phone_number": "15576588893", "address": "湖南省怀化市麻阳苗族自治县麻阳县建设南路135号", "id": 155783, "preview_image": "brands_images/full/9.jpg", "brand_id": 9, "create_time": "NOW()", "longitude": 109.80500605276914, "latitude": 27.87025214628328, "official_coord": 0, "region_id_1": 430000, "region_id_2": 431200, "region_id_3": 431226}, {"name": "沁园岳阳平江县专卖店", "phone_number": "18613906226", "address": "湖南省岳阳市平江县湖南省岳阳市平江县民生路118号", "id": 155784, "preview_image": "brands_images/full/9.jpg", "brand_id": 9, "create_time": "NOW()", "longitude": 113.60395139390886, "latitude": 28.6956873960136, "official_coord": 0, "region_id_1": 430000, "region_id_2": 430600, "region_id_3": 430626}, {"name": "沁园永州宁远县专卖店", "phone_number": "18932173736", "address": "湖南省永州市宁远县柏家坪镇中心", "id": 155785, "preview_image": "brands_images/full/9.jpg", "brand_id": 9, "create_time": "NOW()", "longitude": 111.99588443596161, "latitude": 25.84029849876477, "official_coord": 0, "region_id_1": 430000, "region_id_2": 431100, "region_id_3": 431126}, {"name": "沁园长沙 岳麓区专卖店", "phone_number": "13507459027", "address": "湖南省长沙市岳麓区岳麓大道红星美凯龙", "id": 155786, "preview_image": "brands_images/full/9.jpg", "brand_id": 9, "create_time": "NOW()", "longitude": 112.95316842296445, "latitude": 28.23290966875797, "official_coord": 0, "region_id_1": 430000, "region_id_2": 430100, "region_id_3": 430104}, {"name": "沁园长沙 岳麓区专卖店", "phone_number": "18374843366", "address": "湖南省长沙市岳麓区枫林路与骑龙路交汇处", "id": 155787, "preview_image": "brands_images/full/9.jpg", "brand_id": 9, "create_time": "NOW()", "longitude": 112.88605763251238, "latitude": 28.20235744429196, "official_coord": 0, "region_id_1": 430000, "region_id_2": 430100, "region_id_3": 430104}, {"name": "沁园长沙 芙蓉区专卖店", "phone_number": "18674389569", "address": "湖南省长沙市芙蓉区河晏路附近长房白沙湾一楼门面", "id": 155788, "preview_image": "brands_images/full/9.jpg", "brand_id": 9, "create_time": "NOW()", "longitude": 113.0493501050013, "latitude": 28.200004543789756, "official_coord": 0, "region_id_1": 430000, "region_id_2": 430100, "region_id_3": 430102}, {"name": "沁园长沙 岳麓区专卖店", "phone_number": "18874025188", "address": "湖南省长沙市岳麓区靳江小区", "id": 155789, "preview_image": "brands_images/full/9.jpg", "brand_id": 9, "create_time": "NOW()", "longitude": 112.95544303440047, "latitude": 28.149311772171973, "official_coord": 0, "region_id_1": 430000, "region_id_2": 430100, "region_id_3": 430104}, {"name": "沁园衡阳衡南县专卖店", "phone_number": "18711438736", "address": "湖南省衡阳市衡南县衡南县友谊星城20号（黄金路南）", "id": 155790, "preview_image": "brands_images/full/9.jpg", "brand_id": 9, "create_time": "NOW()", "longitude": 112.6775392716881, "latitude": 26.743705926777913, "official_coord": 0, "region_id_1": 430000, "region_id_2": 430400, "region_id_3": 430422}, {"name": "沁园永州祁阳县专卖店", "phone_number": "18774666020", "address": "湖南省永州市祁阳县梅溪镇镇中心", "id": 155791, "preview_image": "brands_images/full/9.jpg", "brand_id": 9, "create_time": "NOW()", "longitude": 112.08338458722788, "latitude": 26.541926307059416, "official_coord": 0, "region_id_1": 430000, "region_id_2": 431100, "region_id_3": 431121}, {"name": "沁园郴州临武县专卖店", "phone_number": "18373590005", "address": "湖南省郴州市临武县建材市场", "id": 155792, "preview_image": "brands_images/full/9.jpg", "brand_id": 9, "create_time": "NOW()", "longitude": 112.55798483991964, "latitude": 25.287733350829605, "official_coord": 0, "region_id_1": 430000, "region_id_2": 431000, "region_id_3": 431025}, {"name": "沁园深圳市龙岗区专卖店", "phone_number": "13924653396", "address": "广东省深圳市龙岗区龙园路183号", "id": 155793, "preview_image": "brands_images/full/9.jpg", "brand_id": 9, "create_time": "NOW()", "longitude": 114.27088188701975, "latitude": 22.73398256297821, "official_coord": 0, "region_id_1": 440000, "region_id_2": 440300, "region_id_3": 440307}, {"name": "沁园东莞市东莞市专卖店", "phone_number": "13790666456", "address": "广东省东莞市东莞市东城中路美汇名家建材城", "id": 155794, "preview_image": "brands_images/full/9.jpg", "brand_id": 9, "create_time": "NOW()", "longitude": 113.78237262073361, "latitude": 23.04034918478624, "official_coord": 0, "region_id_1": 100000, "region_id_2": 440000, "region_id_3": 441900}, {"name": "沁园 江门市新会区专卖店", "phone_number": "13827003902", "address": "广东省江门市新会区沙堆圩镇中心", "id": 155795, "preview_image": "brands_images/full/9.jpg", "brand_id": 9, "create_time": "NOW()", "longitude": 112.94604652992156, "latitude": 22.525204264182722, "official_coord": 0, "region_id_1": 440000, "region_id_2": 440700, "region_id_3": 440705}, {"name": "沁园清远市佛冈县专卖店", "phone_number": "13376677888", "address": "广东省清远市佛冈县青松东路", "id": 155796, "preview_image": "brands_images/full/9.jpg", "brand_id": 9, "create_time": "NOW()", "longitude": 113.54420101952445, "latitude": 23.869257479475927, "official_coord": 0, "region_id_1": 440000, "region_id_2": 441800, "region_id_3": 441821}, {"name": "沁园茂名市化州市专卖店", "phone_number": "15986238817", "address": "广东省茂名市化州市化州市北京西路检察院正对面", "id": 155797, "preview_image": "brands_images/full/9.jpg", "brand_id": 9, "create_time": "NOW()", "longitude": 110.63656314494008, "latitude": 21.66684883528931, "official_coord": 0, "region_id_1": 440000, "region_id_2": 440900, "region_id_3": 440982}, {"name": "沁园 江门市新会区专卖店", "phone_number": "13555655033", "address": "广东省江门市新会区沙堆圩镇中心", "id": 155798, "preview_image": "brands_images/full/9.jpg", "brand_id": 9, "create_time": "NOW()", "longitude": 112.94604652992156, "latitude": 22.525204264182722, "official_coord": 0, "region_id_1": 440000, "region_id_2": 440700, "region_id_3": 440705}, {"name": "沁园湛江市坡头区专卖店", "phone_number": "13724753437", "address": "广东省湛江市坡头区湛江坡头专卖店", "id": 155799, "preview_image": "brands_images/full/9.jpg", "brand_id": 9, "create_time": "NOW()", "longitude": 110.50674776097877, "latitude": 21.263401682208162, "official_coord": 0, "region_id_1": 440000, "region_id_2": 440800, "region_id_3": 440804}, {"name": "沁园东莞市东莞市专卖店", "phone_number": "13826188707", "address": "广东省东莞市东莞市世博家居广场", "id": 155800, "preview_image": "brands_images/full/9.jpg", "brand_id": 9, "create_time": "NOW()", "longitude": 113.6618550421679, "latitude": 22.907211436956253, "official_coord": 0, "region_id_1": 100000, "region_id_2": 440000, "region_id_3": 441900}, {"name": "沁园梅州市兴宁市专卖店", "phone_number": "18312231601", "address": "广东省梅州市兴宁市教育路第一小学对面", "id": 155801, "preview_image": "brands_images/full/9.jpg", "brand_id": 9, "create_time": "NOW()", "longitude": 115.74735566731214, "latitude": 24.138663630889564, "official_coord": 0, "region_id_1": 440000, "region_id_2": 441400, "region_id_3": 441481}, {"name": "沁园阳江市阳春市专卖店", "phone_number": "13794751039", "address": "广东省阳江市阳春市春江路166号", "id": 155802, "preview_image": "brands_images/full/9.jpg", "brand_id": 9, "create_time": "NOW()", "longitude": 111.76758661906905, "latitude": 22.05639249273158, "official_coord": 0, "region_id_1": 440000, "region_id_2": 441700, "region_id_3": 441781}, {"name": "沁园东莞市东莞市专卖店", "phone_number": "13712469990", "address": "广东省东莞市东莞市焦利村", "id": 155803, "preview_image": "brands_images/full/9.jpg", "brand_id": 9, "create_time": "NOW()", "longitude": 113.68368705702738, "latitude": 23.08961833212747, "official_coord": 0, "region_id_1": 100000, "region_id_2": 440000, "region_id_3": 441900}, {"name": "沁园深圳市宝安区专卖店", "phone_number": "13530965454", "address": "广东省深圳市宝安区宝安区沙井镇新沙路万科物业", "id": 155804, "preview_image": "brands_images/full/9.jpg", "brand_id": 9, "create_time": "NOW()", "longitude": 113.82057104862058, "latitude": 22.739548504796776, "official_coord": 0, "region_id_1": 440000, "region_id_2": 440300, "region_id_3": 440306}, {"name": "沁园深圳市宝安区专卖店", "phone_number": "13316855115", "address": "广东省深圳市宝安区深圳市光明新区华夏路和润家园1栋8号铺", "id": 155805, "preview_image": "brands_images/full/9.jpg", "brand_id": 9, "create_time": "NOW()", "longitude": 113.94849985731811, "latitude": 22.758289537774573, "official_coord": 0, "region_id_1": 440000, "region_id_2": 440300, "region_id_3": 440306}, {"name": "沁园汕头市龙湖区专卖店", "phone_number": "13502931226", "address": "广东省汕头市龙湖区汕头市龙湖区长平路阳光海岸对面沁园专卖店", "id": 155806, "preview_image": "brands_images/full/9.jpg", "brand_id": 9, "create_time": "NOW()", "longitude": 116.75691236667123, "latitude": 23.368640124247385, "official_coord": 0, "region_id_1": 440000, "region_id_2": 440500, "region_id_3": 440507}, {"name": "沁园湛江市徐闻县专卖店", "phone_number": "18927615612", "address": "广东省湛江市徐闻县东平三路与前进路交叉口", "id": 155807, "preview_image": "brands_images/full/9.jpg", "brand_id": 9, "create_time": "NOW()", "longitude": 110.18603246653316, "latitude": 20.327707983215447, "official_coord": 0, "region_id_1": 440000, "region_id_2": 440800, "region_id_3": 440825}, {"name": "沁园惠州市惠东县专卖店", "phone_number": "13631918465", "address": "广东省惠州市惠东县大街", "id": 155808, "preview_image": "brands_images/full/9.jpg", "brand_id": 9, "create_time": "NOW()", "longitude": 114.68418393032601, "latitude": 23.114720949690568, "official_coord": 0, "region_id_1": 440000, "region_id_2": 441300, "region_id_3": 441323}, {"name": "沁园佛山市南海区专卖店", "phone_number": "13823442055", "address": "广东省佛山市南海区洛浦路洛月楼7号铺", "id": 155809, "preview_image": "brands_images/full/9.jpg", "brand_id": 9, "create_time": "NOW()", "longitude": 113.010485268183, "latitude": 22.8409891329171, "official_coord": 0, "region_id_1": 440000, "region_id_2": 440600, "region_id_3": 440605}, {"name": "沁园钦州浦北县专卖店", "phone_number": "13977756785", "address": "广西壮族自治区钦州市浦北县越州大道25号", "id": 155810, "preview_image": "brands_images/full/9.jpg", "brand_id": 9, "create_time": "NOW()", "longitude": 109.55796183000355, "latitude": 22.262251609121364, "official_coord": 0, "region_id_1": 450000, "region_id_2": 450700, "region_id_3": 450722}, {"name": "沁园桂林兴安县专卖店", "phone_number": "13597039865", "address": "广西壮族自治区桂林市兴安县秦人街1-30门面", "id": 155811, "preview_image": "brands_images/full/9.jpg", "brand_id": 9, "create_time": "NOW()", "longitude": 110.67738531143185, "latitude": 25.618124615923985, "official_coord": 0, "region_id_1": 450000, "region_id_2": 450300, "region_id_3": 450325}, {"name": "沁园南宁隆安县专卖店", "phone_number": "13978605267", "address": "广西壮族自治区南宁市隆安县杨湾乡百朝街", "id": 155812, "preview_image": "brands_images/full/9.jpg", "brand_id": 9, "create_time": "NOW()", "longitude": 107.58806250498176, "latitude": 23.173956998741115, "official_coord": 0, "region_id_1": 450000, "region_id_2": 450100, "region_id_3": 450123}, {"name": "沁园柳州融水苗族自治县专卖店", "phone_number": "18277265962", "address": "广西壮族自治区柳州市融水苗族自治县朱砂路57号欧亚家居", "id": 155813, "preview_image": "brands_images/full/9.jpg", "brand_id": 9, "create_time": "NOW()", "longitude": 109.24974117180565, "latitude": 25.072133085588053, "official_coord": 0, "region_id_1": 450000, "region_id_2": 450200, "region_id_3": 450225}, {"name": "沁园重庆彭水苗族土家族自治县专卖店", "phone_number": "18996909668", "address": "重庆市彭水苗族土家族自治县重庆市彭水县插旗街12号附1号", "id": 155814, "preview_image": "brands_images/full/9.jpg", "brand_id": 9, "create_time": "NOW()", "longitude": 108.16408333640943, "latitude": 29.294626498360742, "official_coord": 0, "region_id_1": 500000, "region_id_2": 500100, "region_id_3": 500243}, {"name": "沁园重庆江津区专卖店", "phone_number": "15998918806", "address": "重庆市江津区江津区西门路281号（大西门水厂旁）", "id": 155815, "preview_image": "brands_images/full/9.jpg", "brand_id": 9, "create_time": "NOW()", "longitude": 106.25751028260255, "latitude": 29.28785911611621, "official_coord": 0, "region_id_1": 500000, "region_id_2": 500100, "region_id_3": 500116}, {"name": "沁园重庆彭水苗族土家族自治县专卖店", "phone_number": "18996909668", "address": "重庆市彭水苗族土家族自治县彭水县绍庆街道插旗街83号", "id": 155816, "preview_image": "brands_images/full/9.jpg", "brand_id": 9, "create_time": "NOW()", "longitude": 108.16388397585209, "latitude": 29.297495332575, "official_coord": 0, "region_id_1": 500000, "region_id_2": 500100, "region_id_3": 500243}, {"name": "沁园重庆沙坪坝区专卖店", "phone_number": "18667005366", "address": "重庆市沙坪坝区大学城西路宝嘉花与山A1-8", "id": 155817, "preview_image": "brands_images/full/9.jpg", "brand_id": 9, "create_time": "NOW()", "longitude": 106.29051322879978, "latitude": 29.599012036616198, "official_coord": 0, "region_id_1": 500000, "region_id_2": 500100, "region_id_3": 500106}, {"name": "沁园重庆丰都县专卖店", "phone_number": "15023750776", "address": "重庆市丰都县丰都县滨江路99号附9号", "id": 155818, "preview_image": "brands_images/full/9.jpg", "brand_id": 9, "create_time": "NOW()", "longitude": 107.74532270453273, "latitude": 29.87993305123601, "official_coord": 0, "region_id_1": 500000, "region_id_2": 500100, "region_id_3": 500230}, {"name": "沁园成都温江区专卖店", "phone_number": "13008116310", "address": "四川省成都市温江区光华大道三段", "id": 155819, "preview_image": "brands_images/full/9.jpg", "brand_id": 9, "create_time": "NOW()", "longitude": 103.87952852779917, "latitude": 30.684740800327244, "official_coord": 0, "region_id_1": 510000, "region_id_2": 510100, "region_id_3": 510115}, {"name": "沁园成都邛崃市专卖店", "phone_number": "13880838055", "address": "四川省成都市邛崃市邛崃市玉带街", "id": 155820, "preview_image": "brands_images/full/9.jpg", "brand_id": 9, "create_time": "NOW()", "longitude": 103.46314812559386, "latitude": 30.40611510755843, "official_coord": 0, "region_id_1": 510000, "region_id_2": 510100, "region_id_3": 510183}, {"name": "沁园南充顺庆区专卖店", "phone_number": "15908275820", "address": "四川省南充市顺庆区南充市果城路138号", "id": 155821, "preview_image": "brands_images/full/9.jpg", "brand_id": 9, "create_time": "NOW()", "longitude": 106.10202019356751, "latitude": 30.801174984603723, "official_coord": 0, "region_id_1": 510000, "region_id_2": 511300, "region_id_3": 511302}, {"name": "沁园黔东南苗族侗族自治州麻江县专卖店", "phone_number": "15085238199", "address": "贵州省黔东南苗族侗族自治州麻江县凤凰大道", "id": 155822, "preview_image": "brands_images/full/9.jpg", "brand_id": 9, "create_time": "NOW()", "longitude": 107.59475811948717, "latitude": 26.502649089048774, "official_coord": 0, "region_id_1": 520000, "region_id_2": 522600, "region_id_3": 522635}, {"name": "沁园铜仁地区 德江县专卖店", "phone_number": "13339663469", "address": "贵州省铜仁市德江县贵州省铜仁市德江县青龙镇环西路52号", "id": 155823, "preview_image": "brands_images/full/9.jpg", "brand_id": 9, "create_time": "NOW()", "longitude": 108.11656512210527, "latitude": 28.26741176032735, "official_coord": 0, "region_id_1": 520000, "region_id_2": 520600, "region_id_3": 520626}, {"name": "沁园安顺市西秀区专卖店", "phone_number": "13639636660", "address": "贵州省安顺市西秀区红星美凯龙一楼", "id": 155824, "preview_image": "brands_images/full/9.jpg", "brand_id": 9, "create_time": "NOW()", "longitude": 105.95283394089233, "latitude": 26.242279109831774, "official_coord": 0, "region_id_1": 520000, "region_id_2": 520400, "region_id_3": 520402}, {"name": "沁园玉溪华宁县专卖店", "phone_number": "18187733178", "address": "云南省玉溪市华宁县农贸街", "id": 155825, "preview_image": "brands_images/full/9.jpg", "brand_id": 9, "create_time": "NOW()", "longitude": 103.02431403759532, "latitude": 24.064352425141237, "official_coord": 0, "region_id_1": 530000, "region_id_2": 530400, "region_id_3": 530424}, {"name": "沁园红河开远市专卖店", "phone_number": "18669098853", "address": "云南省红河哈尼族彝族自治州开远市开远市落云北路飞马地产8-15号", "id": 155826, "preview_image": "brands_images/full/9.jpg", "brand_id": 9, "create_time": "NOW()", "longitude": 103.25887792621943, "latitude": 23.720392801276724, "official_coord": 0, "region_id_1": 530000, "region_id_2": 532500, "region_id_3": 532502}, {"name": "沁园昆明寻甸回族彝族自治县专卖店", "phone_number": "15887002369", "address": "云南省昆明市寻甸回族彝族自治县寻甸县广场西路", "id": 155827, "preview_image": "brands_images/full/9.jpg", "brand_id": 9, "create_time": "NOW()", "longitude": 103.26279576176078, "latitude": 25.558220420644137, "official_coord": 0, "region_id_1": 530000, "region_id_2": 530100, "region_id_3": 530129}, {"name": "沁园重庆彭水苗族土家族自治县专卖店", "phone_number": "18996909668", "address": "重庆市彭水苗族土家族自治县重庆市彭水县插旗街12号附1号", "id": 155828, "preview_image": "brands_images/full/9.jpg", "brand_id": 9, "create_time": "NOW()", "longitude": 108.16408333640943, "latitude": 29.294626498360742, "official_coord": 0, "region_id_1": 500000, "region_id_2": 500100, "region_id_3": 500243}, {"name": "沁园重庆江津区专卖店", "phone_number": "15998918806", "address": "重庆市江津区江津区西门路281号（大西门水厂旁）", "id": 155829, "preview_image": "brands_images/full/9.jpg", "brand_id": 9, "create_time": "NOW()", "longitude": 106.25751028260255, "latitude": 29.28785911611621, "official_coord": 0, "region_id_1": 500000, "region_id_2": 500100, "region_id_3": 500116}, {"name": "沁园重庆彭水苗族土家族自治县专卖店", "phone_number": "18996909668", "address": "重庆市彭水苗族土家族自治县彭水县绍庆街道插旗街83号", "id": 155830, "preview_image": "brands_images/full/9.jpg", "brand_id": 9, "create_time": "NOW()", "longitude": 108.16388397585209, "latitude": 29.297495332575, "official_coord": 0, "region_id_1": 500000, "region_id_2": 500100, "region_id_3": 500243}, {"name": "沁园重庆沙坪坝区专卖店", "phone_number": "18667005366", "address": "重庆市沙坪坝区大学城西路宝嘉花与山A1-8", "id": 155831, "preview_image": "brands_images/full/9.jpg", "brand_id": 9, "create_time": "NOW()", "longitude": 106.29051322879978, "latitude": 29.599012036616198, "official_coord": 0, "region_id_1": 500000, "region_id_2": 500100, "region_id_3": 500106}, {"name": "沁园重庆丰都县专卖店", "phone_number": "15023750776", "address": "重庆市丰都县丰都县滨江路99号附9号", "id": 155832, "preview_image": "brands_images/full/9.jpg", "brand_id": 9, "create_time": "NOW()", "longitude": 107.74532270453273, "latitude": 29.87993305123601, "official_coord": 0, "region_id_1": 500000, "region_id_2": 500100, "region_id_3": 500230}, {"name": "沁园延安吴起县专卖店", "phone_number": "18009117955", "address": "陕西省延安市吴起县延安市吴起县刘渠子", "id": 155833, "preview_image": "brands_images/full/9.jpg", "brand_id": 9, "create_time": "NOW()", "longitude": 108.2024295081204, "latitude": 36.90496324720626, "official_coord": 0, "region_id_1": 610000, "region_id_2": 610600, "region_id_3": 610626}, {"name": "沁园渭南华县专卖店", "phone_number": "13572727707", "address": "陕西省渭南市华县永安建材城", "id": 155834, "preview_image": "brands_images/full/9.jpg", "brand_id": 9, "create_time": "NOW()", "longitude": 109.77933917507518, "latitude": 34.51255414399196, "official_coord": 0, "region_id_1": 0, "region_id_2": 0, "region_id_3": 0}, {"name": "沁园西安未央区专卖店", "phone_number": "18049405457", "address": "陕西省西安市未央区大明宫三桥店", "id": 155835, "preview_image": "brands_images/full/9.jpg", "brand_id": 9, "create_time": "NOW()", "longitude": 108.83115474672269, "latitude": 34.30100292527173, "official_coord": 0, "region_id_1": 610000, "region_id_2": 610100, "region_id_3": 610112}, {"name": "沁园安康白河县专卖店", "phone_number": "15129356893", "address": "陕西省安康市白河县狮子山新区", "id": 155836, "preview_image": "brands_images/full/9.jpg", "brand_id": 9, "create_time": "NOW()", "longitude": 110.12075680654554, "latitude": 32.80817101938628, "official_coord": 0, "region_id_1": 610000, "region_id_2": 610900, "region_id_3": 610929}, {"name": "沁园榆林横山县专卖店", "phone_number": "15929643110", "address": "陕西省榆林市横山县榆林市横山县锦江建材市场", "id": 155837, "preview_image": "brands_images/full/9.jpg", "brand_id": 9, "create_time": "NOW()", "longitude": 109.29884748716299, "latitude": 37.96032651984218, "official_coord": 0, "region_id_1": 0, "region_id_2": 0, "region_id_3": 0}, {"name": "沁园银川永宁县专卖店", "phone_number": "13895638472", "address": "宁夏回族自治区银川市永宁县望远人家", "id": 155838, "preview_image": "brands_images/full/9.jpg", "brand_id": 9, "create_time": "NOW()", "longitude": 106.26841773722315, "latitude": 38.386475922460136, "official_coord": 0, "region_id_1": 640000, "region_id_2": 640100, "region_id_3": 640121}]