[{"name": "哈尔滨诚和科技有限公司", "address": "黑龙江省哈尔滨市南岗区宣化街589号\r\n", "number": "0451-80566911/0451-82566933", "x": "126.674714", "y": "45.779085", "phone_number": "0451-80566911/0451-82566933", "longitude": "126.674714", "latitude": "45.779085"}, {"name": "广东创仁科技有限公司", "address": "广州市天河石牌西路东园小区27号101之四", "number": "15813381464/020-38559381", "x": "113.343747", "y": "23.136811", "phone_number": "15813381464/020-38559381", "longitude": "113.343747", "latitude": "23.136811"}, {"name": "西安佳吉泰电子有限公司", "address": "西安市碑林区文艺南路84号白金广场小区", "number": "029-87894203", "x": "108.959943", "y": "34.240374", "phone_number": "029-87894203", "longitude": "108.959943", "latitude": "34.240374"}, {"name": "郑州佳利鸽科贸有限公司", "address": "郑州市金水区文化路81号附7号1号楼6单元3层9号", "number": "0371-63911241", "x": "113.672318", "y": "34.805202", "phone_number": "0371-63911241", "longitude": "113.672318", "latitude": "34.805202"}, {"name": "云南金伦办公设备有限公司", "address": "昆明市人民中路都市名园C座4楼", "number": "0871-64581119-968", "x": "102.70842", "y": "25.04935", "phone_number": "0871-64581119-968", "longitude": "102.70842", "latitude": "25.04935"}, {"name": "广州乐租办公设备有限公司", "address": "广州市花都区花东镇保良村花东商业城C2栋3层3-1", "number": "18638258885", "x": "113.370578", "y": "23.424808", "phone_number": "18638258885", "longitude": "113.370578", "latitude": "23.424808"}, {"name": "长沙泰思正电子科技有限公司", "address": "长沙市雨花区人民路9号百脑汇A座701室", "number": "13142025828", "x": "113.013715", "y": "28.190492", "phone_number": "13142025828", "longitude": "113.013715", "latitude": "28.190492"}, {"name": "济南韬瑞信息科技有限公司", "address": "山东省济南市历下区解放路41号", "number": "15064080273", "x": "117.064443", "y": "36.672279", "phone_number": "15064080273", "longitude": "117.064443", "latitude": "36.672279"}, {"name": "重庆中虎科技有限公司", "address": "重庆铜梁区巴川街道办事处营盘路21号锦辉电脑城一楼10A号", "number": "15310190111", "x": "106.062874", "y": "29.845601", "phone_number": "15310190111", "longitude": "106.062874", "latitude": "29.845601"}, {"name": "重庆市双桥区欣益嘉诚电脑经营部", "address": "重庆市双桥经开区美食街", "number": "15310251190", "x": "105.757416", "y": "29.431526", "phone_number": "15310251190", "longitude": "105.757416", "latitude": "29.431526"}, {"name": "重庆天择电子设备有限公司", "address": "重庆丰都县新城市广场33号", "number": "13308258088", "x": "107.741235", "y": "29.87295", "phone_number": "13308258088", "longitude": "107.741235", "latitude": "29.87295"}, {"name": "重庆江津区茂彦科技有限公司", "address": "重庆江津区西关街道36号", "number": "15320388303", "x": "106.257665", "y": "29.280199", "phone_number": "15320388303", "longitude": "106.257665", "latitude": "29.280199"}, {"name": "重庆洲标科技发展有限公司", "address": "重庆北碚区同生桥", "number": "17726686978", "x": "106.466745", "y": "29.577173", "phone_number": "17726686978", "longitude": "106.466745", "latitude": "29.577173"}, {"name": "重庆宁丁办公设备有限公司", "address": "重庆万盛区万盛大道62号", "number": "13983051501", "x": "106.934989", "y": "28.963132", "phone_number": "13983051501", "longitude": "106.934989", "latitude": "28.963132"}, {"name": "石柱县土家族自治县陈朝群电脑经营部", "address": "重庆石柱县南宾街道新开路71号", "number": "13308279429", "x": "108.122902", "y": "30.00352", "phone_number": "13308279429", "longitude": "108.122902", "latitude": "30.00352"}, {"name": "重庆创天办公设备有限公司", "address": "重庆永川商贸城一区18-13", "number": "13883638302", "x": "105.915032", "y": "29.346768", "phone_number": "13883638302", "longitude": "105.915032", "latitude": "29.346768"}, {"name": "荣昌县慧通办公设备经营部", "address": "重庆荣昌区向阳路中华奥城9-10-11号门面", "number": "13883133112", "x": "105.616219", "y": "29.418348", "phone_number": "13883133112", "longitude": "105.616219", "latitude": "29.418348"}, {"name": "重庆沛涵科技有限公司", "address": "重庆合川区苏家街重百背后", "number": "13883367737", "x": "106.27449", "y": "29.998616", "phone_number": "13883367737", "longitude": "106.27449", "latitude": "29.998616"}, {"name": "重庆市长寿区淳扬办公设备有限公司", "address": "重庆长寿区桃源支路2号附29-30号", "number": "18908347009", "x": "107.087593", "y": "29.866856", "phone_number": "18908347009", "longitude": "107.087593", "latitude": "29.866856"}, {"name": "重庆天择物资有限公司涪陵分公司", "address": "重庆涪陵体育南路3-1号", "number": "13808383171", "x": "107.399031", "y": "29.70306", "phone_number": "13808383171", "longitude": "107.399031", "latitude": "29.70306"}, {"name": "重庆中钦办公设备有限公司", "address": "重庆江北区观音桥步行街赛博3楼", "number": "15823112377", "x": "106.537903", "y": "29.578866", "phone_number": "15823112377", "longitude": "106.537903", "latitude": "29.578866"}, {"name": "重庆华迈办公设备有限公司", "address": "重庆九龙坡区石桥铺佰腾2楼", "number": "18725788858", "x": "106.489734", "y": "29.53533", "phone_number": "18725788858", "longitude": "106.489734", "latitude": "29.53533"}, {"name": "重庆飞利达办公设备有限公司", "address": "重庆九龙坡区石桥铺泰兴电脑城负一楼", "number": "13983198278", "x": "106.489676", "y": "29.536294", "phone_number": "13983198278", "longitude": "106.489676", "latitude": "29.536294"}, {"name": "重庆融冕商贸有限公司", "address": "重庆九龙坡区石桥铺渝高B座2单元10-6", "number": "18623100566", "x": "106.491436", "y": "29.535513", "phone_number": "18623100566", "longitude": "106.491436", "latitude": "29.535513"}, {"name": "重庆铭顺办公设备有限公司", "address": "重庆九龙坡区石桥铺渝高B座1单元6-7", "number": "13908383183", "x": "106.491436", "y": "29.535513", "phone_number": "13908383183", "longitude": "106.491436", "latitude": "29.535513"}, {"name": "重庆东晓电子工程有限公司", "address": "重庆石桥铺渝州路100号南方花园B区3单元3-2", "number": "15310933732", "x": "106.497993", "y": "29.538981", "phone_number": "15310933732", "longitude": "106.497993", "latitude": "29.538981"}, {"name": "重庆跃成科技发展有限公司", "address": "重庆黔江区城西街道雄鹰大道71号", "number": "13212490678", "x": "108.808569", "y": "29.530044", "phone_number": "13212490678", "longitude": "108.808569", "latitude": "29.530044"}, {"name": "黔江通海科技发展有限公司", "address": "重庆黔江区城西街文体路55号1-1HP电脑", "number": "13212486599", "x": "121.41374490483", "y": "31.213415953851", "phone_number": "13212486599", "longitude": "121.41374490483", "latitude": "31.213415953851"}, {"name": "重庆宗灿科技发展有限公司", "address": "重庆市渝中区民生路9号阳光星座31-11", "number": "13500308919", "x": "121.41374490483", "y": "31.213415953851", "phone_number": "13500308919", "longitude": "121.41374490483", "latitude": "31.213415953851"}, {"name": "重庆市万州区万众电脑有限公司", "address": "重庆市万州区白岩路418号", "number": "13896999079", "x": "108.370661", "y": "30.821631", "phone_number": "13896999079", "longitude": "108.370661", "latitude": "30.821631"}, {"name": "重庆天运商用机械有限公司", "address": "重庆市渝中区两路口南区路160号万吉商务大厦11楼", "number": "13883701113", "x": "106.559568", "y": "29.55781", "phone_number": "13883701113", "longitude": "106.559568", "latitude": "29.55781"}, {"name": "青海浩泽福瑞商贸有限公司", "address": "西宁市胜利路22号6号楼2单元2012室", "number": "0971-6140004", "x": "101.772162", "y": "36.638161", "phone_number": "0971-6140004", "longitude": "101.772162", "latitude": "36.638161"}, {"name": "大连宏锦电子科技有限公司", "address": "大连甘井子区海桥园57号4单元1层2号", "number": "0411-84522016", "x": "121.603221", "y": "38.957075", "phone_number": "0411-84522016", "longitude": "121.603221", "latitude": "38.957075"}, {"name": "上海优启办公设备有限公司", "address": "上海市徐汇区宜山路889号齐来大厦305室", "number": "021-32098901", "x": "121.411856", "y": "31.176519", "phone_number": "021-32098901", "longitude": "121.411856", "latitude": "31.176519"}, {"name": "南宁市多之吉办公用品有限公司", "address": "南宁市青秀区星湖路南二里3号星湖综合楼住宅楼二单元103房\r\n", "number": "0771-5390877", "x": "108.305016", "y": "22.887505", "phone_number": "0771-5390877", "longitude": "108.305016", "latitude": "22.887505"}, {"name": "福建省科威技术发展有限公司", "address": "福建省福州市晋安区福新中路89号时代国际广场901-906\r\n", "number": "0591-87513111", "x": "119.33104", "y": "26.086489", "phone_number": "0591-87513111", "longitude": "119.33104", "latitude": "26.086489"}, {"name": "山西光明科技发展有限公司", "address": "太原市平阳路14号赛格数码港十层G-M室\r\n", "number": "0351-7555333", "x": "112.559561", "y": "37.844663", "phone_number": "0351-7555333", "longitude": "112.559561", "latitude": "37.844663"}, {"name": "贵州益科威嘉信息技术有限公司", "address": "贵州省贵阳市南明区青云路45号裕阳大厦商住楼2单元7层1号\r\n", "number": "0851-85803555", "x": "106.72307", "y": "26.570666", "phone_number": "0851-85803555", "longitude": "106.72307", "latitude": "26.570666"}, {"name": "长春市科越科技有限公司", "address": "长春市宽城区长江路科技城4D11室\r\n", "number": "13756310033", "x": "125.331179", "y": "43.911916", "phone_number": "13756310033", "longitude": "125.331179", "latitude": "43.911916"}, {"name": "深圳骏捷数码科技有限公司", "address": "深圳市福田区华强街道鹏基上步工业区405栋409A\r\n", "number": "0755-83217344", "x": "114.091875", "y": "22.553896", "phone_number": "0755-83217344", "longitude": "114.091875", "latitude": "22.553896"}, {"name": "北京圣豪办公设备有限公司", "address": "北京市海淀区开拓路1号汇苑开拓大厦B座二层2029（100080）\r\n", "number": "010-82608828", "x": "116.310029", "y": "40.050542", "phone_number": "010-82608828", "longitude": "116.310029", "latitude": "40.050542"}, {"name": "合肥丽辉数码科技有限公司", "address": "合肥市金寨路23号地方铁路家园一单元1502室 邮编：230022\r\n", "number": "0551-63667032", "x": "117.270409", "y": "31.838685", "phone_number": "0551-63667032", "longitude": "117.270409", "latitude": "31.838685"}, {"name": "重庆威科办公设备有限公司", "address": "重庆市九龙坡区石桥铺科园一街25号附5号E-4-5\r\n", "number": "023-68793928", "x": "106.494106", "y": "29.543302", "phone_number": "023-68793928", "longitude": "106.494106", "latitude": "29.543302"}, {"name": "宁波市利宏信息系统工程有限公司", "address": "宁波市海曙区翠柏路51号\r\n", "number": "0574-87342626", "x": "121.539091", "y": "29.884944", "phone_number": "0574-87342626", "longitude": "121.539091", "latitude": "29.884944"}, {"name": "武汉市杰瑞办公设备有限责任公司 ", "address": "武汉洪山区珞瑜路131号百佳电脑卖场C088号\r\n", "number": "027-87871829", "x": "114.367733", "y": "30.530826", "phone_number": "027-87871829", "longitude": "114.367733", "latitude": "30.530826"}, {"name": "沈阳金诚龙办公科技有限公司", "address": "沈阳市和平区文萃路1甲17号\r\n", "number": "024-23881996 ", "x": "123.432235", "y": "41.776901", "phone_number": "024-23881996 ", "longitude": "123.432235", "latitude": "41.776901"}, {"name": "四川翰峰瑞科技有限公司", "address": "四川成都市青羊区清波路388号\r\n", "number": "028-66333771", "x": "103.997541", "y": "30.69237", "phone_number": "028-66333771", "longitude": "103.997541", "latitude": "30.69237"}, {"name": "兰州理想新技术有限公司", "address": "兰州市城关区甘南路 133号 (至诚首府)1904室", "number": "0931-8738221", "x": "", "y": null, "phone_number": "0931-8738221"}, {"name": "甘肃安德电子科技有限公司", "address": "甘肃省兰州市城关区科技街5号\r\n", "number": "0931-2101418", "x": "103.824005", "y": "36.062168", "phone_number": "0931-2101418", "longitude": "103.824005", "latitude": "36.062168"}, {"name": "杭州世联办公设备有限公司", "address": "杭州市西湖区黄姑山路48号1号综合楼2楼", "number": "0571-87671623", "x": "120.140708", "y": "30.282651", "phone_number": "0571-87671623", "longitude": "120.140708", "latitude": "30.282651"}, {"name": "哈尔滨超越理想科技开发有限公司", "address": "哈尔滨市南岗区一曼街18号 龙威大厦 5单元902", "number": "0451-82534288", "x": "126.629687", "y": "45.768193", "phone_number": "0451-82534288", "longitude": "126.629687", "latitude": "45.768193"}, {"name": "银川理想新技术有限公司", "address": "银川市文化东街194号", "number": "0951-6083550", "x": "", "y": null, "phone_number": "0951-6083550"}, {"name": "江门市宝龙数码科技有限公司", "address": "江门市潮江路88号首、二层", "number": "0750-8238888", "x": "", "y": null, "phone_number": "0750-8238888"}, {"name": "北京华厦时代商贸有限公司", "address": "北京市丰台区南四环中路40号派诺利文创园B306", "number": "010-88390123", "x": "116.43389954331", "y": "39.864872883342", "phone_number": "010-88390123", "longitude": "116.43389954331", "latitude": "39.864872883342"}, {"name": "北京圣豪办公设备有限公司", "address": "呼和浩特北京市海淀区开拓路1号汇苑开拓大厦B座二层2029（100080）", "number": "010-82608828", "x": "116.310029", "y": "40.050542", "phone_number": "010-82608828", "longitude": "116.310029", "latitude": "40.050542"}, {"name": "北京圣豪办公设备有限公司", "address": "天津北京市海淀区开拓路1号汇苑开拓大厦B座二层2029（100080）", "number": "010-82608828", "x": "116.310029", "y": "40.050542", "phone_number": "010-82608828", "longitude": "116.310029", "latitude": "40.050542"}, {"name": "北京圣豪办公设备有限公司", "address": "唐山北京市海淀区开拓路1号汇苑开拓大厦B座二层2029（100080）", "number": "010-82608828", "x": "116.310029", "y": "40.050542", "phone_number": "010-82608828", "longitude": "116.310029", "latitude": "40.050542"}, {"name": "苏州佳诚办公设备有限公司 ", "address": "苏州市相城区阳澄湖东路99号百购商业广场C幢425室\r\n夏普智能设备展示中心\r\n常熟市黄河路12号国际贸易中心B幢1711室\r\n", "number": "0512--67867093    0512--65118687", "x": "", "y": null, "phone_number": "0512--67867093    0512--65118687"}, {"name": "广州特阳信息科技有限公司", "address": "广州市天河区石牌西直街19号401房", "number": "18688438053 020-38559897", "x": "", "y": null, "phone_number": "18688438053 020-38559897"}, {"name": "长沙志诚泰和文仪办公设备有限公司", "address": "长沙市芙蓉区朝阳路19号国际IT城3楼301室", "number": "0731-82834333", "x": "", "y": null, "phone_number": "0731-82834333"}, {"name": "东莞市金瑞办公设备有限公司", "address": "广东省东莞市东城世博广场G区天源数码港二楼G2001号", "number": "0769-22485498", "x": "", "y": null, "phone_number": "0769-22485498"}, {"name": "珠海信智通科技有限公司", "address": "广东省珠海市香洲区湾仔沙海城大厦1208室", "number": "0756-2139069", "x": "", "y": null, "phone_number": "0756-2139069"}, {"name": "宁夏盛源泰泽商贸有限公司", "address": "银川市兴庆区利民南街陶瓷巷4号楼5单元", "number": "0951-4793591", "x": "", "y": null, "phone_number": "0951-4793591"}, {"name": "北京经纬嘉业科技有限公司", "address": "北京市海淀区知春路49号希格玛公寓5号楼B603室", "number": "010-62650688", "x": "116.3421995103", "y": "39.983637137117", "phone_number": "010-62650688", "longitude": "116.3421995103", "latitude": "39.983637137117"}, {"name": "南宁市嘉纳商贸有限责任公司", "address": "南宁市星湖路28号C座1楼", "number": "0771-5314418", "x": "", "y": null, "phone_number": "0771-5314418"}, {"name": "广西科盟计算机商贸有限公司", "address": "桂林市自由路5号", "number": "0773-5637444", "x": "", "y": null, "phone_number": "0773-5637444"}, {"name": "深圳市百世德科技有限公司", "address": "深圳市福田区鹏基上步工业区405栋410室", "number": "0755-83254381", "x": "", "y": null, "phone_number": "0755-83254381"}, {"name": "韶关市金北江科技有限公司", "address": "韶关市西提北路15号", "number": "0751-8889031", "x": "", "y": null, "phone_number": "0751-8889031"}, {"name": "湛江宝隆和信数码科技有限公司", "address": "湛江市赤坎区跃进路10号", "number": "023-58202939", "x": "", "y": null, "phone_number": "023-58202939"}, {"name": "鞍山高新新技术有限公司", "address": "沈阳鞍山市铁东区园林路162号", "number": "0454-8225050", "x": "", "y": null, "phone_number": "0454-8225050"}, {"name": "锦州市太和电脑有限公司", "address": "沈阳锦州市中央大街二段44-88号", "number": "0419-3662771", "x": "", "y": null, "phone_number": "0419-3662771"}, {"name": "营口市东方电脑科技有限公司", "address": "沈阳营口市站前区学府路北23-甲5号后门", "number": "0427-3212050", "x": "", "y": null, "phone_number": "0427-3212050"}, {"name": "沈阳金城龙办公设备科技有限公司", "address": "沈阳市和平区文萃路1甲17号", "number": "0417-2884666", "x": "", "y": null, "phone_number": "0417-2884666"}, {"name": "四平市华信办公设备有限公司", "address": "四平市东方科技城4018室", "number": "0434-3536529", "x": "", "y": null, "phone_number": "0434-3536529"}, {"name": "义乌市惠通电脑有限公司", "address": "宁波义乌市宾王路文化市场12街2号", "number": "", "x": "", "y": null, "phone_number": ""}, {"name": "温州科教数码有限公司", "address": "宁波温州市黎明西路8号国际贸易中心601  ", "number": "", "x": "", "y": null, "phone_number": ""}, {"name": "阜阳市伟创数码科技有限公司", "address": "阜阳市一道河中路166号（市中级人民法院对面）", "number": "0558-2162316", "x": "", "y": null, "phone_number": "0558-2162316"}, {"name": "张家港市金怡海网络技术有限公司", "address": "张家港市杨舍镇公园路42号", "number": "0512-58912801", "x": "", "y": null, "phone_number": "0512-58912801"}, {"name": "太仓市新城电脑有限公司", "address": "太仓市城厢镇武陵街59-61号三楼", "number": "0512-58912801", "x": "", "y": null, "phone_number": "0512-58912801"}, {"name": "江阴市新世纪办公用品有限公司", "address": "江阴市虹桥北路70号", "number": "0512-53107807", "x": "", "y": null, "phone_number": "0512-53107807"}, {"name": "上海迈浦数码科技有限公司", "address": "上海市闸北区谈家桥路154号1504室 ", "number": "021-65443516", "x": "", "y": null, "phone_number": "021-65443516"}, {"name": "上海绿信实业发展有限公司", "address": "上海浦东新区川沙镇新川路561号", "number": "021-58906734", "x": "", "y": null, "phone_number": "021-58906734"}, {"name": "上海铭博办公设备有限公司", "address": "上海嘉定区鹤望路468号B栋201室", "number": "021-59988723", "x": "", "y": null, "phone_number": "021-59988723"}, {"name": "上海方哲数码科技有限公司", "address": "上海虹口区汶水东路936号2楼 ", "number": "021-65298101", "x": "", "y": null, "phone_number": "021-65298101"}, {"name": "上海肃诚办公设备有限公司", "address": "上海龙临路7号", "number": "021-34628052", "x": "", "y": null, "phone_number": "021-34628052"}, {"name": "河北时代电子有限公司", "address": "刑台邢台市中兴西大街38号", "number": "0319-2050111", "x": "", "y": null, "phone_number": "0319-2050111"}, {"name": "邯郸市创新办公设备有限公司", "address": "邯郸市陵西大街华煌5号楼908室", "number": "0310-3211161", "x": "", "y": null, "phone_number": "0310-3211161"}, {"name": "贵阳昊天伟业商贸有限公司", "address": "贵阳市中华中路24号时代名仕楼29楼C座", "number": "0851-5832083", "x": "", "y": null, "phone_number": "0851-5832083"}, {"name": "广西海纳电子科技有限公司", "address": "南宁市星湖路一里一巷18号化纤所11栋1、2层", "number": "0771-5807460", "x": "", "y": null, "phone_number": "0771-5807460"}, {"name": "四川翰林商贸有限公司", "address": "成都市青羊区清波路388号", "number": "028-66333774", "x": "", "y": null, "phone_number": "028-66333774"}, {"name": "新疆兴港科技开发有限公司", "address": "乌鲁木齐市扬子江路42号红十月小区东一区五号楼五单元102室", "number": "0991-4551916", "x": "", "y": null, "phone_number": "0991-4551916"}, {"name": "克拉玛依市兴港有限责任公司", "address": "克拉玛依市南新路汇福家园A13-211", "number": "0990-6234508", "x": "", "y": null, "phone_number": "0990-6234508"}, {"name": "贵阳昊天伟业商贸有限公司", "address": "贵阳市中华中路8号时代名仕楼29楼C座", "number": "0851-5832083", "x": "", "y": null, "phone_number": "0851-5832083"}, {"name": "贵阳中通现代科技有限公司", "address": "贵阳市公园南路东方明珠大厦703室", "number": "0851-5815758", "x": "", "y": null, "phone_number": "0851-5815758"}, {"name": "贵州理佳商业机器有限公司", "address": "贵阳市公园西路西南电脑城117号", "number": "0851-5287150", "x": "", "y": null, "phone_number": "0851-5287150"}, {"name": "昆明金碧办公设备有限公司", "address": "昆明市富春街98号都市名园C座4楼", "number": "0871-64581119", "x": "", "y": null, "phone_number": "0871-64581119"}, {"name": "海南海志科技发展有限公司", "address": "海口市南宝路南宝电脑城3楼", "number": "0898-66752323", "x": "", "y": null, "phone_number": "0898-66752323"}, {"name": "南宁市雅升达办公设备有限责任公司", "address": "南宁市星湖路29-4号", "number": "0771-5867657", "x": "", "y": null, "phone_number": "0771-5867657"}, {"name": "佛山市夏飞利办公设备有限公司", "address": "佛山市鲤鱼沙工业区63号禅德制衣厂2号楼7楼", "number": "0757-82307962", "x": "", "y": null, "phone_number": "0757-82307962"}, {"name": "深圳市创佳办公用品有限公司", "address": "深圳市福田区振兴路上步工业区405栋3楼301室", "number": "0755-83628802", "x": "", "y": null, "phone_number": "0755-83628802"}, {"name": "中山市奥图电子工程有限公司", "address": "中山市石岐华柏路14号之二", "number": "0760-88335820", "x": "", "y": null, "phone_number": "0760-88335820"}, {"name": "茂名市科全办公设备有限公司", "address": "茂名市油城四路99号", "number": "0668-2878672", "x": "", "y": null, "phone_number": "0668-2878672"}, {"name": "广州奥盟技术发展有限公司", "address": "广州市天河区石牌西路111号天晟明苑北座1512房", "number": "020-61026901", "x": "", "y": null, "phone_number": "020-61026901"}, {"name": "汕头市金佳兴办公设备有限公司", "address": "汕头市高新区创业大厦（高新区电脑中心b座）618室", "number": "0754-88607286", "x": "", "y": null, "phone_number": "0754-88607286"}, {"name": "西安科海办公自动化有限公司", "address": "陕西省西安市雁塔路中段17A心晴雅苑小区4-1-C", "number": "029-85518005", "x": "", "y": null, "phone_number": "029-85518005"}, {"name": "烟台惠通办公设备有限公司", "address": "山东省烟台市芝罘区众诚数码B区4楼2407室", "number": "0535-6276353", "x": "", "y": null, "phone_number": "0535-6276353"}, {"name": "青岛立兴科技有限公司", "address": "青岛 山东省青岛市市南区山东路22号金孚大厦A-103,104室", "number": "0532-85849289", "x": "", "y": null, "phone_number": "0532-85849289"}, {"name": "潍坊鑫惠通办公设备有限公司", "address": "潍坊市鸢飞路762号", "number": "0536-8265551", "x": "", "y": null, "phone_number": "0536-8265551"}, {"name": "济南容有数码科技有限公司", "address": "济南市解放路41号", "number": "0531-88932946", "x": "", "y": null, "phone_number": "0531-88932946"}, {"name": "江苏万企达股份有限公司", "address": "江苏省南京市珠江路699号东鼎大厦3号楼602", "number": "025-84660326", "x": "", "y": null, "phone_number": "025-84660326"}, {"name": "江西宏达泰和信息技术有限公司", "address": "江西省南昌市上海路173号南昌航空学院内航大印刷厂3楼", "number": "0791-6269252", "x": "", "y": null, "phone_number": "0791-6269252"}, {"name": "嘉兴市理想商贸科技有限公司", "address": "浙江省嘉兴市越秀北路146号", "number": "0573-82819999", "x": "", "y": null, "phone_number": "0573-82819999"}, {"name": "宁波市卓越办公设备有限公司", "address": "浙江省宁波市海曙区翠柏路51号3号楼2楼后河巷口", "number": "0574-87342280", "x": "", "y": null, "phone_number": "0574-87342280"}, {"name": "浙江新锦绣数码技术有限公司", "address": "杭州萧山区城厢街道湘湖路21-26-29号", "number": "0571-82378498", "x": "", "y": null, "phone_number": "0571-82378498"}, {"name": "杭州志泰宸和信息技术有限公司", "address": "浙江省杭州市下城区朝晖一小区48号一楼", "number": "0571-85232139", "x": "", "y": null, "phone_number": "0571-85232139"}, {"name": "厦门赫兹办公设备有限公司", "address": "福建省厦门市思明区天湖路46号恒滨名宫4F", "number": "0592-2223296", "x": "", "y": null, "phone_number": "0592-2223296"}, {"name": "龙岩市浙闽办公设备有限公司", "address": "福建省龙岩市新罗区龙川中路28号（临江宾馆2楼）", "number": "0597-2101868", "x": "", "y": null, "phone_number": "0597-2101868"}, {"name": "漳州市万众复印机有限公司", "address": "漳州市胜利西路35号15-16店面", "number": "0596-2090866", "x": "", "y": null, "phone_number": "0596-2090866"}, {"name": "福州文祥办公设备有限公司", "address": "福建省福州市鼓楼区东大路88号建闽大厦2楼", "number": "0591-83393085", "x": "", "y": null, "phone_number": "0591-83393085"}, {"name": "武汉联众伟业科技有限公司", "address": "湖北省武汉市洪山区珞瑜路20号华中数码城10088A", "number": "-027-87879956", "x": "", "y": null, "phone_number": "-027-87879956"}, {"name": "武汉市泰和文仪信息技术有限公司", "address": "湖北省武汉市洪山区珞狮南路120号（假日酒店停车场上坡200米）", "number": "027-87211586", "x": "", "y": null, "phone_number": "027-87211586"}, {"name": "安徽箴言办公设备有限公司", "address": "合肥市金寨路155号黄金广场5号楼C座1101室", "number": "", "x": "", "y": null, "phone_number": ""}, {"name": "合肥振电办公设备有限公司", "address": "合肥市金寨路155号黄金广场4栋1502室", "number": "0551-63662278", "x": "", "y": null, "phone_number": "0551-63662278"}, {"name": "河南省新永丰办公设备有限公司", "address": "郑州市文化路81号附7号欧洲花园世纪座8楼", "number": "0371-60901970", "x": "", "y": null, "phone_number": "0371-60901970"}, {"name": "安徽新亚联办公设备有限公司", "address": "合肥市金寨路155号黄金广场5号楼B座704室", "number": "", "x": "", "y": null, "phone_number": ""}, {"name": "安徽新诺盟办公设备有限公司", "address": "合肥市金寨路93号鸿基广场2楼233-235", "number": "", "x": "", "y": null, "phone_number": ""}, {"name": "昆山市大明办公自动化设备有限公司", "address": "昆山市前进东路1111-114号", "number": "0512-57553677", "x": "", "y": null, "phone_number": "0512-57553677"}, {"name": "常熟市施乐办公设备有限责任公司", "address": "常熟市海虞北路68号", "number": "0512-52821146", "x": "", "y": null, "phone_number": "0512-52821146"}, {"name": "苏州英明仕办公设备有限公司", "address": "苏州市十全街南石皮弄5号宇鑫科技园308室", "number": "0512-65820202", "x": "", "y": null, "phone_number": "0512-65820202"}, {"name": "无锡捷贝思科技有限公司", "address": "无锡市江西街道东风家园117-102号（锡城一街）", "number": "", "x": "", "y": null, "phone_number": ""}, {"name": "上海普丽复印机有限公司", "address": "上海市杨树浦路1426号(海救大厦底座)", "number": "021-63111788", "x": "", "y": null, "phone_number": "021-63111788"}, {"name": "上海宝来办公用品有限公司", "address": "上海市淮海西路442弄85号604-605室", "number": "021-52897601", "x": "", "y": null, "phone_number": "021-52897601"}, {"name": "上海志诚泰和信息技术有限公司 ", "address": "上海市闸北区共和新路1346号通用大厦201室 ", "number": "021-62447526", "x": "", "y": null, "phone_number": "021-62447526"}, {"name": "上海鸿康科技发展有限公司", "address": "上海市陆家浜路680号", "number": "021-63868032", "x": "121.50156397013", "y": "31.218151117155", "phone_number": "021-63868032", "longitude": "121.50156397013", "latitude": "31.218151117155"}, {"name": "上海东方施乐产品供应有限公司", "address": "上海市陆家浜路680号", "number": "021-63868032", "x": "121.50156397013", "y": "31.218151117155", "phone_number": "021-63868032", "longitude": "121.50156397013", "latitude": "31.218151117155"}, {"name": "哈尔滨华瑞纵横科技开发有限公司", "address": "哈尔滨市南岗区宣化街589号", "number": "0451-82566911", "x": "126.67440241767", "y": "45.779122172978", "phone_number": "0451-82566911", "longitude": "126.67440241767", "latitude": "45.779122172978"}, {"name": "葫芦岛市海科科技有限公司", "address": "辽宁省葫芦岛市龙湾区龙湾大街飞天广场国美大厦A座10楼", "number": "0429-2810202", "x": "120.85627960347", "y": "40.72747052251", "phone_number": "0429-2810202", "longitude": "120.85627960347", "latitude": "40.72747052251"}, {"name": "大连亿锦科技发展有限公司", "address": "大连市中山区职工街112号嘉禾园3号楼1-1-1", "number": "0411-82709046", "x": "121.66202271388", "y": "38.923915825879", "phone_number": "0411-82709046", "longitude": "121.66202271388", "latitude": "38.923915825879"}, {"name": "沈阳新百通办公设备有限公司", "address": "辽宁省沈阳市和平区文萃路3甲2号", "number": "024-23982629", "x": "123.43803073764", "y": "41.770988625535", "phone_number": "024-23982629", "longitude": "123.43803073764", "latitude": "41.770988625535"}, {"name": "吉林省华夏办公设备有限公司", "address": "吉林省长春市工农大路1313号百脑汇2109室", "number": "0431-88607717", "x": "125.30766132945", "y": "43.874881887774", "phone_number": "0431-88607717", "longitude": "125.30766132945", "latitude": "43.874881887774"}, {"name": "天津市夏普伟业科技发展有限公司            ", "address": "天津市南开区白堤路馨达园11号楼201室", "number": "022-87895383", "x": "117.1617132386", "y": "39.118413365594", "phone_number": "022-87895383", "longitude": "117.1617132386", "latitude": "39.118413365594"}, {"name": "包头市东港科技有限责任公司", "address": "包头市昆区青年路13号街坊7-8号底店", "number": "0472-2163762", "x": "109.87531528948", "y": "40.669288896433", "phone_number": "0472-2163762", "longitude": "109.87531528948", "latitude": "40.669288896433"}, {"name": "河北石龙数码科技有限公司", "address": "河北省石家庄市桥西区裕华西路乐活大厦B座11层", "number": "0311-85512271", "x": "114.4564842701", "y": "38.040077941708", "phone_number": "0311-85512271", "longitude": "114.4564842701", "latitude": "38.040077941708"}, {"name": "山西光明科技发展有限公司", "address": "山西省太原市平阳路2号赛格数码港10层G-M室", "number": "0351-7555368", "x": "112.55956088599", "y": "37.844661973777", "phone_number": "0351-7555368", "longitude": "112.55956088599", "latitude": "37.844661973777"}, {"name": "太原市紫牛电脑科技有限公司", "address": "山西省太原市小店区南内环长治路口南环国际四单元2603室", "number": "0351-5644471", "x": "112.58560241058", "y": "37.845699495762", "phone_number": "0351-5644471", "longitude": "112.58560241058", "latitude": "37.845699495762"}, {"name": "唐山友邦办公设备有限公司", "address": "唐山市路北区卫国路祥富里底商3号", "number": "0315-7068600", "x": "118.17061480013", "y": "39.667179615531", "phone_number": "0315-7068600", "longitude": "118.17061480013", "latitude": "39.667179615531"}, {"name": "秦皇岛市正蓝科技有限公司", "address": "河北省秦皇岛市建设大街201号", "number": "", "x": "119.60992555178", "y": "39.948393509654", "phone_number": "", "longitude": "119.60992555178", "latitude": "39.948393509654"}, {"name": "北京志诚泰和信息科技股份有限公司", "address": "北京市海淀区知春路108号豪景大厦A座10层101房", "number": "010-62104203", "x": "116.32844675522", "y": "39.981633760062", "phone_number": "010-62104203", "longitude": "116.32844675522", "latitude": "39.981633760062"}, {"name": "北京中科苑办公设备有限公司", "address": "北京市海淀区海淀镇西草场一号硅谷电脑城502室", "number": "010-82853975", "x": "116.31164359134", "y": "39.993403094081", "phone_number": "010-82853975", "longitude": "116.31164359134", "latitude": "39.993403094081"}]