[{"name": "北京华贸超卓商贸有限公司", "address": "北京朝阳区东四环红星美凯龙建材馆5层E6506", "id": 127962, "phone_number": 0, "preview_image": "brands_images/full/1383.jpg", "brand_id": 1383, "create_time": "NOW()", "longitude": 116.49895816644518, "latitude": 39.889191934040895, "official_coord": 0, "region_id_1": 110000, "region_id_2": 110100, "region_id_3": 110105}, {"name": "北京雅然风尚商贸有限责任公司", "address": "北京市北四环北沙滩桥红星美凯龙5楼5017-2", "id": 127963, "phone_number": 0, "preview_image": "brands_images/full/1383.jpg", "brand_id": 1383, "create_time": "NOW()", "longitude": 116.37668681392967, "latitude": 40.00868028448238, "official_coord": 0, "region_id_1": 110000, "region_id_2": 110100, "region_id_3": 110105}, {"name": "北京嘉饰仁和装饰材料经营部", "address": "北京市昌平区北七家建材市场壁纸108号", "id": 127964, "phone_number": 0, "preview_image": "brands_images/full/1383.jpg", "brand_id": 1383, "create_time": "NOW()", "longitude": 116.42376029335576, "latitude": 40.12792255862756, "official_coord": 0, "region_id_1": 110000, "region_id_2": 110100, "region_id_3": 110114}, {"name": "北京奥北之家家居建材有限公司", "address": "北京市昌平区北七家镇奥北之家家居建材市场8厅15-38号", "id": 127965, "phone_number": 0, "preview_image": "brands_images/full/1383.jpg", "brand_id": 1383, "create_time": "NOW()", "longitude": 116.40968998476495, "latitude": 40.12010043211263, "official_coord": 0, "region_id_1": 110000, "region_id_2": 110100, "region_id_3": 110114}, {"name": "北京艳恒永泰装饰材料经营部", "address": "北京市昌平区回龙观建材城布艺东厅3号", "id": 127966, "phone_number": 0, "preview_image": "brands_images/full/1383.jpg", "brand_id": 1383, "create_time": "NOW()", "longitude": 116.31851662024164, "latitude": 40.08084763903559, "official_coord": 0, "region_id_1": 110000, "region_id_2": 110100, "region_id_3": 110114}, {"name": "李兰（北京市昌平区）", "address": "北京市昌平区沙河万家灯火装饰城C6-06玉兰墙纸", "id": 127967, "phone_number": 0, "preview_image": "brands_images/full/1383.jpg", "brand_id": 1383, "create_time": "NOW()", "longitude": 116.26854038445678, "latitude": 40.143454555968546, "official_coord": 0, "region_id_1": 110000, "region_id_2": 110100, "region_id_3": 110114}, {"name": "北京昌平水屯建材市场", "address": "北京市昌平区水屯装饰建材城精品厅二层6086室", "id": 127968, "phone_number": 0, "preview_image": "brands_images/full/1383.jpg", "brand_id": 1383, "create_time": "NOW()", "longitude": 116.23203620405941, "latitude": 40.19997738345262, "official_coord": 0, "region_id_1": 110000, "region_id_2": 110100, "region_id_3": 110114}, {"name": "王兴辉（河北省定州市开元镇）", "address": "北京市昌平区天通苑西苑西侧鑫利达1号楼1-101", "id": 127969, "phone_number": 0, "preview_image": "brands_images/full/1383.jpg", "brand_id": 1383, "create_time": "NOW()", "longitude": 116.41381279253315, "latitude": 40.08018807202217, "official_coord": 0, "region_id_1": 110000, "region_id_2": 110100, "region_id_3": 110114}, {"name": "张荣彬（安徽省池州市）", "address": "北京市朝阳区（大悦城星河）青年路湾建博润彩家居112号", "id": 127970, "phone_number": 0, "preview_image": "brands_images/full/1383.jpg", "brand_id": 1383, "create_time": "NOW()", "longitude": 116.52539722424522, "latitude": 39.93089089023327, "official_coord": 0, "region_id_1": 110000, "region_id_2": 110100, "region_id_3": 110105}, {"name": "北五环灯饰建材市场", "address": "北京市朝阳区北五环顾家庄北五环灯饰建材城2FC68号", "id": 127971, "phone_number": 0, "preview_image": "brands_images/full/1383.jpg", "brand_id": 1383, "create_time": "NOW()", "longitude": 116.44464148953581, "latitude": 40.03086561586917, "official_coord": 0, "region_id_1": 110000, "region_id_2": 110100, "region_id_3": 110105}, {"name": "北京来广营家具建材城", "address": "北京市朝阳区来广营北路来广营家具建材城A2-001/002", "id": 127972, "phone_number": 0, "preview_image": "brands_images/full/1383.jpg", "brand_id": 1383, "create_time": "NOW()", "longitude": 116.46747143239924, "latitude": 40.030258414613485, "official_coord": 0, "region_id_1": 110000, "region_id_2": 110100, "region_id_3": 110105}, {"name": "北京曼雅斯商贸有限责任公司", "address": "北京市朝阳区南四环成寿寺城外诚家装建材馆4F-BZ01玉兰墙纸", "id": 127973, "phone_number": 0, "preview_image": "brands_images/full/1383.jpg", "brand_id": 1383, "create_time": "NOW()", "longitude": 116.45501378356401, "latitude": 39.840162061858656, "official_coord": 0, "region_id_1": 110000, "region_id_2": 110100, "region_id_3": 110105}, {"name": "北京雅德胜发壁纸销售中心", "address": "北京市朝阳区十里河古盛发3层302", "id": 127974, "phone_number": 0, "preview_image": "brands_images/full/1383.jpg", "brand_id": 1383, "create_time": "NOW()", "longitude": 116.4775895562802, "latitude": 39.8652962251005, "official_coord": 0, "region_id_1": 110000, "region_id_2": 110100, "region_id_3": 110105}, {"name": "北京瑞龙泰装饰材料有限公司", "address": "北京市朝阳区十里河家和家美建材城B座1层16A", "id": 127975, "phone_number": 0, "preview_image": "brands_images/full/1383.jpg", "brand_id": 1383, "create_time": "NOW()", "longitude": 116.46940507022408, "latitude": 39.868861347855685, "official_coord": 0, "region_id_1": 110000, "region_id_2": 110100, "region_id_3": 110105}, {"name": "北京祥琳广源商贸有限公司", "address": "北京市朝阳区十里河美联天地MB1-203号", "id": 127976, "phone_number": 0, "preview_image": "brands_images/full/1383.jpg", "brand_id": 1383, "create_time": "NOW()", "longitude": 116.46784312799753, "latitude": 39.8689783973057, "official_coord": 0, "region_id_1": 110000, "region_id_2": 110100, "region_id_3": 110105}, {"name": "北京居雅兰彩墙纸经营部", "address": "北京市朝阳区十里河民和兴建材市场A厅88-90", "id": 127977, "phone_number": 0, "preview_image": "brands_images/full/1383.jpg", "brand_id": 1383, "create_time": "NOW()", "longitude": 116.46949622117353, "latitude": 39.869570671716296, "official_coord": 0, "region_id_1": 110000, "region_id_2": 110100, "region_id_3": 110105}, {"name": "黄莹莹（河南省潢川县）", "address": "北京市朝阳区十里河闽龙广场地下二层D2-031", "id": 127978, "phone_number": 0, "preview_image": "brands_images/full/1383.jpg", "brand_id": 1383, "create_time": "NOW()", "longitude": 116.42957133728417, "latitude": 39.90453079284286, "official_coord": 0, "region_id_1": 110000, "region_id_2": 110100, "region_id_3": 110101}, {"name": "北京尚品汇嘉建筑装饰材料有限公司", "address": "北京市朝阳区自主城9号办公楼903室", "id": 127979, "phone_number": 0, "preview_image": "brands_images/full/1383.jpg", "brand_id": 1383, "create_time": "NOW()", "longitude": 116.4795645267846, "latitude": 39.84222798357757, "official_coord": 0, "region_id_1": 110000, "region_id_2": 110100, "region_id_3": 110105}, {"name": "北京香蕊珞思建材经营部", "address": "北京市朝阳区左安门外十里河民乐建材市场253B", "id": 127980, "phone_number": 0, "preview_image": "brands_images/full/1383.jpg", "brand_id": 1383, "create_time": "NOW()", "longitude": 116.46836631872011, "latitude": 39.87041928020094, "official_coord": 0, "region_id_1": 110000, "region_id_2": 110100, "region_id_3": 110105}, {"name": "张连春（北京市大兴区）", "address": "北京市大兴区黄村镇高米店南兴华建材城二厅5排8号", "id": 127981, "phone_number": 0, "preview_image": "brands_images/full/1383.jpg", "brand_id": 1383, "create_time": "NOW()", "longitude": 116.3417179293516, "latitude": 39.76721480031195, "official_coord": 0, "region_id_1": 110000, "region_id_2": 110100, "region_id_3": 110115}, {"name": "北京富东晟宏装饰有限公司", "address": "北京市大兴区旧宫东方美地亚家居建材大世界D12号", "id": 127982, "phone_number": 0, "preview_image": "brands_images/full/1383.jpg", "brand_id": 1383, "create_time": "NOW()", "longitude": 116.43695261597307, "latitude": 39.81110418196644, "official_coord": 0, "region_id_1": 110000, "region_id_2": 110100, "region_id_3": 110115}, {"name": "北京银河锦园科技发展有限公司", "address": "北京市大兴区双星桥西光辉伟业建材城B1-186", "id": 127983, "phone_number": 0, "preview_image": "brands_images/full/1383.jpg", "brand_id": 1383, "create_time": "NOW()", "longitude": 116.34445556430731, "latitude": 39.78261325436572, "official_coord": 0, "region_id_1": 110000, "region_id_2": 110100, "region_id_3": 110115}, {"name": "北京特慧达商贸有限公司", "address": "北京市大兴区亦庄荣华中路5号易居国际A座408", "id": 127984, "phone_number": 0, "preview_image": "brands_images/full/1383.jpg", "brand_id": 1383, "create_time": "NOW()", "longitude": 116.50594383922336, "latitude": 39.81042089514486, "official_coord": 0, "region_id_1": 110000, "region_id_2": 110100, "region_id_3": 110115}, {"name": "北京荣欣美尚壁纸经销部", "address": "北京市房山区良乡镇永林家居广场", "id": 127985, "phone_number": 0, "preview_image": "brands_images/full/1383.jpg", "brand_id": 1383, "create_time": "NOW()", "longitude": 116.15054105542927, "latitude": 39.72860755723383, "official_coord": 0, "region_id_1": 110000, "region_id_2": 110100, "region_id_3": 110111}, {"name": "北京张修斌布艺经营部", "address": "北京市丰台区大红门集美6号厅二层62035号", "id": 127986, "phone_number": 0, "preview_image": "brands_images/full/1383.jpg", "brand_id": 1383, "create_time": "NOW()", "longitude": 116.39555239372696, "latitude": 39.83922407686942, "official_coord": 0, "region_id_1": 110000, "region_id_2": 110100, "region_id_3": 110106}, {"name": "北京华思俊壁纸商店", "address": "北京市丰台区杜家坎集美家居二层壁纸厅玉兰墙纸专卖J24016", "id": 127987, "phone_number": 0, "preview_image": "brands_images/full/1383.jpg", "brand_id": 1383, "create_time": "NOW()", "longitude": 116.21723338274828, "latitude": 39.85182460633163, "official_coord": 0, "region_id_1": 110000, "region_id_2": 110100, "region_id_3": 110106}, {"name": "北京广源星艺装饰材料有限公司", "address": "北京市丰台区南三环西路56号东方家园建材市场二层D60号", "id": 127988, "phone_number": 0, "preview_image": "brands_images/full/1383.jpg", "brand_id": 1383, "create_time": "NOW()", "longitude": 116.3506374741445, "latitude": 39.851366559406024, "official_coord": 0, "region_id_1": 110000, "region_id_2": 110100, "region_id_3": 110106}, {"name": "北京广源胜贤装饰材料有限公司", "address": "北京市丰台区南三环西路78号C座四层10-12号", "id": 127989, "phone_number": 0, "preview_image": "brands_images/full/1383.jpg", "brand_id": 1383, "create_time": "NOW()", "longitude": 116.34658766309698, "latitude": 39.85412384322449, "official_coord": 0, "region_id_1": 110000, "region_id_2": 110100, "region_id_3": 110106}, {"name": "冯辉（河南省许昌县）", "address": "北京市丰台区万隆汇洋灯具建材城二层2310号", "id": 127990, "phone_number": 0, "preview_image": "brands_images/full/1383.jpg", "brand_id": 1383, "create_time": "NOW()", "longitude": 116.2873158366258, "latitude": 39.88115672413395, "official_coord": 0, "region_id_1": 110000, "region_id_2": 110100, "region_id_3": 110106}, {"name": "北京浩霖梓嘉建材经营部", "address": "北京市海淀区北三环西路6号蓝景丽家明光建材城二层007号", "id": 127991, "phone_number": 0, "preview_image": "brands_images/full/1383.jpg", "brand_id": 1383, "create_time": "NOW()", "longitude": 116.35357969050655, "latitude": 39.972555177373465, "official_coord": 0, "region_id_1": 110000, "region_id_2": 110100, "region_id_3": 110108}, {"name": "北京昊贤德装饰材料有限公司", "address": "北京市海淀区定慧桥集美家居城中央大厅二层12079号(玉兰墙纸)", "id": 127992, "phone_number": 0, "preview_image": "brands_images/full/1383.jpg", "brand_id": 1383, "create_time": "NOW()", "longitude": 116.28433357628285, "latitude": 39.92847091411143, "official_coord": 0, "region_id_1": 110000, "region_id_2": 110100, "region_id_3": 110108}, {"name": "北京鼎尚顶美商贸有限公司", "address": "北京市海淀区蓝景丽家大钟寺店Q1-7", "id": 127993, "phone_number": 0, "preview_image": "brands_images/full/1383.jpg", "brand_id": 1383, "create_time": "NOW()", "longitude": 116.34994295192269, "latitude": 39.97495525699753, "official_coord": 0, "region_id_1": 110000, "region_id_2": 110100, "region_id_3": 110108}, {"name": "北京金盛宏泰商贸有限公司", "address": "北京市海淀区蓝景丽家大钟寺店Q1-7", "id": 127994, "phone_number": 0, "preview_image": "brands_images/full/1383.jpg", "brand_id": 1383, "create_time": "NOW()", "longitude": 116.34994295192269, "latitude": 39.97495525699753, "official_coord": 0, "region_id_1": 110000, "region_id_2": 110100, "region_id_3": 110108}, {"name": "北京旺佳盛美建材经营部", "address": "北京市海淀区清河小营环岛建材市场有限公司板材区1号", "id": 127995, "phone_number": 0, "preview_image": "brands_images/full/1383.jpg", "brand_id": 1383, "create_time": "NOW()", "longitude": 116.33681050289063, "latitude": 40.04191088858429, "official_coord": 0, "region_id_1": 110000, "region_id_2": 110100, "region_id_3": 110108}, {"name": "北京东方庆奥商贸中心", "address": "北京市怀柔区东方腾龙建材城B区17号", "id": 127996, "phone_number": 0, "preview_image": "brands_images/full/1383.jpg", "brand_id": 1383, "create_time": "NOW()", "longitude": 116.65244519037836, "latitude": 40.32131074336933, "official_coord": 0, "region_id_1": 110000, "region_id_2": 110100, "region_id_3": 110116}, {"name": "北京盛美装饰有限公司", "address": "北京市良乡盛通家居广场三层", "id": 127997, "phone_number": 0, "preview_image": "brands_images/full/1383.jpg", "brand_id": 1383, "create_time": "NOW()", "longitude": 116.14598662636323, "latitude": 39.74915671091807, "official_coord": 0, "region_id_1": 110000, "region_id_2": 110100, "region_id_3": 110111}, {"name": "北京居好之美装饰材料经营部", "address": "北京市密云县建材批发市场五金区7号", "id": 127998, "phone_number": 0, "preview_image": "brands_images/full/1383.jpg", "brand_id": 1383, "create_time": "NOW()", "longitude": 116.85662915148384, "latitude": 40.3702489261247, "official_coord": 0, "region_id_1": 0, "region_id_2": 0, "region_id_3": 0}, {"name": "北京平谷区玉兰墙纸", "address": "北京市平谷区大马环岛南150米路西玉兰壁纸批发（大自然地板）", "id": 127999, "phone_number": 0, "preview_image": "brands_images/full/1383.jpg", "brand_id": 1383, "create_time": "NOW()", "longitude": 116.47046100594329, "latitude": 39.87343902552625, "official_coord": 0, "region_id_1": 110000, "region_id_2": 110100, "region_id_3": 110105}, {"name": "北京泽天兆瑞陶瓷店", "address": "北京市平谷区银河建材城3层玉兰墙纸", "id": 128000, "phone_number": 0, "preview_image": "brands_images/full/1383.jpg", "brand_id": 1383, "create_time": "NOW()", "longitude": 117.10290240462476, "latitude": 40.155217436388085, "official_coord": 0, "region_id_1": 110000, "region_id_2": 110100, "region_id_3": 110117}, {"name": "北京美誉顺发商行", "address": "北京市石景山区爱玛裕家居购物广场", "id": 128001, "phone_number": 0, "preview_image": "brands_images/full/1383.jpg", "brand_id": 1383, "create_time": "NOW()", "longitude": 116.12516375255173, "latitude": 39.945492706099564, "official_coord": 0, "region_id_1": 110000, "region_id_2": 110100, "region_id_3": 110107}, {"name": "白城市大美壁纸行", "address": "吉林省白城市洮北区海明路23-5瑞光大卖场大美壁纸行", "id": 128002, "phone_number": 0, "preview_image": "brands_images/full/1383.jpg", "brand_id": 1383, "create_time": "NOW()", "longitude": 122.84022616085953, "latitude": 45.61982685867416, "official_coord": 0, "region_id_1": 220000, "region_id_2": 220800, "region_id_3": 220802}, {"name": "洮南市玉兰墙纸商店", "address": "吉林省白城市洮南市繁荣东路盛豪鑫龙城南区玉兰壁纸店", "id": 128003, "phone_number": 0, "preview_image": "brands_images/full/1383.jpg", "brand_id": 1383, "create_time": "NOW()", "longitude": 122.79644922665864, "latitude": 45.345402551830084, "official_coord": 0, "region_id_1": 220000, "region_id_2": 220800, "region_id_3": 220881}, {"name": "通榆县名都装饰商行", "address": "吉林省白城市通榆县1号公馆门市售楼处西50米圣象地板", "id": 128004, "phone_number": 0, "preview_image": "brands_images/full/1383.jpg", "brand_id": 1383, "create_time": "NOW()", "longitude": 122.78906624459646, "latitude": 45.338585663767425, "official_coord": 0, "region_id_1": 220000, "region_id_2": 220800, "region_id_3": 220881}, {"name": "镇赉县镇赉镇伊源壁纸行", "address": "吉林省白城市镇赉县凌云西路267号玉兰壁纸店", "id": 128005, "phone_number": 0, "preview_image": "brands_images/full/1383.jpg", "brand_id": 1383, "create_time": "NOW()", "longitude": 123.20791573610926, "latitude": 45.85486238756407, "official_coord": 0, "region_id_1": 220000, "region_id_2": 220800, "region_id_3": 220821}, {"name": "抚松县抚松镇鑫鑫装潢材料商店", "address": "吉林省白山市抚松县抚松市场南延寿胡同鑫鑫装璜材料商店", "id": 128006, "phone_number": 0, "preview_image": "brands_images/full/1383.jpg", "brand_id": 1383, "create_time": "NOW()", "longitude": 127.28085226415003, "latitude": 42.337794724381354, "official_coord": 0, "region_id_1": 220000, "region_id_2": 220600, "region_id_3": 220621}, {"name": "白山市浑江区艾仕装潢材料商店", "address": "吉林省白山市鑫德名仕3号楼四门市", "id": 128007, "phone_number": 0, "preview_image": "brands_images/full/1383.jpg", "brand_id": 1383, "create_time": "NOW()", "longitude": 126.41445679620448, "latitude": 41.93890416637071, "official_coord": 0, "region_id_1": 220000, "region_id_2": 220600, "region_id_3": 220602}, {"name": "德惠市建设街圣象地板专卖店", "address": "吉林省长春市德惠市人民街与新惠路交汇处圣象地板专卖店", "id": 128008, "phone_number": 0, "preview_image": "brands_images/full/1383.jpg", "brand_id": 1383, "create_time": "NOW()", "longitude": 125.7083837036967, "latitude": 44.53836358735135, "official_coord": 0, "region_id_1": 220000, "region_id_2": 220100, "region_id_3": 220183}, {"name": "长春市汇隆建筑材料有限公司", "address": "吉林省长春市二道区远达大街8号中东瑞家6厅1号 ", "id": 128009, "phone_number": 0, "preview_image": "brands_images/full/1383.jpg", "brand_id": 1383, "create_time": "NOW()", "longitude": 125.38530567162228, "latitude": 43.92071161439927, "official_coord": 0, "region_id_1": 220000, "region_id_2": 220100, "region_id_3": 220105}, {"name": "九台市城西圣象地板经销处", "address": "吉林省长春市九台区三道街小车市北玉兰壁纸", "id": 128010, "phone_number": 0, "preview_image": "brands_images/full/1383.jpg", "brand_id": 1383, "create_time": "NOW()", "longitude": 125.34877632358398, "latitude": 43.89174891066036, "official_coord": 0, "region_id_1": 220000, "region_id_2": 220100, "region_id_3": 220102}, {"name": "宽城区太阳城美仑壁纸经销处", "address": "吉林省长春市宽城区辽宁路772号太阳家居A座13号门2F美仑壁纸", "id": 128011, "phone_number": 0, "preview_image": "brands_images/full/1383.jpg", "brand_id": 1383, "create_time": "NOW()", "longitude": 125.31624852199768, "latitude": 43.91170716490006, "official_coord": 0, "region_id_1": 220000, "region_id_2": 220100, "region_id_3": 220103}, {"name": "农安县农安镇爱舍墙纸商店", "address": "吉林省长春市农安县新龙华城二期商业街东厢房36门", "id": 128012, "phone_number": 0, "preview_image": "brands_images/full/1383.jpg", "brand_id": 1383, "create_time": "NOW()", "longitude": 125.17705651661352, "latitude": 44.433245218202096, "official_coord": 0, "region_id_1": 220000, "region_id_2": 220100, "region_id_3": 220122}, {"name": "双阳区振宇圣象地板商店", "address": "吉林省长春市双阳区三角公园圣象地板商店", "id": 128013, "phone_number": 0, "preview_image": "brands_images/full/1383.jpg", "brand_id": 1383, "create_time": "NOW()", "longitude": 125.19553755830398, "latitude": 44.060910713604926, "official_coord": 0, "region_id_1": 220000, "region_id_2": 220100, "region_id_3": 220103}, {"name": "榆树市圣象地板商店", "address": "吉林省长春市榆树市榆西大街社保局楼下圣象地板商店", "id": 128014, "phone_number": 0, "preview_image": "brands_images/full/1383.jpg", "brand_id": 1383, "create_time": "NOW()", "longitude": 125.19553755830398, "latitude": 44.060910713604926, "official_coord": 0, "region_id_1": 220000, "region_id_2": 220100, "region_id_3": 220103}, {"name": "大安市欧雅家居生活馆", "address": "吉林省大安市安泰明珠花园对面", "id": 128015, "phone_number": 0, "preview_image": "brands_images/full/1383.jpg", "brand_id": 1383, "create_time": "NOW()", "longitude": 124.29756117270955, "latitude": 45.518049327787864, "official_coord": 0, "region_id_1": 220000, "region_id_2": 220800, "region_id_3": 220882}, {"name": "敦化市玉兰家居装饰有限公司", "address": "吉林省敦化市红旗大街玉兰壁纸（中心市场东门对过）", "id": 128016, "phone_number": 0, "preview_image": "brands_images/full/1383.jpg", "brand_id": 1383, "create_time": "NOW()", "longitude": 129.78409175815688, "latitude": 43.318349728606, "official_coord": 0, "region_id_1": 220000, "region_id_2": 222400, "region_id_3": 222424}, {"name": "扶余市三岔河镇圣象地板商店", "address": "吉林省扶余市二路半福地华庭13号楼下玉兰壁纸专卖店", "id": 128017, "phone_number": 0, "preview_image": "brands_images/full/1383.jpg", "brand_id": 1383, "create_time": "NOW()", "longitude": 126.04578237586709, "latitude": 44.995915978228865, "official_coord": 0, "region_id_1": 220000, "region_id_2": 220700, "region_id_3": 220781}, {"name": "桦甸市胜利街铂芙艺术壁材店", "address": "吉林省桦甸市园方兴港家园a区1号门市", "id": 128018, "phone_number": 0, "preview_image": "brands_images/full/1383.jpg", "brand_id": 1383, "create_time": "NOW()", "longitude": 126.75716283302107, "latitude": 42.984286453717154, "official_coord": 0, "region_id_1": 220000, "region_id_2": 220200, "region_id_3": 220282}, {"name": "磐石市东宁街万兴装饰装潢材料商店", "address": "吉林省吉林市磐石市东宁街东晟花园5号楼4号门市", "id": 128019, "phone_number": 0, "preview_image": "brands_images/full/1383.jpg", "brand_id": 1383, "create_time": "NOW()", "longitude": 126.07261717734177, "latitude": 42.95207515083615, "official_coord": 0, "region_id_1": 220000, "region_id_2": 220200, "region_id_3": 220284}, {"name": "吉林市船营区玉兰墙纸店", "address": "吉林省吉林市中东新生活购物广场B2", "id": 128020, "phone_number": 0, "preview_image": "brands_images/full/1383.jpg", "brand_id": 1383, "create_time": "NOW()", "longitude": 126.5333853005994, "latitude": 43.86775900320581, "official_coord": 0, "region_id_1": 220000, "region_id_2": 220200, "region_id_3": 220204}, {"name": "东丰镇徐辉建材商店", "address": "吉林省辽源市东丰县水利局家属楼西三单元玉兰墙纸店", "id": 128021, "phone_number": 0, "preview_image": "brands_images/full/1383.jpg", "brand_id": 1383, "create_time": "NOW()", "longitude": 125.5321002885384, "latitude": 42.67748719500998, "official_coord": 0, "region_id_1": 220000, "region_id_2": 220400, "region_id_3": 220421}, {"name": "辽源市龙山区菲堡装饰材料商店", "address": "吉林省辽源市龙山区南康街水产浴池胡同200米郎饰壁纸店", "id": 128022, "phone_number": 0, "preview_image": "brands_images/full/1383.jpg", "brand_id": 1383, "create_time": "NOW()", "longitude": 125.14212597192159, "latitude": 42.88043666825732, "official_coord": 0, "region_id_1": 220000, "region_id_2": 220400, "region_id_3": 220402}, {"name": "梅河口市名家装饰材料商行", "address": "吉林省梅河口市东方家居名家墙纸广场", "id": 128023, "phone_number": 0, "preview_image": "brands_images/full/1383.jpg", "brand_id": 1383, "create_time": "NOW()", "longitude": 125.69060892795744, "latitude": 42.535736706965906, "official_coord": 0, "region_id_1": 220000, "region_id_2": 220500, "region_id_3": 220581}, {"name": "舒兰市红鑫家居设计体验馆", "address": "吉林省舒兰市恒亚国际二楼玉兰墙纸", "id": 128024, "phone_number": 0, "preview_image": "brands_images/full/1383.jpg", "brand_id": 1383, "create_time": "NOW()", "longitude": 126.95231680756676, "latitude": 44.39838533604065, "official_coord": 0, "region_id_1": 220000, "region_id_2": 220200, "region_id_3": 220283}, {"name": "双辽市玉兰墙纸经销处", "address": "吉林省双辽市城建小区商网北2号", "id": 128025, "phone_number": 0, "preview_image": "brands_images/full/1383.jpg", "brand_id": 1383, "create_time": "NOW()", "longitude": 123.5174919094261, "latitude": 43.52182172429857, "official_coord": 0, "region_id_1": 220000, "region_id_2": 220300, "region_id_3": 220382}, {"name": "梨树县玉兰壁纸经销处", "address": "吉林省四平市梨树县双亿超市一楼门市玉兰墙纸专卖店", "id": 128026, "phone_number": 0, "preview_image": "brands_images/full/1383.jpg", "brand_id": 1383, "create_time": "NOW()", "longitude": 124.34112992949883, "latitude": 43.31801468791822, "official_coord": 0, "region_id_1": 220000, "region_id_2": 220300, "region_id_3": 220322}, {"name": "四平市铁西区玉兰墙纸商店", "address": "吉林省四平市中央西路八马路北建平街150号", "id": 128027, "phone_number": 0, "preview_image": "brands_images/full/1383.jpg", "brand_id": 1383, "create_time": "NOW()", "longitude": 124.37428477855865, "latitude": 43.18222646734055, "official_coord": 0, "region_id_1": 210000, "region_id_2": 210100, "region_id_3": 210106}, {"name": "长岭县长岭镇玉兰壁纸经销处", "address": "吉林省松原市长岭县惠州城玉兰壁纸店", "id": 128028, "phone_number": 0, "preview_image": "brands_images/full/1383.jpg", "brand_id": 1383, "create_time": "NOW()", "longitude": 123.86650428880004, "latitude": 44.30564452777815, "official_coord": 0, "region_id_1": 220000, "region_id_2": 220700, "region_id_3": 220722}, {"name": "乾安县玉兰壁纸", "address": "吉林省松原市乾安县老公安局对面(玉兰壁纸)", "id": 128029, "phone_number": 0, "preview_image": "brands_images/full/1383.jpg", "brand_id": 1383, "create_time": "NOW()", "longitude": 124.02823517057236, "latitude": 45.008316192892096, "official_coord": 0, "region_id_1": 220000, "region_id_2": 220700, "region_id_3": 220723}, {"name": "辉南县朝阳镇蓝天装饰商店", "address": "吉林省通化市辉南县朝阳镇华日建材城蓝天装饰", "id": 128030, "phone_number": 0, "preview_image": "brands_images/full/1383.jpg", "brand_id": 1383, "create_time": "NOW()", "longitude": 126.0574999670756, "latitude": 42.68452359433918, "official_coord": 0, "region_id_1": 220000, "region_id_2": 220500, "region_id_3": 220523}, {"name": "柳河县鑫盛源嘉宝莉漆商行", "address": "吉林省通化市柳河县和谐B区5号楼东一门市", "id": 128031, "phone_number": 0, "preview_image": "brands_images/full/1383.jpg", "brand_id": 1383, "create_time": "NOW()", "longitude": 125.75107136951502, "latitude": 42.29264893883394, "official_coord": 0, "region_id_1": 220000, "region_id_2": 220500, "region_id_3": 220524}, {"name": "土默特右旗萨拉齐娥娥大宝漆门市部", "address": "内蒙包头市土默特右旗工业路汇鑫苑7号大宝装饰", "id": 128032, "phone_number": 0, "preview_image": "brands_images/full/1383.jpg", "brand_id": 1383, "create_time": "NOW()", "longitude": 110.53031391171814, "latitude": 40.582535787172155, "official_coord": 0, "region_id_1": 150000, "region_id_2": 150200, "region_id_3": 150221}, {"name": "阿鲁科尔沁旗天山镇乐天壁纸总汇", "address": "内蒙赤峰市阿鲁科尔沁旗金域新城3号楼8号厅乐天壁纸总汇", "id": 128033, "phone_number": 0, "preview_image": "brands_images/full/1383.jpg", "brand_id": 1383, "create_time": "NOW()", "longitude": 120.08312782020545, "latitude": 43.876941018896474, "official_coord": 0, "region_id_1": 150000, "region_id_2": 150400, "region_id_3": 150421}, {"name": "克什克腾旗经棚镇中盛壁纸商店", "address": "内蒙赤峰市克什克腾旗腾达商城3号厅中盛壁纸商店", "id": 128034, "phone_number": 0, "preview_image": "brands_images/full/1383.jpg", "brand_id": 1383, "create_time": "NOW()", "longitude": 117.53847323960954, "latitude": 43.252230550015376, "official_coord": 0, "region_id_1": 150000, "region_id_2": 150400, "region_id_3": 150425}, {"name": "达拉特旗鑫隆壁纸门市部 ", "address": "内蒙古鄂尔多斯市达拉特旗金鹏路裕隆花园对面5号", "id": 128035, "phone_number": 0, "preview_image": "brands_images/full/1383.jpg", "brand_id": 1383, "create_time": "NOW()", "longitude": 110.01732660990376, "latitude": 40.40764842151235, "official_coord": 0, "region_id_1": 150000, "region_id_2": 150600, "region_id_3": 150621}, {"name": "李洪喜（内蒙古呼伦贝尔市）", "address": "内蒙古呼和浩特市玉泉区红星美凯龙二店6楼F8026", "id": 128036, "phone_number": 0, "preview_image": "brands_images/full/1383.jpg", "brand_id": 1383, "create_time": "NOW()", "longitude": 111.65855345988149, "latitude": 40.74738667204219, "official_coord": 0, "region_id_1": 150000, "region_id_2": 150100, "region_id_3": 150104}, {"name": "通辽市科尔沁区永清大街印象壁纸店  ", "address": "内蒙古通辽市霍林河大街民大住宅园区7#东1单元4楼东", "id": 128037, "phone_number": 0, "preview_image": "brands_images/full/1383.jpg", "brand_id": 1383, "create_time": "NOW()", "longitude": 122.25750639655672, "latitude": 43.62769589251809, "official_coord": 0, "region_id_1": 150000, "region_id_2": 150500, "region_id_3": 150502}, {"name": "扎鲁特旗鲁北镇银子漆店", "address": "内蒙古通辽市扎鲁特旗鲁北镇振兴街", "id": 128038, "phone_number": 0, "preview_image": "brands_images/full/1383.jpg", "brand_id": 1383, "create_time": "NOW()", "longitude": 120.90341388027004, "latitude": 44.56778006136096, "official_coord": 0, "region_id_1": 150000, "region_id_2": 150500, "region_id_3": 150526}, {"name": "张林林（内蒙古丰镇市）", "address": "内蒙古乌兰察布盟丰镇市新城花园", "id": 128039, "phone_number": 0, "preview_image": "brands_images/full/1383.jpg", "brand_id": 1383, "create_time": "NOW()", "longitude": 113.12878227396708, "latitude": 40.44210652499887, "official_coord": 0, "region_id_1": 150000, "region_id_2": 150900, "region_id_3": 150981}, {"name": "乌兰浩特市羊城石膏线店", "address": "内蒙古兴安盟乌兰浩特市城中城三期羊城石膏线店", "id": 128040, "phone_number": 0, "preview_image": "brands_images/full/1383.jpg", "brand_id": 1383, "create_time": "NOW()", "longitude": 122.05647269552037, "latitude": 46.084340461226994, "official_coord": 0, "region_id_1": 150000, "region_id_2": 152200, "region_id_3": 152201}, {"name": "巴彦淖尔市临河区吴梅壁纸经销部  ", "address": "内蒙古自治区巴彦淖尔市临河区国际建材城B5-101门店", "id": 128041, "phone_number": 0, "preview_image": "brands_images/full/1383.jpg", "brand_id": 1383, "create_time": "NOW()", "longitude": 107.44667363585602, "latitude": 40.771552025805114, "official_coord": 0, "region_id_1": 150000, "region_id_2": 150800, "region_id_3": 150802}, {"name": "包头市昆区艺墙壁纸经销部  ", "address": "内蒙古自治区包头市青山区金荣建材市场东楼A2-17号玉兰墙纸", "id": 128042, "phone_number": 0, "preview_image": "brands_images/full/1383.jpg", "brand_id": 1383, "create_time": "NOW()", "longitude": 109.86224504006498, "latitude": 40.649330407327085, "official_coord": 0, "region_id_1": 150000, "region_id_2": 150200, "region_id_3": 150204}, {"name": "赤峰野马装饰工程有限公司    ", "address": "内蒙古自治区赤峰市红山区钢铁西街天越装饰建材城康美家园饰材野马装饰", "id": 128043, "phone_number": 0, "preview_image": "brands_images/full/1383.jpg", "brand_id": 1383, "create_time": "NOW()", "longitude": 118.93238938941718, "latitude": 42.263872663318914, "official_coord": 0, "region_id_1": 150000, "region_id_2": 150400, "region_id_3": 150402}, {"name": "喀喇沁旗元首装饰行    ", "address": "内蒙古自治区赤峰市喀喇沁旗湖滨新区元首装饰", "id": 128044, "phone_number": 0, "preview_image": "brands_images/full/1383.jpg", "brand_id": 1383, "create_time": "NOW()", "longitude": 118.71754288487023, "latitude": 41.936339081431065, "official_coord": 0, "region_id_1": 150000, "region_id_2": 150400, "region_id_3": 150428}, {"name": "赤峰市元宝山区德文装饰材料商店  ", "address": "内蒙古自治区赤峰市元宝山区平庄宝山国际家具建材城1-810", "id": 128045, "phone_number": 0, "preview_image": "brands_images/full/1383.jpg", "brand_id": 1383, "create_time": "NOW()", "longitude": 119.3142475605553, "latitude": 42.058393569133784, "official_coord": 0, "region_id_1": 150000, "region_id_2": 150400, "region_id_3": 150403}, {"name": "鄂托克旗志强玉兰墙纸经销部 ", "address": "内蒙古自治区鄂尔多斯市乌审旗三马路蒙幼北200米玉兰墙纸店", "id": 128046, "phone_number": 0, "preview_image": "brands_images/full/1383.jpg", "brand_id": 1383, "create_time": "NOW()", "longitude": 111.236403350138, "latitude": 39.863696245250125, "official_coord": 0, "region_id_1": 150000, "region_id_2": 150600, "region_id_3": 150622}, {"name": "准格尔旗玉兰墙纸批发部 ", "address": "内蒙古自治区鄂尔多斯市准格尔旗薛家湾镇鸿鑫建材城玉兰墙纸店", "id": 128047, "phone_number": 0, "preview_image": "brands_images/full/1383.jpg", "brand_id": 1383, "create_time": "NOW()", "longitude": 111.236403350138, "latitude": 39.863696245250125, "official_coord": 0, "region_id_1": 150000, "region_id_2": 150600, "region_id_3": 150622}, {"name": "回民区昂源装饰建材经销部  ", "address": "内蒙古自治区呼和浩特市回民区海西路元和建材城B249号玉兰墙纸销售部", "id": 128048, "phone_number": 0, "preview_image": "brands_images/full/1383.jpg", "brand_id": 1383, "create_time": "NOW()", "longitude": 111.655669739123, "latitude": 40.84185314180323, "official_coord": 0, "region_id_1": 150000, "region_id_2": 150100, "region_id_3": 150103}, {"name": "新城区新居装饰材料经销部   ", "address": "内蒙古自治区呼和浩特市新城区润宇建材市场A座213号", "id": 128049, "phone_number": 0, "preview_image": "brands_images/full/1383.jpg", "brand_id": 1383, "create_time": "NOW()", "longitude": 111.70311783218325, "latitude": 40.845436284058984, "official_coord": 0, "region_id_1": 150000, "region_id_2": 150100, "region_id_3": 150102}, {"name": "海拉尔区鑫馨苑装饰材料商店  ", "address": "内蒙古自治区呼伦贝尔市海拉尔区东四道街馨苑装饰材料商店", "id": 128050, "phone_number": 0, "preview_image": "brands_images/full/1383.jpg", "brand_id": 1383, "create_time": "NOW()", "longitude": 119.75383711666966, "latitude": 49.22618985903087, "official_coord": 0, "region_id_1": 150000, "region_id_2": 150700, "region_id_3": 150702}, {"name": "满洲里市玉兰墙纸商店    ", "address": "内蒙古自治区呼伦贝尔市满州里市四道街阳光家园5楼9号门市", "id": 128051, "phone_number": 0, "preview_image": "brands_images/full/1383.jpg", "brand_id": 1383, "create_time": "NOW()", "longitude": 117.4752421953072, "latitude": 49.59416674550494, "official_coord": 0, "region_id_1": 150000, "region_id_2": 150700, "region_id_3": 150781}, {"name": "成夏君（四川省巴中市）", "address": "四川省巴中市黄家沟建材市场16栋214-216玉兰墙纸", "id": 128052, "phone_number": 0, "preview_image": "brands_images/full/1383.jpg", "brand_id": 1383, "create_time": "NOW()", "longitude": 106.77320875676182, "latitude": 31.852728249265333, "official_coord": 0, "region_id_1": 510000, "region_id_2": 511900, "region_id_3": 511902}, {"name": "南江县南江镇玉兰墙纸销售店", "address": "四川省巴中市南江县红叶广场7栋1楼", "id": 128053, "phone_number": 0, "preview_image": "brands_images/full/1383.jpg", "brand_id": 1383, "create_time": "NOW()", "longitude": 106.8390358467091, "latitude": 32.34286876735762, "official_coord": 0, "region_id_1": 510000, "region_id_2": 511900, "region_id_3": 511922}, {"name": "陈积堂(四川省巴中市平昌县)", "address": "四川省巴中市平昌县信义大道上江一号家居建材城二楼玉兰墙纸", "id": 128054, "phone_number": 0, "preview_image": "brands_images/full/1383.jpg", "brand_id": 1383, "create_time": "NOW()", "longitude": 107.07317386195821, "latitude": 31.580635515189126, "official_coord": 0, "region_id_1": 510000, "region_id_2": 511900, "region_id_3": 511923}, {"name": "都江堰兴鑫饰材配送中心", "address": "四川省成都市都江堰市幸福大道221号附11号（世红云锦楼下）", "id": 128055, "phone_number": 0, "preview_image": "brands_images/full/1383.jpg", "brand_id": 1383, "create_time": "NOW()", "longitude": 104.26666424914524, "latitude": 30.89398060111327, "official_coord": 0, "region_id_1": 510000, "region_id_2": 510100, "region_id_3": 510113}, {"name": "金牛区鑫天丽装饰材料经营部", "address": "四川省成都市金牛区二环路北二段府河市场府河大道7区24号", "id": 128056, "phone_number": 0, "preview_image": "brands_images/full/1383.jpg", "brand_id": 1383, "create_time": "NOW()", "longitude": 104.06943083686583, "latitude": 30.697992507704427, "official_coord": 0, "region_id_1": 510000, "region_id_2": 510100, "region_id_3": 510106}, {"name": "龙泉驿区大面街道玉兰建材经营部", "address": "四川省成都市龙泉县成龙大道博美银河装饰城D区3F-004号", "id": 128057, "phone_number": 0, "preview_image": "brands_images/full/1383.jpg", "brand_id": 1383, "create_time": "NOW()", "longitude": 104.18904624399194, "latitude": 30.57431648736954, "official_coord": 0, "region_id_1": 510000, "region_id_2": 510100, "region_id_3": 510112}, {"name": "郫县晨明爱玉兰", "address": "四川省成都市郫县双柏路68号", "id": 128058, "phone_number": 0, "preview_image": "brands_images/full/1383.jpg", "brand_id": 1383, "create_time": "NOW()", "longitude": 103.92890619225498, "latitude": 30.79825175428167, "official_coord": 0, "region_id_1": 0, "region_id_2": 0, "region_id_3": 0}, {"name": "青白江区沃莱非墙纸经营部", "address": "四川省成都市青白江区佳飞国际家居市场24栋2楼8号", "id": 128059, "phone_number": 0, "preview_image": "brands_images/full/1383.jpg", "brand_id": 1383, "create_time": "NOW()", "longitude": 104.20798260156562, "latitude": 30.870770609943822, "official_coord": 0, "region_id_1": 510000, "region_id_2": 510100, "region_id_3": 510113}, {"name": "成都市青羊区华美装饰经营部 ", "address": "四川省成都市青羊区太升北路5号附16-17号（顺丰地址）", "id": 128060, "phone_number": 0, "preview_image": "brands_images/full/1383.jpg", "brand_id": 1383, "create_time": "NOW()", "longitude": 104.0879067355649, "latitude": 30.676111066015935, "official_coord": 0, "region_id_1": 510000, "region_id_2": 510100, "region_id_3": 510105}, {"name": "邛崃市临邛镇大宇建材经营部", "address": "四川省成都市邛崃市拱辰路口新博新美4楼1号玉兰墙纸", "id": 128061, "phone_number": 0, "preview_image": "brands_images/full/1383.jpg", "brand_id": 1383, "create_time": "NOW()", "longitude": 103.47953716695267, "latitude": 30.434447513317206, "official_coord": 0, "region_id_1": 510000, "region_id_2": 510100, "region_id_3": 510183}, {"name": "武侯区青苹果墙纸经营部", "address": "四川省成都市双流区商都路166号新博新美2009号   ", "id": 128062, "phone_number": 0, "preview_image": "brands_images/full/1383.jpg", "brand_id": 1383, "create_time": "NOW()", "longitude": 103.94427651969269, "latitude": 30.607320853000473, "official_coord": 0, "region_id_1": 0, "region_id_2": 0, "region_id_3": 0}, {"name": "阮影（四川省双流县）", "address": "四川省成都市双流县弘民精品城115号", "id": 128063, "phone_number": 0, "preview_image": "brands_images/full/1383.jpg", "brand_id": 1383, "create_time": "NOW()", "longitude": 103.93637058564185, "latitude": 30.5795257083351, "official_coord": 0, "region_id_1": 0, "region_id_2": 0, "region_id_3": 0}, {"name": "成都金胜欣旺商贸有限公司", "address": "四川省成都市韦家碾一路118号5栋501-503号", "id": 128064, "phone_number": 0, "preview_image": "brands_images/full/1383.jpg", "brand_id": 1383, "create_time": "NOW()", "longitude": 104.08431160643018, "latitude": 30.72699171780262, "official_coord": 0, "region_id_1": 510000, "region_id_2": 510100, "region_id_3": 510106}, {"name": "温江中环装饰材料经营部", "address": "四川省成都市温江区圣地亚建材城2楼11号", "id": 128065, "phone_number": 0, "preview_image": "brands_images/full/1383.jpg", "brand_id": 1383, "create_time": "NOW()", "longitude": 103.83592994114841, "latitude": 30.706410135556037, "official_coord": 0, "region_id_1": 510000, "region_id_2": 510100, "region_id_3": 510115}, {"name": "武侯区哲宇装饰材料经营部", "address": "四川省成都市武侯区簇桥八益装饰城A区302#", "id": 128066, "phone_number": 0, "preview_image": "brands_images/full/1383.jpg", "brand_id": 1383, "create_time": "NOW()", "longitude": 104.01314825944598, "latitude": 30.617726349568237, "official_coord": 0, "region_id_1": 510000, "region_id_2": 510100, "region_id_3": 510107}, {"name": "武侯区鸿晨建材经营部", "address": "四川省成都市武侯区西部家居11栋A5-6号", "id": 128067, "phone_number": 0, "preview_image": "brands_images/full/1383.jpg", "brand_id": 1383, "create_time": "NOW()", "longitude": 104.01138443008777, "latitude": 30.616351813393464, "official_coord": 0, "region_id_1": 510000, "region_id_2": 510100, "region_id_3": 510107}, {"name": "达州渠县玉兰", "address": "四川省达州市渠县地旺广场博美装饰城负一楼18号", "id": 128068, "phone_number": 0, "preview_image": "brands_images/full/1383.jpg", "brand_id": 1383, "create_time": "NOW()", "longitude": 106.96896017439177, "latitude": 30.840994490891187, "official_coord": 0, "region_id_1": 510000, "region_id_2": 511700, "region_id_3": 511725}, {"name": "广汉市俊乾装饰", "address": "四川省德阳市广汉市浏阳路东一段71号", "id": 128069, "phone_number": 0, "preview_image": "brands_images/full/1383.jpg", "brand_id": 1383, "create_time": "NOW()", "longitude": 104.28703611108918, "latitude": 30.989647033897885, "official_coord": 0, "region_id_1": 510000, "region_id_2": 510600, "region_id_3": 510681}, {"name": "旌阳区玉兰墙纸经营部", "address": "四川省德阳市旌阳区恒大建城34栋12-13号", "id": 128070, "phone_number": 0, "preview_image": "brands_images/full/1383.jpg", "brand_id": 1383, "create_time": "NOW()", "longitude": 104.37292032876222, "latitude": 31.13900729753713, "official_coord": 0, "region_id_1": 510000, "region_id_2": 510600, "region_id_3": 510603}, {"name": "四川省德阳市罗江县玉兰", "address": "四川省德阳市罗江县南亚建材家具城一楼C11-C14", "id": 128071, "phone_number": 0, "preview_image": "brands_images/full/1383.jpg", "brand_id": 1383, "create_time": "NOW()", "longitude": 104.52140396447678, "latitude": 31.308608316572226, "official_coord": 0, "region_id_1": 0, "region_id_2": 0, "region_id_3": 0}, {"name": "绵竹市东北镇鸿基木业经营部", "address": "四川省德阳市绵竹市恒大建材城16栋11-14号", "id": 128072, "phone_number": 0, "preview_image": "brands_images/full/1383.jpg", "brand_id": 1383, "create_time": "NOW()", "longitude": 104.23685370773222, "latitude": 31.341304537862875, "official_coord": 0, "region_id_1": 510000, "region_id_2": 510600, "region_id_3": 510683}, {"name": "什邡市方亭百乐居装饰材料经营部", "address": "四川省德阳市什邡市亭江东路(财政局正对面)百乐居墙纸", "id": 128073, "phone_number": 0, "preview_image": "brands_images/full/1383.jpg", "brand_id": 1383, "create_time": "NOW()", "longitude": 104.18167175782722, "latitude": 31.135758193477027, "official_coord": 0, "region_id_1": 510000, "region_id_2": 510600, "region_id_3": 510682}, {"name": "峨眉山市盛象装饰行", "address": "四川省峨眉山市绥山镇名山路东段28号", "id": 128074, "phone_number": 0, "preview_image": "brands_images/full/1383.jpg", "brand_id": 1383, "create_time": "NOW()", "longitude": 103.49490764057492, "latitude": 29.603050197293662, "official_coord": 0, "region_id_1": 510000, "region_id_2": 511100, "region_id_3": 511181}, {"name": "康定县汇美居商贸有限责任公司", "address": "四川省甘孜州康定县康定新城恒丰益家公寓负4层2单元（汇美居室内装饰建材城）玉兰墙纸", "id": 128075, "phone_number": 0, "preview_image": "brands_images/full/1383.jpg", "brand_id": 1383, "create_time": "NOW()", "longitude": 101.96530281579247, "latitude": 30.010659449724553, "official_coord": 0, "region_id_1": 0, "region_id_2": 0, "region_id_3": 0}, {"name": "广安开发区丁萍墙纸经营部", "address": "四川省广安市城南美好家园装饰城B区14号", "id": 128076, "phone_number": 0, "preview_image": "brands_images/full/1383.jpg", "brand_id": 1383, "create_time": "NOW()", "longitude": 106.70244040646868, "latitude": 30.789024305327157, "official_coord": 0, "region_id_1": 510000, "region_id_2": 511600, "region_id_3": 511602}, {"name": "华蓥市华智晶银装饰材料经营部", "address": "四川省广安市华蓥市明光二路6号玉兰墙纸", "id": 128077, "phone_number": 0, "preview_image": "brands_images/full/1383.jpg", "brand_id": 1383, "create_time": "NOW()", "longitude": 106.7830214340289, "latitude": 30.375453178851103, "official_coord": 0, "region_id_1": 510000, "region_id_2": 511600, "region_id_3": 511681}, {"name": "武胜且沿口罗晓华墙纸店", "address": "四川省广安市武胜县沿口镇祥升大道曾凡装饰材料店", "id": 128078, "phone_number": 0, "preview_image": "brands_images/full/1383.jpg", "brand_id": 1383, "create_time": "NOW()", "longitude": 106.29578048556633, "latitude": 30.343205130612674, "official_coord": 0, "region_id_1": 510000, "region_id_2": 511600, "region_id_3": 511622}, {"name": "广安市岳池县玉兰墙纸经营部", "address": "四川省广安市岳池县园田路下段625号", "id": 128079, "phone_number": 0, "preview_image": "brands_images/full/1383.jpg", "brand_id": 1383, "create_time": "NOW()", "longitude": 106.44964686405056, "latitude": 30.534506981523272, "official_coord": 0, "region_id_1": 510000, "region_id_2": 511600, "region_id_3": 511621}, {"name": "苍溪县波布墙纸装饰店", "address": "四川省广元市苍溪县红军路东段444号", "id": 128080, "phone_number": 0, "preview_image": "brands_images/full/1383.jpg", "brand_id": 1383, "create_time": "NOW()", "longitude": 105.94852553870349, "latitude": 31.741343289261874, "official_coord": 0, "region_id_1": 510000, "region_id_2": 510800, "region_id_3": 510824}, {"name": "高素琼（四川省广元市剑阁县）", "address": "四川省广元市剑阁县剑门逸酒店楼下玉兰墙纸", "id": 128081, "phone_number": 0, "preview_image": "brands_images/full/1383.jpg", "brand_id": 1383, "create_time": "NOW()", "longitude": 105.52569412492163, "latitude": 32.28835288238655, "official_coord": 0, "region_id_1": 510000, "region_id_2": 510800, "region_id_3": 510823}, {"name": "广元市城区康宝装饰材料经营部", "address": "四川省广元市利州区中新商城三区G幢23号(广元市墙面专家)", "id": 128082, "phone_number": 0, "preview_image": "brands_images/full/1383.jpg", "brand_id": 1383, "create_time": "NOW()", "longitude": 105.82994198705923, "latitude": 32.43658586250302, "official_coord": 0, "region_id_1": 510000, "region_id_2": 510800, "region_id_3": 510802}, {"name": "简阳市正勇装饰材料经营部", "address": "四川省简阳市e家天下西部居家产品采购中心14栋2楼", "id": 128083, "phone_number": 0, "preview_image": "brands_images/full/1383.jpg", "brand_id": 1383, "create_time": "NOW()", "longitude": 104.51317425067116, "latitude": 30.43290414615307, "official_coord": 0, "region_id_1": 510000, "region_id_2": 512000, "region_id_3": 512081}, {"name": "阆中市艺景墙纸经营部", "address": "四川省阆中市中润国际商贸城1期10栋208", "id": 128084, "phone_number": 0, "preview_image": "brands_images/full/1383.jpg", "brand_id": 1383, "create_time": "NOW()", "longitude": 105.9934277708331, "latitude": 31.558719425568974, "official_coord": 0, "region_id_1": 510000, "region_id_2": 511300, "region_id_3": 511381}, {"name": "乐山市中心城区美高美墙纸店", "address": "四川省乐山市市中区天星路401#", "id": 128085, "phone_number": 0, "preview_image": "brands_images/full/1383.jpg", "brand_id": 1383, "create_time": "NOW()", "longitude": 103.76034517060866, "latitude": 29.593365242793343, "official_coord": 0, "region_id_1": 370000, "region_id_2": 370100, "region_id_3": 370103}, {"name": "西昌市明花油漆经营部", "address": "四川省凉山州西昌市昌平建材B1区33-35", "id": 128086, "phone_number": 0, "preview_image": "brands_images/full/1383.jpg", "brand_id": 1383, "create_time": "NOW()", "longitude": 102.25352260073116, "latitude": 27.88447767218467, "official_coord": 0, "region_id_1": 510000, "region_id_2": 513400, "region_id_3": 513401}, {"name": "古蔺县古蔺镇鲲鹏建材经营部", "address": "四川省泸州市古蔺县古蔺迎宾大道凤凰家居城2楼218号玉兰墙纸", "id": 128087, "phone_number": 0, "preview_image": "brands_images/full/1383.jpg", "brand_id": 1383, "create_time": "NOW()", "longitude": 105.3808237505833, "latitude": 29.158617431111217, "official_coord": 0, "region_id_1": 510000, "region_id_2": 510500, "region_id_3": 510521}, {"name": "邱健（四川省泸州市泸县）", "address": "四川省泸州市泸县玉蟾街道玉蟾大道技术监督局住宅楼下", "id": 128088, "phone_number": 0, "preview_image": "brands_images/full/1383.jpg", "brand_id": 1383, "create_time": "NOW()", "longitude": 105.38360574183217, "latitude": 29.1559720336786, "official_coord": 0, "region_id_1": 510000, "region_id_2": 510500, "region_id_3": 510521}, {"name": "汪红（四川省泸州市纳溪区）", "address": "四川省泸州市纳溪区云溪东路二段32号(玉兰墙纸)", "id": 128089, "phone_number": 0, "preview_image": "brands_images/full/1383.jpg", "brand_id": 1383, "create_time": "NOW()", "longitude": 105.38639550023508, "latitude": 28.790445881088793, "official_coord": 0, "region_id_1": 510000, "region_id_2": 510500, "region_id_3": 510503}, {"name": "李万利（四川省泸州市龙马潭区）", "address": "四川省泸州市西南商贸城十区二楼(玉兰墙纸)", "id": 128090, "phone_number": 0, "preview_image": "brands_images/full/1383.jpg", "brand_id": 1383, "create_time": "NOW()", "longitude": 105.42336611644971, "latitude": 28.920265735493516, "official_coord": 0, "region_id_1": 510000, "region_id_2": 510500, "region_id_3": 510504}, {"name": "叙永县玉兰软装饰体验馆", "address": "四川省泸州市叙永县富丽家园C栋二楼(玉兰墙纸)", "id": 128091, "phone_number": 0, "preview_image": "brands_images/full/1383.jpg", "brand_id": 1383, "create_time": "NOW()", "longitude": 105.45233070287725, "latitude": 28.165666028692335, "official_coord": 0, "region_id_1": 510000, "region_id_2": 510500, "region_id_3": 510524}, {"name": "丹棱县圣象地板门市部", "address": "四川省眉山市丹棱县端淑大道中泰花园(玉兰墙纸)", "id": 128092, "phone_number": 0, "preview_image": "brands_images/full/1383.jpg", "brand_id": 1383, "create_time": "NOW()", "longitude": 103.51624293755964, "latitude": 30.020131094342343, "official_coord": 0, "region_id_1": 510000, "region_id_2": 511400, "region_id_3": 511424}, {"name": "眉山市东坡区逸丽建材经营部", "address": "四川省眉山市东坡区诗书路545号(玉兰墙纸)", "id": 128093, "phone_number": 0, "preview_image": "brands_images/full/1383.jpg", "brand_id": 1383, "create_time": "NOW()", "longitude": 103.83830745898753, "latitude": 30.054292073199115, "official_coord": 0, "region_id_1": 510000, "region_id_2": 511400, "region_id_3": 511402}, {"name": "洪雅县宏云建材经营部", "address": "四川省眉山市洪雅县洪州大道西城水郡一楼(玉兰墙纸)", "id": 128094, "phone_number": 0, "preview_image": "brands_images/full/1383.jpg", "brand_id": 1383, "create_time": "NOW()", "longitude": 103.37178301569821, "latitude": 29.91923491435582, "official_coord": 0, "region_id_1": 510000, "region_id_2": 511400, "region_id_3": 511423}, {"name": "仁寿县文林镇玉兰墙纸经营部", "address": "四川省眉山市仁寿县文林镇工业园玉泉集团建材城23栋玉兰墙纸", "id": 128095, "phone_number": 0, "preview_image": "brands_images/full/1383.jpg", "brand_id": 1383, "create_time": "NOW()", "longitude": 104.15924316346624, "latitude": 29.98897441259856, "official_coord": 0, "region_id_1": 510000, "region_id_2": 511400, "region_id_3": 511421}, {"name": "仁寿县文林镇欧普照明器材经营部", "address": "四川省眉山市仁寿县文林镇平安大道566新亚家居城", "id": 128096, "phone_number": 0, "preview_image": "brands_images/full/1383.jpg", "brand_id": 1383, "create_time": "NOW()", "longitude": 104.1588788324752, "latitude": 30.009198255481852, "official_coord": 0, "region_id_1": 510000, "region_id_2": 511400, "region_id_3": 511421}, {"name": "绵阳高新区金易饰家装饰材料经营部", "address": "四川省绵阳市高新区万向装饰城13栋2楼20号", "id": 128097, "phone_number": 0, "preview_image": "brands_images/full/1383.jpg", "brand_id": 1383, "create_time": "NOW()", "longitude": 104.70416517758868, "latitude": 31.467858757833874, "official_coord": 0, "region_id_1": 510000, "region_id_2": 510700, "region_id_3": 510703}, {"name": "江油市中坝金碧墙纸店", "address": "四川省绵阳市江油市建材花园太白公寓74号门面金碧墙纸", "id": 128098, "phone_number": 0, "preview_image": "brands_images/full/1383.jpg", "brand_id": 1383, "create_time": "NOW()", "longitude": 104.74195479268546, "latitude": 31.776571451478326, "official_coord": 0, "region_id_1": 510000, "region_id_2": 510700, "region_id_3": 510781}, {"name": "三台县潼川镇家家装饰材料经营部", "address": "四川省绵阳市三台县喜洋洋广场98号102号", "id": 128099, "phone_number": 0, "preview_image": "brands_images/full/1383.jpg", "brand_id": 1383, "create_time": "NOW()", "longitude": 105.09831329487815, "latitude": 31.096661864338092, "official_coord": 0, "region_id_1": 510000, "region_id_2": 510700, "region_id_3": 510722}, {"name": "威远县华翎建材经营部", "address": "四川省内江市威远县花城路爱丁堡门面423号玉兰墙纸专卖店", "id": 128100, "phone_number": 0, "preview_image": "brands_images/full/1383.jpg", "brand_id": 1383, "create_time": "NOW()", "longitude": 104.68465703245715, "latitude": 29.542232784050046, "official_coord": 0, "region_id_1": 510000, "region_id_2": 511000, "region_id_3": 511024}, {"name": "南充市顺庆区钒烽装饰材料商行", "address": "四川省南充市嘉陵区光彩大市场2区9栋10-12号", "id": 128101, "phone_number": 0, "preview_image": "brands_images/full/1383.jpg", "brand_id": 1383, "create_time": "NOW()", "longitude": 106.07834359897548, "latitude": 30.76067450809926, "official_coord": 0, "region_id_1": 510000, "region_id_2": 511300, "region_id_3": 511304}, {"name": "南部县蜀北办事处博汇建材经营部", "address": "四川省南充市南部县五金建材城B区10幢20号", "id": 128102, "phone_number": 0, "preview_image": "brands_images/full/1383.jpg", "brand_id": 1383, "create_time": "NOW()", "longitude": 106.03402150715264, "latitude": 31.345476484756123, "official_coord": 0, "region_id_1": 510000, "region_id_2": 511300, "region_id_3": 511321}, {"name": "王芳（四川省南充市西充县）", "address": "四川省南充市西充县财富广场279号玉兰装饰设计", "id": 128103, "phone_number": 0, "preview_image": "brands_images/full/1383.jpg", "brand_id": 1383, "create_time": "NOW()", "longitude": 105.90484054830246, "latitude": 31.008655037051746, "official_coord": 0, "region_id_1": 510000, "region_id_2": 511300, "region_id_3": 511325}, {"name": "营山县玉兰墙纸", "address": "四川省南充市营山县景阳路建材市场外178号玉兰墙纸", "id": 128104, "phone_number": 0, "preview_image": "brands_images/full/1383.jpg", "brand_id": 1383, "create_time": "NOW()", "longitude": 106.57470702698535, "latitude": 31.075314930322158, "official_coord": 0, "region_id_1": 510000, "region_id_2": 511300, "region_id_3": 511322}, {"name": "攀枝花市仁和区家晓乐建材经营部", "address": "四川省攀枝花市仁和区同乐家俱2楼38号", "id": 128105, "phone_number": 0, "preview_image": "brands_images/full/1383.jpg", "brand_id": 1383, "create_time": "NOW()", "longitude": 101.73496239688653, "latitude": 26.514451668649194, "official_coord": 0, "region_id_1": 510000, "region_id_2": 510400, "region_id_3": 510411}, {"name": "大英县蓬莱镇玉兰墙纸", "address": "四川省遂宁市大英县江南中路50号", "id": 128106, "phone_number": 0, "preview_image": "brands_images/full/1383.jpg", "brand_id": 1383, "create_time": "NOW()", "longitude": 105.25687159714995, "latitude": 30.585289538394633, "official_coord": 0, "region_id_1": 510000, "region_id_2": 510900, "region_id_3": 510923}, {"name": "船山区玉兰建材经营部", "address": "四川省遂宁市喜盈门建材生活广场B6栋4221玉兰。兰居", "id": 128107, "phone_number": 0, "preview_image": "brands_images/full/1383.jpg", "brand_id": 1383, "create_time": "NOW()", "longitude": 105.56244552309029, "latitude": 30.47412963896943, "official_coord": 0, "region_id_1": 510000, "region_id_2": 510900, "region_id_3": 510903}, {"name": "会东县玉兰墙纸", "address": "四川省西昌市会东县汇金路玉兰墙纸", "id": 128108, "phone_number": 0, "preview_image": "brands_images/full/1383.jpg", "brand_id": 1383, "create_time": "NOW()", "longitude": 102.58815761640211, "latitude": 26.638679177630536, "official_coord": 0, "region_id_1": 510000, "region_id_2": 513400, "region_id_3": 513426}, {"name": "李智勇（四川省凉山州会理县）", "address": "四川省西昌市会理县建设路131号", "id": 128109, "phone_number": 0, "preview_image": "brands_images/full/1383.jpg", "brand_id": 1383, "create_time": "NOW()", "longitude": 102.25270327257758, "latitude": 27.894139479190247, "official_coord": 0, "region_id_1": 510000, "region_id_2": 513400, "region_id_3": 513401}, {"name": "冕宁县贵族世家建材行", "address": "四川省西昌市冕宁县小东河商业步行街207号", "id": 128110, "phone_number": 0, "preview_image": "brands_images/full/1383.jpg", "brand_id": 1383, "create_time": "NOW()", "longitude": 102.18131203980924, "latitude": 28.557102693770954, "official_coord": 0, "region_id_1": 510000, "region_id_2": 513400, "region_id_3": 513433}, {"name": "四川省芦山县永盛车行", "address": "四川省雅安市芦山县东风路65号", "id": 128111, "phone_number": 0, "preview_image": "brands_images/full/1383.jpg", "brand_id": 1383, "create_time": "NOW()", "longitude": 102.93835248018124, "latitude": 30.156382357332365, "official_coord": 0, "region_id_1": 510000, "region_id_2": 511800, "region_id_3": 511826}, {"name": "雅安市名山区风尚格家居馆", "address": "四川省雅安市名山区彩虹路122号玉兰墙纸", "id": 128112, "phone_number": 0, "preview_image": "brands_images/full/1383.jpg", "brand_id": 1383, "create_time": "NOW()", "longitude": 103.11440965182258, "latitude": 30.079698753779695, "official_coord": 0, "region_id_1": 510000, "region_id_2": 511800, "region_id_3": 511803}, {"name": "石棉县龙旺建材店", "address": "四川省雅安市石棉县老街子玉兰专卖店", "id": 128113, "phone_number": 0, "preview_image": "brands_images/full/1383.jpg", "brand_id": 1383, "create_time": "NOW()", "longitude": 102.63294900321404, "latitude": 29.507655871109446, "official_coord": 0, "region_id_1": 510000, "region_id_2": 511800, "region_id_3": 511823}, {"name": "天全县友谊建材", "address": "四川省雅安市天全县建设路237号", "id": 128114, "phone_number": 0, "preview_image": "brands_images/full/1383.jpg", "brand_id": 1383, "create_time": "NOW()", "longitude": 102.77628034982956, "latitude": 30.06377001933226, "official_coord": 0, "region_id_1": 510000, "region_id_2": 511800, "region_id_3": 511825}, {"name": "雅安市雨城区瑞家居建材经营部", "address": "四川省雅安市幸福商场A幢2号", "id": 128115, "phone_number": 0, "preview_image": "brands_images/full/1383.jpg", "brand_id": 1383, "create_time": "NOW()", "longitude": 103.00316953637791, "latitude": 30.00276378191943, "official_coord": 0, "region_id_1": 510000, "region_id_2": 511800, "region_id_3": 511802}, {"name": "荥经县德尔地板专卖店", "address": "四川省雅安市荥经县青仁街31号", "id": 128116, "phone_number": 0, "preview_image": "brands_images/full/1383.jpg", "brand_id": 1383, "create_time": "NOW()", "longitude": 102.84169167518326, "latitude": 29.8021263622963, "official_coord": 0, "region_id_1": 510000, "region_id_2": 511800, "region_id_3": 511822}, {"name": "宜宾市嘉仁装饰工程有限责任公司", "address": "四川省宜宾市翠屏区南岸西区海韵名都小区商业2栋3层1-2号", "id": 128117, "phone_number": 0, "preview_image": "brands_images/full/1383.jpg", "brand_id": 1383, "create_time": "NOW()", "longitude": 104.63554504083332, "latitude": 28.754780084322302, "official_coord": 0, "region_id_1": 510000, "region_id_2": 511500, "region_id_3": 511502}, {"name": "宜宾市翠屏区美惠墙纸经营部", "address": "四川省宜宾市翠屏区蜀南大道西段4号", "id": 128118, "phone_number": 0, "preview_image": "brands_images/full/1383.jpg", "brand_id": 1383, "create_time": "NOW()", "longitude": 104.64180362132934, "latitude": 28.75990938041136, "official_coord": 0, "region_id_1": 510000, "region_id_2": 511500, "region_id_3": 511502}, {"name": "高县庆符镇幻彩装饰材料行", "address": "四川省宜宾市高县庆符镇友谊路玫瑰园小区2号楼（玉兰墙纸）", "id": 128119, "phone_number": 0, "preview_image": "brands_images/full/1383.jpg", "brand_id": 1383, "create_time": "NOW()", "longitude": 104.52556008263937, "latitude": 28.437370881165716, "official_coord": 0, "region_id_1": 510000, "region_id_2": 511500, "region_id_3": 511525}, {"name": "李明（珙县巡场镇安民街211号）", "address": "四川省宜宾市珙县巡场镇安民街211号", "id": 128120, "phone_number": 0, "preview_image": "brands_images/full/1383.jpg", "brand_id": 1383, "create_time": "NOW()", "longitude": 104.71794927952652, "latitude": 28.445404899704407, "official_coord": 0, "region_id_1": 510000, "region_id_2": 511500, "region_id_3": 511526}, {"name": "江安县江安镇凯丽达装饰材料经营部", "address": "四川省宜宾市江安县鑫时代装饰城一楼（中庭电梯出口正对面）", "id": 128121, "phone_number": 0, "preview_image": "brands_images/full/1383.jpg", "brand_id": 1383, "create_time": "NOW()", "longitude": 105.0758897256003, "latitude": 28.725987937111213, "official_coord": 0, "region_id_1": 510000, "region_id_2": 511500, "region_id_3": 511523}, {"name": "南京黛斯装饰材料有限公司", "address": "江苏省南京市江宁区庄排路紫元府3-1201", "id": 128122, "phone_number": 0, "preview_image": "brands_images/full/1383.jpg", "brand_id": 1383, "create_time": "NOW()", "longitude": 118.83329403134478, "latitude": 31.93421256135784, "official_coord": 0, "region_id_1": 320000, "region_id_2": 320100, "region_id_3": 320115}, {"name": "铁东区玉兰壁纸专卖店", "address": "辽宁省鞍山市铁东区大德家世界二楼1号玉兰壁纸店", "id": 128123, "phone_number": 0, "preview_image": "brands_images/full/1383.jpg", "brand_id": 1383, "create_time": "NOW()", "longitude": 122.9912485443842, "latitude": 41.104281254223636, "official_coord": 0, "region_id_1": 210000, "region_id_2": 210300, "region_id_3": 210302}, {"name": "鞍山长鸿商务服务有限公司", "address": "辽宁省鞍山市岫岩县鸿升国际家居建材城24号楼107", "id": 128124, "phone_number": 0, "preview_image": "brands_images/full/1383.jpg", "brand_id": 1383, "create_time": "NOW()", "longitude": 123.29901862832408, "latitude": 40.2663977235202, "official_coord": 0, "region_id_1": 210000, "region_id_2": 210300, "region_id_3": 210323}, {"name": "北票市南山玉兰壁纸商店", "address": "辽宁省北票市建设路3段玉兰壁纸专卖店", "id": 128125, "phone_number": 0, "preview_image": "brands_images/full/1383.jpg", "brand_id": 1383, "create_time": "NOW()", "longitude": 120.76357299762132, "latitude": 41.806625494178704, "official_coord": 0, "region_id_1": 210000, "region_id_2": 211300, "region_id_3": 211381}, {"name": "本溪满族自治县小市镇艺源装饰材料商店", "address": "辽宁省本溪市本溪满族自治县小市镇长江路158号艺源装饰材料商店", "id": 128126, "phone_number": 0, "preview_image": "brands_images/full/1383.jpg", "brand_id": 1383, "create_time": "NOW()", "longitude": 124.13615407329914, "latitude": 41.29549619178423, "official_coord": 0, "region_id_1": 210000, "region_id_2": 210500, "region_id_3": 210521}, {"name": "喀左县利州街道振衡建材门市", "address": "辽宁省朝阳市喀左建材城9号楼生活家地板", "id": 128127, "phone_number": 0, "preview_image": "brands_images/full/1383.jpg", "brand_id": 1383, "create_time": "NOW()", "longitude": 119.74524809525562, "latitude": 41.135949593755, "official_coord": 0, "region_id_1": 210000, "region_id_2": 211300, "region_id_3": 211324}, {"name": "朝阳县格林爱普装饰材料经销处", "address": "辽宁省朝阳市双塔区友谊大街二段5号", "id": 128128, "phone_number": 0, "preview_image": "brands_images/full/1383.jpg", "brand_id": 1383, "create_time": "NOW()", "longitude": 120.45127767912528, "latitude": 41.58813608430955, "official_coord": 0, "region_id_1": 210000, "region_id_2": 211300, "region_id_3": 211302}, {"name": "大连经济技术开发区光伸市场桦茂商行", "address": "辽宁省大连市大连经济技术开发区光伸市场(光伸家居材料市场一期)桦茂商行", "id": 128129, "phone_number": 0, "preview_image": "brands_images/full/1383.jpg", "brand_id": 1383, "create_time": "NOW()", "longitude": 121.80919188707934, "latitude": 39.049421241135974, "official_coord": 0, "region_id_1": 210000, "region_id_2": 210200, "region_id_3": 210213}, {"name": "大连超杰环宇国际商贸有限公司", "address": "辽宁省大连市甘井子区西北路853号", "id": 128130, "phone_number": 0, "preview_image": "brands_images/full/1383.jpg", "brand_id": 1383, "create_time": "NOW()", "longitude": 121.56436928724911, "latitude": 38.99983861419525, "official_coord": 0, "region_id_1": 210000, "region_id_2": 210200, "region_id_3": 210211}, {"name": "大连华南家居大世界购物广场雅钰壁纸店", "address": "辽宁省大连市甘井子区中华西路7号", "id": 128131, "phone_number": 0, "preview_image": "brands_images/full/1383.jpg", "brand_id": 1383, "create_time": "NOW()", "longitude": 121.59947772064587, "latitude": 38.99609350995411, "official_coord": 0, "region_id_1": 210000, "region_id_2": 210200, "region_id_3": 210211}, {"name": "金州区佰饰家商城", "address": "辽宁省大连市金州区万城家居广场9D-130百饰家商城", "id": 128132, "phone_number": 0, "preview_image": "brands_images/full/1383.jpg", "brand_id": 1383, "create_time": "NOW()", "longitude": 121.69408076085426, "latitude": 39.09136382972065, "official_coord": 0, "region_id_1": 210000, "region_id_2": 210200, "region_id_3": 210213}, {"name": "瓦房店市旺角永明墙纸商行", "address": "辽宁省大连市瓦房店市旺角家居大世界院内137号", "id": 128133, "phone_number": 0, "preview_image": "brands_images/full/1383.jpg", "brand_id": 1383, "create_time": "NOW()", "longitude": 121.97970001636202, "latitude": 39.62902670949339, "official_coord": 0, "region_id_1": 210000, "region_id_2": 210200, "region_id_3": 210281}, {"name": "丹东市振兴区玉兰壁纸商店", "address": "辽宁省丹东市振兴区三纬路15-5号（鹏程时代楼下国家电网西）", "id": 128134, "phone_number": 0, "preview_image": "brands_images/full/1383.jpg", "brand_id": 1383, "create_time": "NOW()", "longitude": 124.42156727053407, "latitude": 40.15213567371354, "official_coord": 0, "region_id_1": 210000, "region_id_2": 210600, "region_id_3": 210604}, {"name": "王晓坤（辽宁省宽甸满族自治县）", "address": "辽宁省东港市医药公司南行20米", "id": 128135, "phone_number": 0, "preview_image": "brands_images/full/1383.jpg", "brand_id": 1383, "create_time": "NOW()", "longitude": 124.212035262008, "latitude": 39.89609161876272, "official_coord": 0, "region_id_1": 210000, "region_id_2": 210600, "region_id_3": 210681}, {"name": "清原镇丽荣壁纸商店", "address": "辽宁省抚顺市清原满族自治县清原镇新村街中农装饰城二期二楼丽荣壁纸商店", "id": 128136, "phone_number": 0, "preview_image": "brands_images/full/1383.jpg", "brand_id": 1383, "create_time": "NOW()", "longitude": 124.94488635399287, "latitude": 42.102338626146754, "official_coord": 0, "region_id_1": 210000, "region_id_2": 210400, "region_id_3": 210423}, {"name": "抚顺市望花区启安建材商店", "address": "辽宁省抚顺市望花区法库47号楼11号（今日装饰城10号门外玉兰墙纸）", "id": 128137, "phone_number": 0, "preview_image": "brands_images/full/1383.jpg", "brand_id": 1383, "create_time": "NOW()", "longitude": 123.79895893222667, "latitude": 41.849981693685876, "official_coord": 0, "region_id_1": 210000, "region_id_2": 210400, "region_id_3": 210404}, {"name": "阜新市海州区海晓鸥华美装饰材料商店", "address": "辽宁省阜新市细河区解放大街北段8号华美装饰", "id": 128138, "phone_number": 0, "preview_image": "brands_images/full/1383.jpg", "brand_id": 1383, "create_time": "NOW()", "longitude": 121.6551191363304, "latitude": 42.037518610689624, "official_coord": 0, "region_id_1": 210000, "region_id_2": 210900, "region_id_3": 210911}, {"name": "彰武龙梦商贸有限公司", "address": "辽宁省阜新市彰武县北环路凤丽装饰材料城", "id": 128139, "phone_number": 0, "preview_image": "brands_images/full/1383.jpg", "brand_id": 1383, "create_time": "NOW()", "longitude": 122.54709902629237, "latitude": 42.39691757471956, "official_coord": 0, "region_id_1": 210000, "region_id_2": 210900, "region_id_3": 210922}, {"name": "盖州市西城办事处长征七彩布艺商店", "address": "辽宁省盖州市西二线四中道口对面七彩布艺", "id": 128140, "phone_number": 0, "preview_image": "brands_images/full/1383.jpg", "brand_id": 1383, "create_time": "NOW()", "longitude": 122.52240667504546, "latitude": 40.65609539750894, "official_coord": 0, "region_id_1": 210000, "region_id_2": 210800, "region_id_3": 210882}, {"name": "葫芦岛市德润发建材有限公司", "address": "辽宁省葫芦岛市建昌县建凌桥西100米路北TATA木门", "id": 128141, "phone_number": 0, "preview_image": "brands_images/full/1383.jpg", "brand_id": 1383, "create_time": "NOW()", "longitude": 119.8145971428622, "latitude": 40.820365862366344, "official_coord": 0, "region_id_1": 210000, "region_id_2": 211400, "region_id_3": 211422}, {"name": "葫芦岛市龙港区玉皇商城天天壁纸行", "address": "辽宁省葫芦岛市龙港区玉皇装饰城2区30号天天地毯行", "id": 128142, "phone_number": 0, "preview_image": "brands_images/full/1383.jpg", "brand_id": 1383, "create_time": "NOW()", "longitude": 120.88607272617197, "latitude": 40.74345955357188, "official_coord": 0, "region_id_1": 210000, "region_id_2": 211400, "region_id_3": 211403}, {"name": "绥中县绥中镇海龙装饰商店", "address": "辽宁省葫芦岛市绥中县新马路商行东胡同100米海龙装饰", "id": 128143, "phone_number": 0, "preview_image": "brands_images/full/1383.jpg", "brand_id": 1383, "create_time": "NOW()", "longitude": 120.3475771513049, "latitude": 40.337719335490384, "official_coord": 0, "region_id_1": 210000, "region_id_2": 211400, "region_id_3": 211421}, {"name": "绥中县绥中镇玉兰壁纸商店", "address": "辽宁省葫芦岛市绥中县新兴街二段12-10号", "id": 128144, "phone_number": 0, "preview_image": "brands_images/full/1383.jpg", "brand_id": 1383, "create_time": "NOW()", "longitude": 120.34591608742839, "latitude": 40.332995936522714, "official_coord": 0, "region_id_1": 210000, "region_id_2": 211400, "region_id_3": 211421}, {"name": "北镇市明洋装饰工程有限公司", "address": "辽宁省锦州市北镇市广宁路大河华府门市10-3-50号", "id": 128145, "phone_number": 0, "preview_image": "brands_images/full/1383.jpg", "brand_id": 1383, "create_time": "NOW()", "longitude": 121.79975215439569, "latitude": 41.60009139981716, "official_coord": 0, "region_id_1": 210000, "region_id_2": 210700, "region_id_3": 210782}, {"name": "锦州市松山新区周菲壁纸经销处", "address": "辽宁省锦州市光彩市场3厅2楼A区53号", "id": 128146, "phone_number": 0, "preview_image": "brands_images/full/1383.jpg", "brand_id": 1383, "create_time": "NOW()", "longitude": 121.14863221834713, "latitude": 41.09029118177775, "official_coord": 0, "region_id_1": 210000, "region_id_2": 210700, "region_id_3": 210711}, {"name": "黑山县玉兰壁纸店", "address": "辽宁省锦州市黑山县宾启馨城二期31号门市", "id": 128147, "phone_number": 0, "preview_image": "brands_images/full/1383.jpg", "brand_id": 1383, "create_time": "NOW()", "longitude": 122.13464530050138, "latitude": 41.69758683297991, "official_coord": 0, "region_id_1": 210000, "region_id_2": 210700, "region_id_3": 210726}, {"name": "辽阳市文圣区锦阳油漆店", "address": "辽宁省辽阳市东兴家居广场网点南侧", "id": 128148, "phone_number": 0, "preview_image": "brands_images/full/1383.jpg", "brand_id": 1383, "create_time": "NOW()", "longitude": 123.2000733339716, "latitude": 41.26491929059088, "official_coord": 0, "region_id_1": 210000, "region_id_2": 211000, "region_id_3": 211002}, {"name": "辽阳县首山镇祥源建筑材料商店", "address": "辽宁省辽阳市辽阳县首山镇前进街37栋4号", "id": 128149, "phone_number": 0, "preview_image": "brands_images/full/1383.jpg", "brand_id": 1383, "create_time": "NOW()", "longitude": 123.08930983361081, "latitude": 41.216364292499065, "official_coord": 0, "region_id_1": 210000, "region_id_2": 211000, "region_id_3": 211021}, {"name": "凌源市爱玉兰墙纸店", "address": "辽宁省凌源市北大街天益广场转盘", "id": 128150, "phone_number": 0, "preview_image": "brands_images/full/1383.jpg", "brand_id": 1383, "create_time": "NOW()", "longitude": 119.4144824448226, "latitude": 41.25442688043807, "official_coord": 0, "region_id_1": 210000, "region_id_2": 211300, "region_id_3": 211382}, {"name": "盘锦经济开发区胜雅美装饰材料经销处", "address": "辽宁省盘锦市乔家汇美家饰广场外围玉兰专卖", "id": 128151, "phone_number": 0, "preview_image": "brands_images/full/1383.jpg", "brand_id": 1383, "create_time": "NOW()", "longitude": 122.0696633012114, "latitude": 41.14900427679405, "official_coord": 0, "region_id_1": 210000, "region_id_2": 211100, "region_id_3": 211103}, {"name": "沈阳市大东区另一边壁纸商行", "address": "辽宁省沈阳市大东区东贸路东贸装饰材料交易中心457号金石壁纸", "id": 128152, "phone_number": 0, "preview_image": "brands_images/full/1383.jpg", "brand_id": 1383, "create_time": "NOW()", "longitude": 123.51155953788519, "latitude": 41.82464469540622, "official_coord": 0, "region_id_1": 210000, "region_id_2": 210100, "region_id_3": 210104}, {"name": "沈阳市浑南区巷陌家居经销店", "address": "辽宁省沈阳市浑南新区金卡路16号居然之家负一楼005 玉兰墙纸", "id": 128153, "phone_number": 0, "preview_image": "brands_images/full/1383.jpg", "brand_id": 1383, "create_time": "NOW()", "longitude": 123.47009898158579, "latitude": 41.7431684833796, "official_coord": 0, "region_id_1": 0, "region_id_2": 0, "region_id_3": 0}, {"name": "康平县康平镇顺馨壁纸店", "address": "辽宁省沈阳市康平县金墅花园北门市11#网点", "id": 128154, "phone_number": 0, "preview_image": "brands_images/full/1383.jpg", "brand_id": 1383, "create_time": "NOW()", "longitude": 123.35783296704857, "latitude": 42.737580121626124, "official_coord": 0, "region_id_1": 210000, "region_id_2": 210100, "region_id_3": 210123}, {"name": "沈阳市于洪区鑫永强金融壁纸商行", "address": "辽宁省沈阳市沈北新区道义北大街57号2楼B231号", "id": 128155, "phone_number": 0, "preview_image": "brands_images/full/1383.jpg", "brand_id": 1383, "create_time": "NOW()", "longitude": 123.40215967449632, "latitude": 41.95299910665475, "official_coord": 0, "region_id_1": 210000, "region_id_2": 210100, "region_id_3": 210113}, {"name": "沈阳市铁西区欧尚壁纸经销处", "address": "辽宁省沈阳市铁西区兴顺街兴顺灯具城75号", "id": 128156, "phone_number": 0, "preview_image": "brands_images/full/1383.jpg", "brand_id": 1383, "create_time": "NOW()", "longitude": 123.3665950438038, "latitude": 41.80086830076353, "official_coord": 0, "region_id_1": 210000, "region_id_2": 210100, "region_id_3": 210106}, {"name": "沈阳市华利来壁纸经销中心", "address": "辽宁省沈阳市于洪区洪湖北街2号（中国家具城新中城仓储中心）", "id": 128157, "phone_number": 0, "preview_image": "brands_images/full/1383.jpg", "brand_id": 1383, "create_time": "NOW()", "longitude": 123.31608396535734, "latitude": 41.81664950151844, "official_coord": 0, "region_id_1": 210000, "region_id_2": 210100, "region_id_3": 210114}, {"name": "昌图县泓昱天兴装饰材料商行", "address": "辽宁省铁岭市昌图县昌图镇北街8组3387幢02号（建筑公司东侧）", "id": 128158, "phone_number": 0, "preview_image": "brands_images/full/1383.jpg", "brand_id": 1383, "create_time": "NOW()", "longitude": 124.01553138864894, "latitude": 42.789750380860404, "official_coord": 0, "region_id_1": 210000, "region_id_2": 211200, "region_id_3": 211224}, {"name": "调兵山市现代装饰材料店", "address": "辽宁省铁岭市调兵山市仿古街现代装饰店", "id": 128159, "phone_number": 0, "preview_image": "brands_images/full/1383.jpg", "brand_id": 1383, "create_time": "NOW()", "longitude": 123.55255058018274, "latitude": 42.45234378982497, "official_coord": 0, "region_id_1": 210000, "region_id_2": 211200, "region_id_3": 211281}, {"name": "兴城市大红门文静建材商店", "address": "辽宁省兴城市大红门二楼七号杨莹", "id": 128160, "phone_number": 0, "preview_image": "brands_images/full/1383.jpg", "brand_id": 1383, "create_time": "NOW()", "longitude": 120.68065312193431, "latitude": 40.62082132460961, "official_coord": 0, "region_id_1": 210000, "region_id_2": 211400, "region_id_3": 211481}, {"name": "营口经济技术开发区清华园玉兰墙纸经销部", "address": "辽宁省营口市鲅鱼圈区昆仑大街中段清华园门市玉兰墙纸", "id": 128161, "phone_number": 0, "preview_image": "brands_images/full/1383.jpg", "brand_id": 1383, "create_time": "NOW()", "longitude": 122.1462122990015, "latitude": 40.18778152823494, "official_coord": 0, "region_id_1": 210000, "region_id_2": 210800, "region_id_3": 210804}, {"name": "佛山市禅城区盛大成铭装饰材料商行", "address": "广东省佛山市禅城区金鱼街31号2号", "id": 128162, "phone_number": 0, "preview_image": "brands_images/full/1383.jpg", "brand_id": 1383, "create_time": "NOW()", "longitude": 113.12494763472003, "latitude": 23.028040478031727, "official_coord": 0, "region_id_1": 440000, "region_id_2": 440600, "region_id_3": 440604}, {"name": "广州市越秀区雷萨斯装饰材料商行", "address": "广东省佛山市禅城区金鱼街45号首层墙纸店", "id": 128163, "phone_number": 0, "preview_image": "brands_images/full/1383.jpg", "brand_id": 1383, "create_time": "NOW()", "longitude": 113.12365287807074, "latitude": 23.02528369253336, "official_coord": 0, "region_id_1": 440000, "region_id_2": 440600, "region_id_3": 440604}, {"name": "佛山市禅城区刷新装饰涂料商行", "address": "广东省佛山市禅城区雾岗路华艺装饰博览城东区1座2号铺", "id": 128164, "phone_number": 0, "preview_image": "brands_images/full/1383.jpg", "brand_id": 1383, "create_time": "NOW()", "longitude": 113.10186040614538, "latitude": 23.004818533110438, "official_coord": 0, "region_id_1": 440000, "region_id_2": 440600, "region_id_3": 440604}, {"name": "佛山市南海百宜装饰材料有限公司", "address": "广东省佛山市南海区盐步大转湾装饰材料市场第五期D7座1、2号", "id": 128165, "phone_number": 0, "preview_image": "brands_images/full/1383.jpg", "brand_id": 1383, "create_time": "NOW()", "longitude": 113.19449958186866, "latitude": 23.107208107221243, "official_coord": 0, "region_id_1": 440000, "region_id_2": 440600, "region_id_3": 440605}, {"name": "佛山市三水区西南街恒生装饰材料店", "address": "广东省佛山市三水西南镇健力宝北路24号102", "id": 128166, "phone_number": 0, "preview_image": "brands_images/full/1383.jpg", "brand_id": 1383, "create_time": "NOW()", "longitude": 112.90510501982983, "latitude": 23.17565974625768, "official_coord": 0, "region_id_1": 440000, "region_id_2": 440600, "region_id_3": 440607}, {"name": "佛山市顺德区有度建材有限公司", "address": "广东省佛山市顺德区伦教镇南苑西路倾城上筑07号铺", "id": 128167, "phone_number": 0, "preview_image": "brands_images/full/1383.jpg", "brand_id": 1383, "create_time": "NOW()", "longitude": 113.2190807869156, "latitude": 22.869223343793383, "official_coord": 0, "region_id_1": 440000, "region_id_2": 440600, "region_id_3": 440606}, {"name": "德兴装饰材料行", "address": "广东省广州市白云区广州大道北京溪村天州家居城A133档", "id": 128168, "phone_number": 0, "preview_image": "brands_images/full/1383.jpg", "brand_id": 1383, "create_time": "NOW()", "longitude": 113.33062551632028, "latitude": 23.19036757063598, "official_coord": 0, "region_id_1": 440000, "region_id_2": 440100, "region_id_3": 440111}, {"name": "广州市南之方布艺有限公司", "address": "广东省广州市番禺区南村镇樟边村杜宅新区2巷22号", "id": 128169, "phone_number": 0, "preview_image": "brands_images/full/1383.jpg", "brand_id": 1383, "create_time": "NOW()", "longitude": 113.39088065157611, "latitude": 22.98728300878638, "official_coord": 0, "region_id_1": 440000, "region_id_2": 440100, "region_id_3": 440113}, {"name": "广州市番禺区市桥街中越装饰材料店", "address": "广东省广州市番禺区市桥德兴路159号", "id": 128170, "phone_number": 0, "preview_image": "brands_images/full/1383.jpg", "brand_id": 1383, "create_time": "NOW()", "longitude": 113.383588878674, "latitude": 22.94114135926888, "official_coord": 0, "region_id_1": 440000, "region_id_2": 440100, "region_id_3": 440113}, {"name": "广州市海珠区洲立装饰材料经营部", "address": "广东省广州市海珠区工业大道南656号第首层A5-17号", "id": 128171, "phone_number": 0, "preview_image": "brands_images/full/1383.jpg", "brand_id": 1383, "create_time": "NOW()", "longitude": 113.29103631943762, "latitude": 23.074889090755605, "official_coord": 0, "region_id_1": 440000, "region_id_2": 440100, "region_id_3": 440105}, {"name": "广州市和艺装饰设计工程有限公司", "address": "广东省广州市天河区花城大道3号2005房  ", "id": 128172, "phone_number": 0, "preview_image": "brands_images/full/1383.jpg", "brand_id": 1383, "create_time": "NOW()", "longitude": 113.32259570682984, "latitude": 23.126026934123534, "official_coord": 0, "region_id_1": 440000, "region_id_2": 440100, "region_id_3": 440106}, {"name": "广州市富易建筑工程有限公司", "address": "广东省广州市天河区黄埔大道299号东方国际建材城西五街323-325", "id": 128173, "phone_number": 0, "preview_image": "brands_images/full/1383.jpg", "brand_id": 1383, "create_time": "NOW()", "longitude": 113.38437191496051, "latitude": 23.12648549602181, "official_coord": 0, "region_id_1": 440000, "region_id_2": 440100, "region_id_3": 440106}, {"name": "广州普森装饰设计有限公司", "address": "广东省广州市天河区体育东路122号之二1205自编A房 ", "id": 128174, "phone_number": 0, "preview_image": "brands_images/full/1383.jpg", "brand_id": 1383, "create_time": "NOW()", "longitude": 113.33476650302579, "latitude": 23.139893665322006, "official_coord": 0, "region_id_1": 440000, "region_id_2": 440100, "region_id_3": 440106}, {"name": "广州市越秀区美亚装饰材料商店", "address": "广东省广州市越秀区大南路121号", "id": 128175, "phone_number": 0, "preview_image": "brands_images/full/1383.jpg", "brand_id": 1383, "create_time": "NOW()", "longitude": 113.27405255291977, "latitude": 23.126610432291237, "official_coord": 0, "region_id_1": 440000, "region_id_2": 440100, "region_id_3": 440104}, {"name": "广州市增城上锦装饰材料经营部", "address": "广东省广州增城新塘镇新塘大道西361号悦顺商务大厦15楼N-10室", "id": 128176, "phone_number": 0, "preview_image": "brands_images/full/1383.jpg", "brand_id": 1383, "create_time": "NOW()", "longitude": 113.59199703996214, "latitude": 23.117646643704926, "official_coord": 0, "region_id_1": 440000, "region_id_2": 440100, "region_id_3": 440118}, {"name": "江门市新会区铭明装饰材料有限公司", "address": "广东省江门市新会区会城振兴三路10座107", "id": 128177, "phone_number": 0, "preview_image": "brands_images/full/1383.jpg", "brand_id": 1383, "create_time": "NOW()", "longitude": 113.0460352451507, "latitude": 22.519193614189774, "official_coord": 0, "region_id_1": 440000, "region_id_2": 440700, "region_id_3": 440705}, {"name": "开平市长沙家辉装饰材料行", "address": "广东省开平市南岛顺景园119号", "id": 128178, "phone_number": 0, "preview_image": "brands_images/full/1383.jpg", "brand_id": 1383, "create_time": "NOW()", "longitude": 112.68620594467413, "latitude": 22.37825761307247, "official_coord": 0, "region_id_1": 440000, "region_id_2": 440700, "region_id_3": 440783}, {"name": "茂名贵族墙纸店", "address": "广东省茂名市高山计星物流广场E1区21-22号", "id": 128179, "phone_number": 0, "preview_image": "brands_images/full/1383.jpg", "brand_id": 1383, "create_time": "NOW()", "longitude": 110.91925046692664, "latitude": 21.650472427532346, "official_coord": 0, "region_id_1": 440000, "region_id_2": 440900, "region_id_3": 440902}, {"name": "佛冈原创动力装饰设计工程有限公司", "address": "广东省清远市佛冈县教育路泰康新村对面（红苹果家具旁）原创动力装饰公司", "id": 128180, "phone_number": 0, "preview_image": "brands_images/full/1383.jpg", "brand_id": 1383, "create_time": "NOW()", "longitude": 113.54312172575631, "latitude": 23.86740027507618, "official_coord": 0, "region_id_1": 440000, "region_id_2": 441800, "region_id_3": 441821}, {"name": "清远市清城区新城精虹墙纸店", "address": "广东省清远市新城连江路创益楼A座104号", "id": 128181, "phone_number": 0, "preview_image": "brands_images/full/1383.jpg", "brand_id": 1383, "create_time": "NOW()", "longitude": 113.05409039369357, "latitude": 23.693907820784737, "official_coord": 0, "region_id_1": 440000, "region_id_2": 441800, "region_id_3": 441802}, {"name": "浈江区艺术空间墙纸经营部", "address": "广东省韶关市南郊五公里雅华建材城二楼墙纸店", "id": 128182, "phone_number": 0, "preview_image": "brands_images/full/1383.jpg", "brand_id": 1383, "create_time": "NOW()", "longitude": 113.59367346031821, "latitude": 24.75897561396501, "official_coord": 0, "region_id_1": 440000, "region_id_2": 440200, "region_id_3": 440204}, {"name": "浈江区玉兰墙纸店", "address": "广东省韶关市启明路启明大楼横巷03铺", "id": 128183, "phone_number": 0, "preview_image": "brands_images/full/1383.jpg", "brand_id": 1383, "create_time": "NOW()", "longitude": 113.61355736844389, "latitude": 24.81154067621691, "official_coord": 0, "region_id_1": 440000, "region_id_2": 440200, "region_id_3": 440204}, {"name": "高新区美居乐窗帘布艺店", "address": "广东省四会市大旺高新区建设一路天和豪庭4-6卡", "id": 128184, "phone_number": 0, "preview_image": "brands_images/full/1383.jpg", "brand_id": 1383, "create_time": "NOW()", "longitude": 112.82607004045981, "latitude": 23.309199291134348, "official_coord": 0, "region_id_1": 440000, "region_id_2": 441200, "region_id_3": 441284}, {"name": "吴川市梅录辉煌装饰材料商行", "address": "广东省吴川市海滨建材市场C20-22号玉兰墙纸专卖店商铺(海景路2号教育局旁)", "id": 128185, "phone_number": 0, "preview_image": "brands_images/full/1383.jpg", "brand_id": 1383, "create_time": "NOW()", "longitude": 110.7809280747857, "latitude": 21.416323361557932, "official_coord": 0, "region_id_1": 440000, "region_id_2": 440800, "region_id_3": 440883}, {"name": "阳春市美利意家居布业店", "address": "广东省阳春市春城兴华路121号", "id": 128186, "phone_number": 0, "preview_image": "brands_images/full/1383.jpg", "brand_id": 1383, "create_time": "NOW()", "longitude": 111.79030133985304, "latitude": 22.162068152208512, "official_coord": 0, "region_id_1": 440000, "region_id_2": 441700, "region_id_3": 441781}, {"name": "阳江市江城区哥伦布墙纸装饰材料店", "address": "广东省阳江市江城区月星家居A14-1", "id": 128187, "phone_number": 0, "preview_image": "brands_images/full/1383.jpg", "brand_id": 1383, "create_time": "NOW()", "longitude": 111.97622169334531, "latitude": 21.834649544287394, "official_coord": 0, "region_id_1": 440000, "region_id_2": 441700, "region_id_3": 441702}, {"name": "英德市英城易佳智能家居生活馆", "address": "广东省英德市光明路鸿达花苑北二幢1-2号易佳智能家居生活馆(法院斜对面)", "id": 128188, "phone_number": 0, "preview_image": "brands_images/full/1383.jpg", "brand_id": 1383, "create_time": "NOW()", "longitude": 113.41026415781748, "latitude": 24.201186397317823, "official_coord": 0, "region_id_1": 440000, "region_id_2": 441800, "region_id_3": 441881}, {"name": "湛江市玉兰墙纸专卖店", "address": "广东省湛江市赤坎区海田路28号海田国际建材交易中心(西2门)三楼C79b玉兰墙纸", "id": 128189, "phone_number": 0, "preview_image": "brands_images/full/1383.jpg", "brand_id": 1383, "create_time": "NOW()", "longitude": 110.3916647618662, "latitude": 21.28320004125876, "official_coord": 0, "region_id_1": 440000, "region_id_2": 440800, "region_id_3": 440802}, {"name": "肇庆市端州区新艺晖装饰材料商行", "address": "广东省肇庆市端州区西江北路五金装饰城内2幢5-7卡", "id": 128190, "phone_number": 0, "preview_image": "brands_images/full/1383.jpg", "brand_id": 1383, "create_time": "NOW()", "longitude": 112.4548409212475, "latitude": 23.062255299540944, "official_coord": 0, "region_id_1": 440000, "region_id_2": 441200, "region_id_3": 441202}, {"name": "四会市天易笆尾牧仙绦", "address": "广东省肇庆市四会市东城区观海路怡翠皇庭2座36号摩卡软装体验馆", "id": 128191, "phone_number": 0, "preview_image": "brands_images/full/1383.jpg", "brand_id": 1383, "create_time": "NOW()", "longitude": 112.7192861344546, "latitude": 23.333306726619195, "official_coord": 0, "region_id_1": 440000, "region_id_2": 441200, "region_id_3": 441284}, {"name": "普安县交通路华信建材店", "address": "贵州黔西南州普安县盘水镇石灰窑交叉路口向下100米", "id": 128192, "phone_number": 0, "preview_image": "brands_images/full/1383.jpg", "brand_id": 1383, "create_time": "NOW()", "longitude": 105.15854259697392, "latitude": 25.525532157425594, "official_coord": 0, "region_id_1": 520000, "region_id_2": 522300, "region_id_3": 522322}, {"name": "王海艳（贵州省安龙县）", "address": "贵州省安龙县泓福小区建材城玉兰墙纸", "id": 128193, "phone_number": 0, "preview_image": "brands_images/full/1383.jpg", "brand_id": 1383, "create_time": "NOW()", "longitude": 105.6520864898661, "latitude": 25.394812514393614, "official_coord": 0, "region_id_1": 520000, "region_id_2": 522300, "region_id_3": 522325}, {"name": "关岭玉兰墙纸店", "address": "贵州省安顺市关岭县诚信建材市场2楼21号玉兰墙纸", "id": 128194, "phone_number": 0, "preview_image": "brands_images/full/1383.jpg", "brand_id": 1383, "create_time": "NOW()", "longitude": 105.62769161722234, "latitude": 25.941759189698264, "official_coord": 0, "region_id_1": 520000, "region_id_2": 520400, "region_id_3": 520424}, {"name": "安顺市平坝区玉兰墙纸经销店", "address": "贵州省安顺市平坝县北门建材城（益民小区路口50米）玉兰墙纸", "id": 128195, "phone_number": 0, "preview_image": "brands_images/full/1383.jpg", "brand_id": 1383, "create_time": "NOW()", "longitude": 106.26804164951449, "latitude": 26.425317260493284, "official_coord": 0, "region_id_1": 520000, "region_id_2": 520400, "region_id_3": 520421}, {"name": "杨家帮（贵州省普定县）", "address": "贵州省安顺市普定县紫金名城党固路6-15", "id": 128196, "phone_number": 0, "preview_image": "brands_images/full/1383.jpg", "brand_id": 1383, "create_time": "NOW()", "longitude": 105.74042308637854, "latitude": 26.306258298667263, "official_coord": 0, "region_id_1": 520000, "region_id_2": 520400, "region_id_3": 520422}, {"name": "安顺开发区玉兰墙纸布艺经营部", "address": "贵州省安顺市万邦建材大市场12栋109-110", "id": 128197, "phone_number": 0, "preview_image": "brands_images/full/1383.jpg", "brand_id": 1383, "create_time": "NOW()", "longitude": 105.90720224434126, "latitude": 26.229026631538865, "official_coord": 0, "region_id_1": 520000, "region_id_2": 520400, "region_id_3": 520402}, {"name": "镇宁自治县玉兰墙纸店", "address": "贵州省安顺市镇宁布依族苗族自治县东大街二桥南岸66号", "id": 128198, "phone_number": 0, "preview_image": "brands_images/full/1383.jpg", "brand_id": 1383, "create_time": "NOW()", "longitude": 105.87311108872996, "latitude": 25.85927959625683, "official_coord": 0, "region_id_1": 520000, "region_id_2": 520400, "region_id_3": 520423}, {"name": "紫云自治县玉兰墙纸店", "address": "贵州省安顺市紫云县新城大道城市之光国际家居城B13", "id": 128199, "phone_number": 0, "preview_image": "brands_images/full/1383.jpg", "brand_id": 1383, "create_time": "NOW()", "longitude": 106.097285451817, "latitude": 25.776916381311032, "official_coord": 0, "region_id_1": 520000, "region_id_2": 520400, "region_id_3": 520425}, {"name": "大方县绚美窗帘加工店", "address": "贵州省毕节市大方县杨家大沟绚美布艺店", "id": 128200, "phone_number": 0, "preview_image": "brands_images/full/1383.jpg", "brand_id": 1383, "create_time": "NOW()", "longitude": 105.62028833832369, "latitude": 27.143649227048908, "official_coord": 0, "region_id_1": 520000, "region_id_2": 520500, "region_id_3": 520521}, {"name": "赫章艳福墙纸店", "address": "贵州省毕节市赫章县城关镇夜郎广场建材街玉兰墙纸", "id": 128201, "phone_number": 0, "preview_image": "brands_images/full/1383.jpg", "brand_id": 1383, "create_time": "NOW()", "longitude": 104.73314277385536, "latitude": 27.12045449308137, "official_coord": 0, "region_id_1": 520000, "region_id_2": 520500, "region_id_3": 520527}, {"name": "袁敏（重庆市永川市）", "address": "贵州省毕节市金沙县同心城16栋1-13号门市", "id": 128202, "phone_number": 0, "preview_image": "brands_images/full/1383.jpg", "brand_id": 1383, "create_time": "NOW()", "longitude": 106.04507463478654, "latitude": 26.99758326351808, "official_coord": 0, "region_id_1": 520000, "region_id_2": 520500, "region_id_3": 520522}, {"name": "纳雍县玉兰墙纸店", "address": "贵州省毕节市纳雍县恒达路口玉兰墙纸店", "id": 128203, "phone_number": 0, "preview_image": "brands_images/full/1383.jpg", "brand_id": 1383, "create_time": "NOW()", "longitude": 105.3876759018394, "latitude": 26.77276416761877, "official_coord": 0, "region_id_1": 520000, "region_id_2": 520500, "region_id_3": 520525}, {"name": "黔西县久远装饰材料经营店", "address": "贵州省毕节市黔西县新车站左侧100米国济妇产医院旁玉兰墙纸", "id": 128204, "phone_number": 0, "preview_image": "brands_images/full/1383.jpg", "brand_id": 1383, "create_time": "NOW()", "longitude": 106.04733731268442, "latitude": 27.020866901810034, "official_coord": 0, "region_id_1": 520000, "region_id_2": 520500, "region_id_3": 520522}, {"name": "贵定县大溪地有氧石材", "address": "贵州省都匀市贵定县金鑫建材市场玉兰墙纸店", "id": 128205, "phone_number": 0, "preview_image": "brands_images/full/1383.jpg", "brand_id": 1383, "create_time": "NOW()", "longitude": 106.40139374110385, "latitude": 25.736941400033707, "official_coord": 0, "region_id_1": 520000, "region_id_2": 522700, "region_id_3": 522729}, {"name": "瓮安县玉兰墙纸店", "address": "贵州省都匀市瓮安县文峰南路国资公司斜对面多彩壁纸", "id": 128206, "phone_number": 0, "preview_image": "brands_images/full/1383.jpg", "brand_id": 1383, "create_time": "NOW()", "longitude": 107.24038884522781, "latitude": 26.589607092692948, "official_coord": 0, "region_id_1": 520000, "region_id_2": 522700, "region_id_3": 522723}, {"name": "罗福梅（贵州省都匀市）", "address": "贵州省都匀市匀都广场建材市场玉兰墙纸店", "id": 128207, "phone_number": 0, "preview_image": "brands_images/full/1383.jpg", "brand_id": 1383, "create_time": "NOW()", "longitude": 107.47755892677793, "latitude": 26.15365713548049, "official_coord": 0, "region_id_1": 520000, "region_id_2": 522700, "region_id_3": 522701}, {"name": "李慧丽（贵州省贵阳市观山湖区）", "address": "贵州省贵阳市观山湖区北京西路居然之家4-029", "id": 128208, "phone_number": 0, "preview_image": "brands_images/full/1383.jpg", "brand_id": 1383, "create_time": "NOW()", "longitude": 106.6340306953086, "latitude": 26.604334285821434, "official_coord": 0, "region_id_1": 520000, "region_id_2": 520100, "region_id_3": 520115}, {"name": "彭国祥（重庆市忠县）", "address": "贵州省贵阳市花溪区中曹司凯宏家居1-1", "id": 128209, "phone_number": 0, "preview_image": "brands_images/full/1383.jpg", "brand_id": 1383, "create_time": "NOW()", "longitude": 106.68392761080369, "latitude": 26.510133726250956, "official_coord": 0, "region_id_1": 520000, "region_id_2": 520100, "region_id_3": 520111}, {"name": "贵州顺兴美装饰材料有限公司", "address": "贵州省贵阳市南明区花果园R1区6栋814", "id": 128210, "phone_number": 0, "preview_image": "brands_images/full/1383.jpg", "brand_id": 1383, "create_time": "NOW()", "longitude": 106.67617243716278, "latitude": 26.56090446810743, "official_coord": 0, "region_id_1": 520000, "region_id_2": 520100, "region_id_3": 520102}, {"name": "贵阳市南明区绿源生态木经营部", "address": "贵州省贵阳市南明区太慈桥新发市场二大道三号", "id": 128211, "phone_number": 0, "preview_image": "brands_images/full/1383.jpg", "brand_id": 1383, "create_time": "NOW()", "longitude": 106.69340394418049, "latitude": 26.56254261756193, "official_coord": 0, "region_id_1": 520000, "region_id_2": 520100, "region_id_3": 520102}, {"name": "徐周荣（贵州省贵阳市南明区）", "address": "贵州省贵阳市南明区浙江商贸城B区10068", "id": 128212, "phone_number": 0, "preview_image": "brands_images/full/1383.jpg", "brand_id": 1383, "create_time": "NOW()", "longitude": 106.71543275738503, "latitude": 26.567058122918564, "official_coord": 0, "region_id_1": 520000, "region_id_2": 520100, "region_id_3": 520102}, {"name": "乌当区玉兰墙纸", "address": "贵州省贵阳市乌当区新天寨卫城蓝波湾新天建材城13号", "id": 128213, "phone_number": 0, "preview_image": "brands_images/full/1383.jpg", "brand_id": 1383, "create_time": "NOW()", "longitude": 106.76998313037805, "latitude": 26.637037367417864, "official_coord": 0, "region_id_1": 520000, "region_id_2": 520100, "region_id_3": 520112}, {"name": "贵阳云岩鑫尚品装饰材料经营部", "address": "贵州省贵阳市云岩区威清路270号比兰德装饰材料市场103-1号", "id": 128214, "phone_number": 0, "preview_image": "brands_images/full/1383.jpg", "brand_id": 1383, "create_time": "NOW()", "longitude": 106.70596245314431, "latitude": 26.594186107738206, "official_coord": 0, "region_id_1": 520000, "region_id_2": 520100, "region_id_3": 520103}, {"name": "贵州云上装饰工程有限责任公司", "address": "贵州省贵阳市云岩区中华北路184号六广门天毅大厦19楼云上装饰", "id": 128215, "phone_number": 0, "preview_image": "brands_images/full/1383.jpg", "brand_id": 1383, "create_time": "NOW()", "longitude": 106.7178352228553, "latitude": 26.597934706105306, "official_coord": 0, "region_id_1": 520000, "region_id_2": 520100, "region_id_3": 520103}, {"name": "凯里市雷山县玉兰墙纸", "address": "贵州省凯里市雷山县桂花街玉兰墙纸", "id": 128216, "phone_number": 0, "preview_image": "brands_images/full/1383.jpg", "brand_id": 1383, "create_time": "NOW()", "longitude": 108.13387036164173, "latitude": 27.03663301858711, "official_coord": 0, "region_id_1": 520000, "region_id_2": 522600, "region_id_3": 522623}, {"name": "红果艺术饰家墙纸", "address": "贵州省六盘水市盘县红果五十米大街家具建材广场一楼玉兰墙纸", "id": 128217, "phone_number": 0, "preview_image": "brands_images/full/1383.jpg", "brand_id": 1383, "create_time": "NOW()", "longitude": 104.47653548813973, "latitude": 25.710179747476076, "official_coord": 0, "region_id_1": 0, "region_id_2": 0, "region_id_3": 0}, {"name": "长顺县玉m墙纸店", "address": "贵州省黔南布依族苗族自治州长顺县御景金湾家居建材广场城F栋壹层F1-3、F1-4号玉兰墙纸.兰居窗帘（商铺）", "id": 128218, "phone_number": 0, "preview_image": "brands_images/full/1383.jpg", "brand_id": 1383, "create_time": "NOW()", "longitude": 106.45354789829916, "latitude": 26.02705128677262, "official_coord": 0, "region_id_1": 520000, "region_id_2": 522700, "region_id_3": 522729}, {"name": "成亚军（贵州省兴义市兴仁县）", "address": "贵州省黔西南布依族苗族自治州兴仁县盛丰国际商贸城C4栋7-8门面", "id": 128219, "phone_number": 0, "preview_image": "brands_images/full/1383.jpg", "brand_id": 1383, "create_time": "NOW()", "longitude": 105.22942348585156, "latitude": 25.455857445650597, "official_coord": 0, "region_id_1": 520000, "region_id_2": 522300, "region_id_3": 522322}, {"name": "清镇市玉兰墙纸经营部", "address": "贵州省清镇市云岭东路801终点站商场内57号门面", "id": 128220, "phone_number": 0, "preview_image": "brands_images/full/1383.jpg", "brand_id": 1383, "create_time": "NOW()", "longitude": 106.72057882113349, "latitude": 26.597514485549976, "official_coord": 0, "region_id_1": 520000, "region_id_2": 520100, "region_id_3": 520103}, {"name": "铜仁市大宝漆经营部", "address": "贵州省铜仁市碧江区东太建材市场231号门面", "id": 128221, "phone_number": 0, "preview_image": "brands_images/full/1383.jpg", "brand_id": 1383, "create_time": "NOW()", "longitude": 109.19226528726857, "latitude": 27.723851836422917, "official_coord": 0, "region_id_1": 520000, "region_id_2": 520600, "region_id_3": 520602}, {"name": "德江县玉兰墙纸店", "address": "贵州省铜仁市德江县温州商贸城26栋211-212门面玉兰墙纸店", "id": 128222, "phone_number": 0, "preview_image": "brands_images/full/1383.jpg", "brand_id": 1383, "create_time": "NOW()", "longitude": 108.1266298894063, "latitude": 28.251414900736762, "official_coord": 0, "region_id_1": 520000, "region_id_2": 520600, "region_id_3": 520626}, {"name": "贵州石阡金誉商贸有限公司", "address": "贵州省铜仁市石阡县政府大楼右侧", "id": 128223, "phone_number": 0, "preview_image": "brands_images/full/1383.jpg", "brand_id": 1383, "create_time": "NOW()", "longitude": 108.22972220611243, "latitude": 27.519985516887665, "official_coord": 0, "region_id_1": 520000, "region_id_2": 520600, "region_id_3": 520623}, {"name": "兴义市忠恒建材经营部", "address": "贵州省兴义市神奇东路康居广场玉兰墙纸", "id": 128224, "phone_number": 0, "preview_image": "brands_images/full/1383.jpg", "brand_id": 1383, "create_time": "NOW()", "longitude": 104.92636784244407, "latitude": 25.095954530288555, "official_coord": 0, "region_id_1": 520000, "region_id_2": 522300, "region_id_3": 522301}, {"name": "贞丰县玉兰墙纸店", "address": "贵州省兴义市贞丰县贞丰国际商贸城8栋", "id": 128225, "phone_number": 0, "preview_image": "brands_images/full/1383.jpg", "brand_id": 1383, "create_time": "NOW()", "longitude": 104.864524912706, "latitude": 25.128172314455814, "official_coord": 0, "region_id_1": 520000, "region_id_2": 522300, "region_id_3": 522301}, {"name": "贺乾敏（贵州省遵义市凤冈县）", "address": "贵州省遵义市凤冈县美家天地建材市场第四排二楼玉兰墙纸", "id": 128226, "phone_number": 0, "preview_image": "brands_images/full/1383.jpg", "brand_id": 1383, "create_time": "NOW()", "longitude": 106.94419103667097, "latitude": 27.697800820070686, "official_coord": 0, "region_id_1": 520000, "region_id_2": 520300, "region_id_3": 520302}, {"name": "何佳（贵州省遵义县苟江镇）", "address": "贵州省遵义市湄潭县亿佰汇家居城三楼A区113号", "id": 128227, "phone_number": 0, "preview_image": "brands_images/full/1383.jpg", "brand_id": 1383, "create_time": "NOW()", "longitude": 107.41825864961845, "latitude": 27.742346275725854, "official_coord": 0, "region_id_1": 520000, "region_id_2": 520300, "region_id_3": 520328}, {"name": "周利娟（贵州省仁怀市）", "address": "贵州省遵义市仁怀市东环线南段贝美特家居中心2楼", "id": 128228, "phone_number": 0, "preview_image": "brands_images/full/1383.jpg", "brand_id": 1383, "create_time": "NOW()", "longitude": 107.90485204949272, "latitude": 27.22490412406491, "official_coord": 0, "region_id_1": 520000, "region_id_2": 520300, "region_id_3": 520329}, {"name": "饶丽（贵州省绥阳县）", "address": "贵州省遵义市绥阳县万丰建材市场12栋2楼玉兰墙纸", "id": 128229, "phone_number": 0, "preview_image": "brands_images/full/1383.jpg", "brand_id": 1383, "create_time": "NOW()", "longitude": 106.94419103667097, "latitude": 27.697800820070686, "official_coord": 0, "region_id_1": 520000, "region_id_2": 520300, "region_id_3": 520302}, {"name": "桐梓县玉兰墙纸经营部", "address": "贵州省遵义市桐梓县娄山关国际商贸城2楼12栋玉兰墙纸", "id": 128230, "phone_number": 0, "preview_image": "brands_images/full/1383.jpg", "brand_id": 1383, "create_time": "NOW()", "longitude": 106.80974264269454, "latitude": 28.121148548054833, "official_coord": 0, "region_id_1": 520000, "region_id_2": 520300, "region_id_3": 520322}, {"name": "邹力（务川仡佬族苗族自治县都濡镇）", "address": "贵州省遵义市务川县都濡镇环中路", "id": 128231, "phone_number": 0, "preview_image": "brands_images/full/1383.jpg", "brand_id": 1383, "create_time": "NOW()", "longitude": 107.19695739010923, "latitude": 27.96239232689316, "official_coord": 0, "region_id_1": 520000, "region_id_2": 520300, "region_id_3": 520323}, {"name": "安达市玉兰壁纸专营店", "address": "黑龙江省安达市六道街金地高层楼下玉兰墙纸", "id": 128232, "phone_number": 0, "preview_image": "brands_images/full/1383.jpg", "brand_id": 1383, "create_time": "NOW()", "longitude": 125.34266551088074, "latitude": 46.4150370715869, "official_coord": 0, "region_id_1": 230000, "region_id_2": 231200, "region_id_3": 231281}, {"name": "宝清县玉兰壁纸店", "address": "黑龙江省宝清县金地雅居北门玉兰墙纸店 ", "id": 128233, "phone_number": 0, "preview_image": "brands_images/full/1383.jpg", "brand_id": 1383, "create_time": "NOW()", "longitude": 132.21912819021415, "latitude": 46.333686224964, "official_coord": 0, "region_id_1": 230000, "region_id_2": 230500, "region_id_3": 230523}, {"name": "北安市玉兰墙壁纸商店", "address": "黑龙江省北安市中六道街玉兰墙纸", "id": 128234, "phone_number": 0, "preview_image": "brands_images/full/1383.jpg", "brand_id": 1383, "create_time": "NOW()", "longitude": 126.51686667791323, "latitude": 48.25112275693024, "official_coord": 0, "region_id_1": 230000, "region_id_2": 231100, "region_id_3": 231181}, {"name": "大庆市让胡路区玉兰墙纸商店", "address": "黑龙江省大庆市让胡路新潮东广场3号门FE35玉兰墙纸店", "id": 128235, "phone_number": 0, "preview_image": "brands_images/full/1383.jpg", "brand_id": 1383, "create_time": "NOW()", "longitude": 124.90325576076354, "latitude": 46.599834209021765, "official_coord": 0, "region_id_1": 230000, "region_id_2": 230600, "region_id_3": 230604}, {"name": "富锦市玉兰墙纸地板商店", "address": "黑龙江省富锦市文明路东段玉兰墙纸", "id": 128236, "phone_number": 0, "preview_image": "brands_images/full/1383.jpg", "brand_id": 1383, "create_time": "NOW()", "longitude": 132.0545401695055, "latitude": 47.26032565720303, "official_coord": 0, "region_id_1": 230000, "region_id_2": 230800, "region_id_3": 230882}, {"name": "哈尔滨市道外区鑫玉兰装饰材料商店", "address": "黑龙江省哈尔滨市道里区埃德蒙顿211-3-1号", "id": 128237, "phone_number": 0, "preview_image": "brands_images/full/1383.jpg", "brand_id": 1383, "create_time": "NOW()", "longitude": 126.59723477271532, "latitude": 45.74023447884301, "official_coord": 0, "region_id_1": 230000, "region_id_2": 230100, "region_id_3": 230102}, {"name": "鹤岗市工农区伟润室内装饰材料商店", "address": "黑龙江省鹤岗市工农区烟草一条街玉兰墙纸店", "id": 128238, "phone_number": 0, "preview_image": "brands_images/full/1383.jpg", "brand_id": 1383, "create_time": "NOW()", "longitude": 130.28027301126247, "latitude": 47.32841420598649, "official_coord": 0, "region_id_1": 230000, "region_id_2": 230400, "region_id_3": 230403}, {"name": "建三江玉兰墙纸", "address": "黑龙江省佳木斯市建三江管局二抚路阳光一号楼玉兰墙纸店", "id": 128239, "phone_number": 0, "preview_image": "brands_images/full/1383.jpg", "brand_id": 1383, "create_time": "NOW()", "longitude": 132.63851946069283, "latitude": 47.26314071009267, "official_coord": 0, "region_id_1": 230000, "region_id_2": 230800, "region_id_3": 230882}, {"name": "龙江县玉兰墙纸商店", "address": "黑龙江省龙江县翰沃建材城5-3-101玉兰墙纸", "id": 128240, "phone_number": 0, "preview_image": "brands_images/full/1383.jpg", "brand_id": 1383, "create_time": "NOW()", "longitude": 123.95830288751814, "latitude": 47.33255378538473, "official_coord": 0, "region_id_1": 230000, "region_id_2": 230200, "region_id_3": 230202}, {"name": "密山市密山镇天和装饰材料商店", "address": "黑龙江省密山市光复街检查院3号楼玉兰墙纸", "id": 128241, "phone_number": 0, "preview_image": "brands_images/full/1383.jpg", "brand_id": 1383, "create_time": "NOW()", "longitude": 131.87227211224211, "latitude": 45.55133358514587, "official_coord": 0, "region_id_1": 230000, "region_id_2": 230300, "region_id_3": 230382}, {"name": "慈溪市逍林蒂雅建材店", "address": "浙江省慈溪市三北大街3305号红星美凯龙三楼西厅C8031", "id": 128242, "phone_number": 0, "preview_image": "brands_images/full/1383.jpg", "brand_id": 1383, "create_time": "NOW()", "longitude": 121.31127851399333, "latitude": 30.173606994184155, "official_coord": 0, "region_id_1": 330000, "region_id_2": 330200, "region_id_3": 330282}, {"name": "杭州蓝玉化工有限公司", "address": "浙江省杭州市江干区德胜东路2888号恒大建材市场C3-4003号", "id": 128243, "phone_number": 0, "preview_image": "brands_images/full/1383.jpg", "brand_id": 1383, "create_time": "NOW()", "longitude": 120.3011006020605, "latitude": 30.32357487942163, "official_coord": 0, "region_id_1": 330000, "region_id_2": 330100, "region_id_3": 330110}, {"name": "杭州启轩家居有限公司", "address": "浙江省杭州市江干区航海路601东方大厦A-911", "id": 128244, "phone_number": 0, "preview_image": "brands_images/full/1383.jpg", "brand_id": 1383, "create_time": "NOW()", "longitude": 120.18680524046387, "latitude": 30.252175118204708, "official_coord": 0, "region_id_1": 330000, "region_id_2": 330100, "region_id_3": 330102}, {"name": "杭州艺优墙纸有限公司", "address": "浙江省杭州市江干区秋涛北路120号B区104号", "id": 128245, "phone_number": 0, "preview_image": "brands_images/full/1383.jpg", "brand_id": 1383, "create_time": "NOW()", "longitude": 120.20747271158643, "latitude": 30.272603624623173, "official_coord": 0, "region_id_1": 330000, "region_id_2": 330100, "region_id_3": 330104}, {"name": "淳安千岛湖素琴软装生活馆", "address": "浙江省杭州市千岛湖镇马路村建材市场(和盛市场)4楼玉兰软装生活馆", "id": 128246, "phone_number": 0, "preview_image": "brands_images/full/1383.jpg", "brand_id": 1383, "create_time": "NOW()", "longitude": 119.11420827164159, "latitude": 29.607155564249247, "official_coord": 0, "region_id_1": 330000, "region_id_2": 330100, "region_id_3": 330127}, {"name": "桐庐蓝鸟装潢材料经营部", "address": "浙江省杭州市桐庐县春江路882号", "id": 128247, "phone_number": 0, "preview_image": "brands_images/full/1383.jpg", "brand_id": 1383, "create_time": "NOW()", "longitude": 119.68842416098057, "latitude": 29.798699975772255, "official_coord": 0, "region_id_1": 330000, "region_id_2": 330100, "region_id_3": 330122}, {"name": "杭州瑞森壁纸有限公司", "address": "浙江省杭州市下城区刀茅巷216号晶晶大厦601", "id": 128248, "phone_number": 0, "preview_image": "brands_images/full/1383.jpg", "brand_id": 1383, "create_time": "NOW()", "longitude": 120.1931548347243, "latitude": 30.273973302790118, "official_coord": 0, "region_id_1": 330000, "region_id_2": 330100, "region_id_3": 330103}, {"name": "杭州萧山世纪建材装饰市场格蒂墙纸店", "address": "浙江省杭州市萧山区世纪建材市场4-105", "id": 128249, "phone_number": 0, "preview_image": "brands_images/full/1383.jpg", "brand_id": 1383, "create_time": "NOW()", "longitude": 120.29441062699495, "latitude": 30.209173074231945, "official_coord": 0, "region_id_1": 330000, "region_id_2": 330100, "region_id_3": 330109}, {"name": "杭州市萧山区瑞亿墙纸商行", "address": "浙江省杭州市萧山区通惠北路世纪建材市场10-110", "id": 128250, "phone_number": 0, "preview_image": "brands_images/full/1383.jpg", "brand_id": 1383, "create_time": "NOW()", "longitude": 120.29441062699495, "latitude": 30.209173074231945, "official_coord": 0, "region_id_1": 330000, "region_id_2": 330100, "region_id_3": 330109}, {"name": "杭州诺茂装饰材料有限公司", "address": "浙江省杭州市余杭区临平望梅路586号江南装饰广场3幢1-8号", "id": 128251, "phone_number": 0, "preview_image": "brands_images/full/1383.jpg", "brand_id": 1383, "create_time": "NOW()", "longitude": 120.26624445683456, "latitude": 30.428212245368314, "official_coord": 0, "region_id_1": 330000, "region_id_2": 330100, "region_id_3": 330110}, {"name": "德清武康雅庭家居用品商行", "address": "浙江省湖州市德清县武康镇舞阳街863号", "id": 128252, "phone_number": 0, "preview_image": "brands_images/full/1383.jpg", "brand_id": 1383, "create_time": "NOW()", "longitude": 119.98310489669478, "latitude": 30.532056642621967, "official_coord": 0, "region_id_1": 330000, "region_id_2": 330500, "region_id_3": 330521}, {"name": "湖州吴兴福丽家油漆涂料商行", "address": "浙江省湖州市吴兴区米兰装饰广场B区17号-20号", "id": 128253, "phone_number": 0, "preview_image": "brands_images/full/1383.jpg", "brand_id": 1383, "create_time": "NOW()", "longitude": 120.13362868382868, "latitude": 30.88968788643463, "official_coord": 0, "region_id_1": 330000, "region_id_2": 330500, "region_id_3": 330502}, {"name": "海宁庆欣建筑装饰有限公司", "address": "浙江省嘉兴市海宁市硖石镇康乐路61-3号", "id": 128254, "phone_number": 0, "preview_image": "brands_images/full/1383.jpg", "brand_id": 1383, "create_time": "NOW()", "longitude": 120.71116693828058, "latitude": 30.524296651092293, "official_coord": 0, "region_id_1": 330000, "region_id_2": 330400, "region_id_3": 330481},